     2.11           OBSERVATION DATA    M (MIXED)           RINEX VERSION / TYPE
teqc  2019Feb25     NGS Web             20220704 07:18:43UTCPGM / RUN BY / DATE
Linux 2.4.21-27.ELsmp|Opteron|gcc|Linux 64|=+               COMMENT
teqc  2019Feb25     CORS-ADM Account    20210530 21:20:21UTCCOMMENT
teqc  2019Feb25     NOAA/NOS/NGS/CORS   20210429 11:20:44UTCCOMMENT
teqc  2020Oct7      UNAVCO Archive Ops  20210429 00:48:36UTCCOMMENT
  0.0080      (antenna height)                              COMMENT
 +37.41651209 (latitude)                                    COMMENT
-122.20424721 (longitude)                                   COMMENT
0064.231      (elevation)                                   COMMENT
BIT 2 OF LLI FLAGS DATA COLLECTED UNDER A/S CONDITION       COMMENT
SLAC (COGO code)                                            COMMENT
RINEX file created by UNAVCO GPS Archive.                   COMMENT
For more information contact archive-gps@unavco.org         COMMENT
Monument ID: 18858                                          COMMENT
UNAVCO 4-char name:   SLAC                                  COMMENT
4-char name from Log or data file: SLAC                     COMMENT
Monument location: 37.416517 -122.204262 63.6962            COMMENT
Visit ID: 126772                                            COMMENT
doi:10.7283/T5KS6PW7                                        COMMENT
End of DB comments                                          COMMENT
input file: slac202104280000a.tgd                           COMMENT
 SNR is mapped to RINEX snr flag value [0-9]                COMMENT
  L1 & L2: min(max(int(snr_dBHz/6), 0), 9)                  COMMENT
teqc.e edited: all SBAS satellites excluded                 COMMENT
teqc.e edited: all QZSS satellites excluded                 COMMENT
Forced Modulo Decimation to 30 seconds                      COMMENT
SLAC                                                        MARKER NAME
49523S001                                                   MARKER NUMBER
Blume, Freddy       UNAVCO                                  OBSERVER / AGENCY
5302K56635          TRIMBLE NETR9       5.42                REC # / TYPE / VERS
0220369855          TRM59800.80     NONE                    ANT # / TYPE
 -2703115.2660 -4291768.3440  3854247.9550                  APPROX POSITION XYZ
        0.0000        0.0000        0.0000                  ANTENNA: DELTA H/E/N
     1     1                                                WAVELENGTH FACT L1/2
    20    L1    L2    C1    P2    P1    S1    S2    C2    L5# / TYPES OF OBSERV
          C5    S5    L6    C6    S6    L7    C7    S7    L8# / TYPES OF OBSERV
          C8    S8                                          # / TYPES OF OBSERV
    30.0000                                                 INTERVAL
teqc.w windowed: start @ 2021 Apr 28 19:00:00.000           COMMENT
teqc.w windowed:  end  @ 2021 Apr 28 21:00:00.000           COMMENT
  2021     4    28    19     0    0.0000000     GPS         TIME OF FIRST OBS
    18                                                      LEAP SECONDS
                                                            END OF HEADER
 21  4 28 19  0  0.0000000  0 25G15G19G01G17G02G12R15G30G13G28R19R18
                                G06G14R09R08G24R07R16E07E30E13E21E27
                                E15
 122610995.213 7  95540973.904 6  23332073.875    23332083.105
        42.200          37.800    23332082.176


 105562626.468 8  82256563.65447  20087880.078    20087884.836
        52.100          46.700


 126106956.825 5  98265263.438 5  23997373.680    23997385.781
        35.200          35.000    23997383.805    94170889.157 7  23997384.797
        42.200

 109602580.084 8  85404637.103 8  20856676.719    20856683.887
        49.800          48.000    20856683.199


 130100184.800 6 101376823.41643  24757245.625    24757254.855
        39.400          20.100


 130726581.892 5 101864763.38014  24876415.758    24876424.727
        34.200          29.900    24876424.309


 126597192.758 5  98464487.559 4  23690939.523    23690942.566    23690937.469
        31.100          28.800


 122562103.328 7  95502864.017 6  23322776.570    23322787.234
        43.700          40.200    23322787.203    91523592.242 7  23322787.500
        46.700

 118668175.293 7  92468744.69844  22581807.156    22581815.184
        45.000          28.500


 114076402.733 8  88890719.24945  21708016.938    21708023.063
        48.700          35.500


 104392234.102 6  81194114.747 6  19515060.938    19515063.672    19515058.461
        40.800          40.900    19515063.863


 109158022.187 8  84900827.659 7  20449014.805    20449019.223    20449014.457
        48.700          43.400    20449018.184


 120420486.847 6  93834152.342 6  22915242.211    22915253.797
        41.300          40.800    22915253.750    89924419.109 8  22915254.633
        48.600

 115623073.204 7  90095917.056 7  22002342.031    22002350.035
        45.000          45.000    22002349.746    86341947.779 8  22002354.125
        51.500

 108828293.432 8  84644239.424 7  20380044.656    20380046.926    20380043.766
        49.900          43.000    20380046.234


 127254883.461 5                  23763968.992                    23763967.957
        32.300


 116885458.679 7  91079517.072 7  22242537.742    22242548.254
        44.700          44.500    22242547.949    87284538.670 8  22242548.570
        50.800

 126488013.436 6  98379569.822 5  23629036.172    23629042.102    23629035.859
        39.400          34.700    23629040.574


 106626738.984 7  82931934.149 6  19960751.719    19960754.523    19960751.184
        46.000          40.500    19960753.754


 148306079.650 6                  28221722.273
        38.500                                   110748041.190 6  28221731.355
        37.000                                                   113637116.528 6
  28221732.609          39.500   112192577.961 6  28221731.727          41.700
 128295772.209 8                  24413877.055
        48.100                                    95805298.749 8  24413882.945
        48.700                                                    98304568.392 7
  24413882.137          47.800    97054924.170 8  24413882.016          50.600
 138490138.933 6                  26353786.563
        40.000                                   103418000.943 7  26353795.277
        44.000                                                   106115851.021 7
  26353793.066          43.500   104766926.588 7  26353794.547          46.900
 139892915.850 7                  26620734.320
        42.600                                   104465518.044 7  26620740.488
        43.600                                                   107190704.583 7
  26620740.332          44.500   105828109.427 7  26620740.297          47.200
 124314497.240 8                  23656261.148
        52.000                                    92832282.401 8  23656266.277
        51.400                                                    95253991.221 8
  23656265.281          50.900    94043134.914 9  23656265.570          54.000
 125923871.783 8                  23962510.719
        50.300                                    94034101.275 8  23962516.750
        50.400                                                    96487153.227 8
  23962515.637          49.500    95260628.359 8  23962516.211          52.800
 21  4 28 19  0 30.0000000  0 24G15G19G01G17G02G12G30G13G28R19R18G06
                                G14R09R08G24R07R16E07E30E13E21E27E15
 122665814.306 7  95583690.054 6  23342507.008    23342515.199
        43.000          38.900    23342514.539


 105548914.264 8  82245878.82647  20085270.422    20085275.531
        52.100          46.500


 126180522.833 5  98322587.546 5  24011372.609    24011384.922
        35.700          35.700    24011384.352    94225824.769 7  24011383.496
        42.700

 109650045.467 8  85441623.123 7  20865709.586    20865716.332
        50.300          46.900    20865716.074


 129995719.436 6 101295422.04543  24737366.008    24737376.152
        38.900          21.100


 130641880.508 5 101798762.36815  24860296.156
        31.200          30.800    24860305.707


 122661909.866 7  95580635.271 6  23341768.742    23341779.543
        42.300          39.900    23341779.965    91598122.968 7  23341780.680
        47.000

 118752714.069 7  92534619.01244  22597895.086    22597902.086
        45.000          28.200


 114116079.045 8  88921635.83245  21715566.992    21715573.523
        48.500          35.500


 104347144.134 6  81159044.787 6  19506630.258    19506634.684    19506629.578
        39.800          41.700    19506634.453


 109232014.828 8  84958377.482 7  20462875.984    20462880.449    20462875.469
        48.100          44.100    20462880.020


 120323223.077 6  93758362.436 6  22896734.055    22896745.262
        41.400          41.300    22896745.148    89851787.159 8  22896745.863
        48.700

 115680471.762 7  90140643.184 7  22013264.891    22013272.992
        46.500          45.400    22013272.422    86384810.314 8  22013276.555
        51.400

 108761712.437 8  84592454.223 7  20367575.602    20367578.492    20367574.996
        50.100          43.900    20367578.000


 127266547.362 5                  23766151.734                    23766147.172
        30.100


 116806648.643 7  91018106.670 7  22227540.844    22227551.258
        44.700          44.500    22227550.613    87225687.039 8  22227551.199
        51.200

 126569817.402 6  98443195.074 5  23644319.086    23644324.117    23644317.539
        40.100          35.600    23644324.730


 106652689.248 7  82952117.675 7  19965609.641    19965612.422    19965609.105
        45.700          42.000    19965612.957


 148386746.331 6                  28237072.727
        38.500                                   110808279.092 6  28237083.777
        40.900                                                   113698925.927 6
  28237080.379          36.700   112253601.619 7  28237082.793          42.300
 128339283.257 8                  24422156.805
        48.500                                    95837790.753 8  24422163.035
        48.700                                                    98337908.015 7
  24422160.926          46.800    97087839.993 8  24422161.988          50.300
 138396460.778 6                  26335959.531
        39.100                                   103348046.534 7  26335967.789
        43.800                                                   106044071.716 7
  26335967.809          43.600   104696059.735 7  26335968.289          46.600
 139834308.252 7                  26609582.719
        43.000                                   104421752.674 7  26609587.680
        43.500                                                   107145797.491 7
  26609587.344          44.600   105783773.180 7  26609587.574          47.100
 124299413.132 8                  23653390.906
        52.400                                    92821018.292 8  23653395.891
        51.700                                                    95242433.267 8
  23653394.855          51.000    94031723.883 9  23653395.145          54.000
 125884588.587 8                  23955035.430
        50.300                                    94004766.429 8  23955041.516
        50.700                                                    96457053.119 8
  23955040.434          49.400    95230910.883 8  23955040.793          52.900
 21  4 28 19  1  0.0000000  0 24G15G19G01G17G02G12R15G30G13G28R19R18
                                G06G14R09G24R07R16E07E30E13E21E27E15
 122721009.052 7  95626698.925 6  23353009.805    23353018.238
        42.300          38.900    23353017.563


 105535741.883 8  82235614.64547  20082763.648    20082768.863
        51.500          46.700


 126254561.297 5  98380279.865 5  24025461.836    24025474.598
        35.800          35.700    24025473.793    94281113.191 6  24025470.977
        41.500

 109697864.628 8  85478884.790 7  20874809.039    20874816.160
        50.200          47.400    20874816.078


 129891236.261 6 101214006.75143  24717484.789    24717493.875
        39.100          21.700


 130557203.316 5 101732780.21415  24844187.367
        30.800          30.900    24844192.133


 126779501.10114  98606293.68213  23725057.453    23725059.672    23725054.848
        29.700          22.100


 122761947.209 6  95658586.383 6  23360805.500    23360816.723
        41.400          39.400    23360815.984    91672826.078 7  23360816.828
        46.800

 118837540.324 7  92600717.34544  22614035.734    22614043.883
        44.800          28.500


 114155861.695 8  88952635.27745  21723137.602    21723144.258
        49.300          35.900


 104302845.784 6  81124590.540 7  19498350.539    19498353.742    19498348.773
        40.200          42.300    19498353.945


 109306648.071 8  85016425.529 7  20476857.773    20476861.734    20476857.098
        48.900          43.700    20476861.785


 120226168.714 7  93682735.718 6  22878264.406    22878276.352
        42.200          41.200    22878276.559    89779311.558 8  22878277.098
        48.300

 115738021.652 7  90185487.233 7  22024216.883    22024224.418
        46.100          45.500    22024224.398    86427785.851 8  22024227.727
        51.300

 108695359.250 8  84540846.199 7  20355149.141    20355152.582    20355149.262
        49.600          43.900    20355152.551


 116728167.714 7  90956952.704 7  22212606.617    22212616.652
        44.300          44.900    22212616.305    87167081.172 8  22212616.758
        51.000

 126651962.991 6  98507086.013 5  23659664.883    23659669.633    23659664.043
        41.100          34.500    23659668.602


 106679057.925 7  82972626.625 6  19970545.547    19970548.141    19970545.047
        45.500          40.800    19970548.203


 148467298.406 6                  28252402.133
        39.600                                   110868431.438 6  28252411.711
        39.700                                                   113760647.431 6
  28252409.703          37.900   112314538.534 7  28252411.180          42.300
 128382905.355 8                  24430458.906
        49.000                                    95870365.662 8  24430463.848
        48.400                                                    98371332.714 7
  24430462.371          47.800    97120839.792 8  24430463.168          50.900
 138302874.993 6                  26318151.344
        40.500                                   103278161.094 7  26318159.504
        43.600                                                   105972363.191 7
  26318157.906          43.500   104625262.745 7  26318159.352          46.600
 139775697.937 7                  26598429.047
        43.900                                   104377985.246 7  26598434.242
        43.500                                                   107100888.313 7
  26598434.012          44.100   105739434.877 7  26598434.340          46.900
 124284441.087 8                  23650541.586
        51.500                                    92809837.878 8  23650546.828
        51.500                                                    95230961.189 8
  23650545.906          50.900    94020397.640 9  23650546.035          54.000
 125845712.424 8                  23947637.117
        50.500                                    93975735.555 8  23947643.602
        50.600                                                    96427264.911 8
  23947642.430          49.800    95201501.336 8  23947642.820          52.900
 21  4 28 19  1 30.0000000  0 24G15G19G01G17G02R15G30G13G28R19R18G06
                                G14R09R20G24R07R16E07E30E13E21E27E15
 122776575.506 7  95669997.448 6  23363583.109    23363592.172
        42.700          39.000    23363591.777


 105523107.708 8  82225769.84047  20080359.820    20080364.758
        51.900          46.600


 126329068.606 6  98438337.489 6  24039640.508    24039652.688
        36.900          36.000    24039652.344    94336751.705 6  24039649.391
        41.100

 109746034.227 8  85516419.523 8  20883975.047    20883982.613
        50.100          48.100    20883981.922


 129786736.818 6 101132578.84143  24697597.469    24697608.047
        37.800          19.900


 126870963.22414                  23742170.594                    23742170.086
        25.200


 122862212.451 6  95736715.062 6  23379884.609    23379895.789
        40.900          37.900    23379895.219    91747699.363 7  23379896.574
        46.800

 118922649.777 7  92667036.33744  22630232.516    22630239.820
        44.900          28.900


 114195749.560 8  88983716.72045  21730728.188    21730734.703
        48.300          35.000


 104259339.459 6  81090752.310 6  19490217.023    19490220.688    19490215.363
        39.900          41.500    19490220.910


 109381916.743 7  85074967.814 7  20490957.914    20490962.004    20490957.449
        47.700          43.600    20490961.133


 120129325.725 7  93607273.702 6  22859837.063    22859848.063
        42.200          41.600    22859847.926    89706993.802 8  22859848.441
        48.600

 115795721.545 7  90230448.151 7  22035196.180    22035203.906
        46.200          44.700    22035203.211    86470873.395 8  22035207.578
        51.200

 108629235.225 8  84489416.405 7  20342767.070    20342769.633    20342766.547
        49.300          43.800    20342769.133


 123057665.93015  95711619.24315  23012427.039    23012434.445    23012426.652
        33.800          34.400    23012434.445


 116650017.044 7  90896056.112 7  22197734.273    22197745.148
        43.800          45.000    22197745.266    87108721.917 8  22197745.336
        51.200

 126734445.223 6  98571238.724 5  23675074.977    23675078.863    23675072.164
        39.200          34.500    23675078.715


 106705844.872 7  82993460.908 6  19975560.133    19975563.066    19975559.719
        46.200          40.200    19975561.688


 148547732.897 6                  28267707.641
        37.800                                   110928495.894 6  28267717.766
        39.500                                                   113822278.943 6
  28267717.281          39.400   112375386.522 7  28267718.242          43.200
 128426637.630 8                  24438779.977
        48.000                                    95903022.830 7  24438785.508
        47.900                                                    98404841.838 7
  24438784.840          47.700    97153922.938 8  24438785.121          50.300
 138209382.327 6                  26300360.727
        40.500                                   103208345.207 7  26300368.586
        44.200                                                   105900725.983 7
  26300367.207          43.200   104554536.196 7  26300368.223          47.100
 139717083.768 7                  26587275.609
        44.100                                   104334214.931 7  26587280.445
        43.500                                                   107055976.147 7
  26587279.977          44.700   105695093.652 7  26587280.387          47.300
 124269580.459 8                  23647713.523
        51.700                                    92798740.657 8  23647718.848
        51.400                                                    95219574.469 8
  23647717.930          50.900    94009155.670 9  23647718.137          54.000
 125807243.096 8                  23940316.742
        50.500                                    93947008.475 8  23940323.281
        50.700                                                    96397788.421 8
  23940322.266          49.700    95172399.549 8  23940322.313          52.900
 21  4 28 19  2  0.0000000  0 23G15G19G01G17G02G30G13G28R19R18G06G14
                                R09R20G24R07R16E07E30E13E21E27E15
 122832511.545 7  95713583.927 6  23374228.211    23374237.051
        43.800          39.800    23374237.184


 105511011.747 8  82216344.41947  20078058.242    20078062.934
        52.200          46.600


 126404042.493 6  98496758.636 5  24053907.531    24053918.777
        37.700          35.000    24053918.449    94392738.667 6  24053916.895
        40.600

 109794552.550 8  85554225.993 7  20893207.797    20893215.285
        49.600          47.700    20893214.586


 129682223.890 6 101051140.46143  24677710.852    24677719.227
        38.300          19.900


 122962703.994 6  95815020.057 6  23399008.211    23399020.055
        41.800          39.700    23399020.059    91822741.661 7  23399019.063
        46.300

 119008039.472 7  92733573.70744  22646481.070    22646489.141
        45.300          29.100


 114235742.956 8  89014880.38445  21738337.977    21738344.992
        48.100          35.700


 104216627.198 6  81057531.669 6  19482231.695    19482236.230    19482231.043
        39.600          41.400    19482236.172


 109457817.484 8  85134001.699 7  20505177.648    20505181.105    20505176.453
        48.100          44.500    20505180.371


 120032697.513 6  93531979.031 7  22841447.266    22841459.996
        40.900          42.100    22841460.160    89634836.443 8  22841461.336
        48.800

 115853571.536 7  90275526.055 7  22046204.617    22046212.094
        45.900          44.600    22046212.027    86514073.026 8  22046216.184
        51.200

 108563342.537 8  84438166.553 7  20330427.367    20330429.871    20330426.855
        49.100          43.600    20330430.082


 122922690.494 5  95606638.523 6  22987184.625    22987194.070    22987185.719
        32.900          36.500    22987193.879


 116572199.350 7  90835418.974 7  22182926.586    22182936.973
        44.900          44.700    22182936.711    87050611.322 8  22182937.168
        51.300

 126817259.790 6  98635649.996 5  23690541.609    23690549.016    23690541.996
        38.900          34.500    23690548.156


 106733051.371 7  83014621.505 6  19980653.805    19980656.469    19980653.434
        45.700          41.700    19980656.133


 148628048.441 6                  28282992.258
        38.500                                   110988471.606 6  28283002.531
        40.300                                                   113883819.204 6
  28283000.465          38.600   112436144.507 7  28283001.609          43.000
 128470480.703 7                  24447123.266
        47.700                                    95935762.763 7  24447128.227
        47.400                                                    98438435.837 7
  24447127.707          47.700    97187089.906 8  24447128.148          50.400
 138115984.926 6                  26282588.195
        40.900                                   103138600.443 7  26282595.586
        44.000                                                   105829161.795 7
  26282595.113          44.100   104483881.725 7  26282595.211          47.400
 139658466.261 7                  26576120.703
        44.900                                   104290442.153 7  26576125.969
        43.600                                                   107011061.457 7
  26576125.398          44.100   105650749.912 7  26576125.801          47.000
 124254832.080 8                  23644907.180
        52.100                                    92787727.257 8  23644912.266
        51.400                                                    95208273.762 8
  23644911.371          51.000    93997998.617 9  23644911.605          54.000
 125769181.843 8                  23933073.961
        50.400                                    93918586.130 8  23933080.246
        50.900                                                    96368624.633 8
  23933079.543          49.800    95143606.481 8  23933079.527          53.000
 21  4 28 19  2 30.0000000  0 23G15G19G01G17G02G30G13G28R19R18G06G14
                                R09R20G24R07R16E07E30E13E21E27E15
 122888814.056 7  95757455.952 6  23384941.938    23384951.152
        43.000          39.900    23384950.527


 105499453.152 8  82207337.72047  20075858.727    20075863.645
        52.100          46.600


 126479480.514 6  98555541.487 5  24068263.773    24068275.051
        37.400          35.800    24068274.660    94449072.204 6  24068272.758
        41.000

 109843417.359 8  85592302.470 7  20902506.336    20902513.988
        50.200          47.600    20902513.750


 129577700.292 6 100969693.71443  24657818.953    24657828.535
        39.000          20.600


 123063420.098 7  95893500.062 6  23418174.711    23418184.582
        42.200          39.100    23418185.563    91897951.636 7  23418185.031
        45.900

 119093706.464 7  92800327.16144  22662782.500    22662791.371
        44.100          28.900


 114275841.819 7  89046126.25045  21745968.492    21745975.438
        47.900          35.000


 104174710.754 6  81024929.997 6  19474397.680    19474400.488    19474395.512
        40.100          41.500    19474400.363


 109534346.415 8  85193524.187 7  20519513.953    20519517.727    20519513.250
        48.300          44.600    20519517.090


 119936287.322 6  93456854.231 6  22823101.555    22823113.832
        41.700          41.600    22823113.863    89562841.854 8  22823114.371
        48.400

 115911571.475 7  90320720.778 7  22057242.117    22057249.676
        45.900          44.800    22057249.461    86557384.647 8  22057253.313
        51.000

 108497683.928 8  84387098.749 7  20318131.461    20318134.422    20318130.957
        49.100          44.600    20318134.328


 122787889.887 5  95501793.771 6  22961977.477    22961985.098    22961977.609
        33.500          36.300    22961985.605


 116494716.994 7  90775043.113 7  22168182.484    22168192.172
        43.600          43.900    22168191.816    86992751.128 8  22168192.504
        51.400

 126900402.167 6  98700316.200 5  23706077.031    23706080.844    23706074.215
        39.700          35.700    23706082.074


 106760678.095 7  83036108.939 6  19985825.047    19985828.016    19985824.805
        45.600          41.000    19985827.742


 148708243.242 6                  28298251.742
        38.500                                   111048357.171 6  28298262.457
        38.700                                                   113945266.996 6
  28298262.355          39.800   112496811.191 7  28298262.320          42.200
 128514434.881 7                  24455487.320
        47.300                                    95968585.670 7  24455492.207
        47.300                                                    98472114.978 7
  24455491.535          47.100    97220340.931 8  24455492.301          49.700
 138022684.638 6                  26264832.438
        41.000                                   103068928.229 7  26264840.621
        43.600                                                   105757672.019 7
  26264840.844          43.900   104413300.723 7  26264840.699          46.800
 139599845.521 7                  26564965.391
        43.800                                   104246666.944 7  26564971.047
        44.400                                                   106966144.296 7
  26564970.367          44.300   105606403.727 7  26564970.676          47.700
 124240196.432 8                  23642122.250
        51.500                                    92776798.049 8  23642127.320
        51.400                                                    95197059.443 8
  23642126.508          51.100    93986926.849 9  23642126.543          54.000
 125731529.621 8                  23925909.000
        50.400                                    93890469.226 8  23925915.078
        50.400                                                    96339774.238 8
  23925914.090          50.000    95115122.834 8  23925914.555          53.000
 21  4 28 19  3  0.0000000  0 25G15G19G01G17G02G12G30G13G28R19R18G06
                                G14R09R08R20G24R07R16E07E30E13E21E27
                                E15
 122945480.225 6  95801611.353 6  23395724.648    23395734.309
        41.700          38.700    23395733.680


 105488431.259 8  82198749.22847  20073761.094    20073766.207
        52.000          46.300


 126555379.832 6  98614683.788 5  24082704.977    24082718.207
        36.000          35.200    24082718.023    94505750.221 6  24082716.980
        40.800

 109892626.334 8  85630647.100 7  20911870.500    20911878.098
        49.900          47.200    20911877.625


 129473168.067 6 100888240.26343  24637926.727    24637936.309
        37.700          19.600


 130218716.65115 101469035.50015  24779776.453
        30.100          33.100    24779785.172


 123164358.643 6  95972153.331 6  23437382.180    23437393.949
        41.400          38.700    23437393.078    91973327.698 7  23437391.816
        45.100

 119179647.310 7  92867294.00444  22679137.398    22679145.293
        44.500          29.100


 114316046.073 8  89077454.22345  21753619.500    21753626.023
        48.400          35.100


 104133590.721 6  80992947.745 6  19466710.750    19466713.391    19466708.383
        40.600          40.900    19466713.594


 109611499.537 8  85253532.144 7  20533967.367    20533971.164    20533966.668
        48.000          43.100    20533970.727


 119840097.884 7  93381901.496 7  22804798.070    22804809.820
        42.400          42.000    22804810.141    89491012.137 8  22804810.578
        48.600

 115969720.883 7  90366031.978 7  22068307.063    22068314.730
        45.900          44.300    22068314.543    86600807.891 8  22068318.773
        50.800

 108432261.319 8  84336214.483 7  20305880.250    20305882.566    20305879.926
        48.700          42.400    20305882.688


 127334972.25315                  23778931.758
        32.200


 122653267.514 5  95397087.666 5  22936801.680    22936809.652    22936801.012
        32.600          35.300    22936810.008


 116417571.986 7  90714930.136 7  22153502.008    22153511.969
        44.900          43.800    22153511.727    86935142.855 8  22153512.023
        50.900

 126983868.195 6  98765234.164 5  23721667.734    23721672.910    23721666.773
        39.600          34.300    23721673.055


 106788725.602 7  83057923.637 6  19991075.672    19991078.598    19991075.195
        45.000          40.400    19991079.590


 148788315.302 6                  28313490.250
        39.300                                   111108151.002 6  28313500.465
        40.000                                                   114006620.711 6
  28313499.777          38.300   112557384.966 7  28313499.590          42.700
 128558500.156 7                  24463872.438
        46.900                                    96001491.548 7  24463877.738
        47.000                                                    98505879.274 7
  24463877.121          46.300    97253676.015 8  24463877.684          49.300
 137929483.095 6                  26247099.234
        41.600                                   102999329.698 7  26247105.715
        44.000                                                   105686257.888 7
  26247105.332          44.000   104342794.389 7  26247105.113          47.000
 139541221.423 7                  26553809.352
        44.100                                   104202889.234 7  26553815.508
        44.200                                                   106921224.552 7
  26553814.461          44.200   105562055.005 7  26553814.941          47.100
 124225673.717 8                  23639358.742
        51.800                                    92765953.161 8  23639363.770
        51.200                                                    95185931.644 8
  23639363.105          50.900    93975940.512 8  23639362.957          53.900
 125694287.036 8                  23918821.938
        50.500                                    93862658.220 8  23918828.211
        50.500                                                    96311237.725 8
  23918827.387          49.800    95086949.079 8  23918827.512          53.000
 21  4 28 19  3 30.0000000  0 25G15G19G01G17G02G12G30G13G28R19R18G06
                                G14R09R08R20G24R07R16E07E30E13E21E27
                                E15
 123002508.665 6  95846049.080 6  23406577.313    23406586.520
        41.700          39.600    23406586.168


 105477946.928 8  82190579.62647  20071765.805    20071770.758
        52.400          46.800


 126631739.160 6  98674184.499 5  24097238.094    24097249.250
        36.300          35.700    24097247.609    94562771.755 6  24097245.914
        40.300

 109942178.589 8  85669259.238 7  20921299.875    20921307.332
        50.200          47.100    20921306.980


 129368631.184 6 100806783.22143  24618034.539    24618044.168
        39.500          21.100


 130134159.41714 101403146.791 5  24763681.422
        28.000          32.600    24763694.918


 123265518.985 6  96050979.510 6  23456631.969    23456643.500
        41.400          38.500    23456643.590    92048869.403 7  23456641.914
        44.900

 119265860.063 7  92934472.71144  22695542.688    22695551.121
        44.000          28.700


 114356356.861 8  89108865.21845  21761289.992    21761297.375
        48.400          35.700


 104093269.774 6  80961587.021 6  19459171.352    19459175.797    19459170.852
        40.900          41.700    19459175.441


 109689274.240 8  85314023.564 7  20548536.391    20548540.410    20548535.926
        48.600          43.100    20548539.715


 119744133.628 7  93307124.187 7  22786536.008    22786547.832
        42.000          42.000    22786547.824    89419350.579 8  22786548.465
        48.500

 116028020.860 7  90411460.515 7  22079400.805    22079408.711
        45.700          45.100    22079408.711    86644343.553 8  22079412.891
        51.000

 108367078.381 8  84285516.661 7  20293673.406    20293676.063    20293672.742
        49.000          42.600    20293676.395


 127350657.41815                  23781862.961                    23781861.031
        31.700


 122518828.479 5  95292524.043 5  22911662.266    22911668.348    22911660.652
        33.000          35.300    22911668.199


 116340767.945 7  90655082.852 7  22138885.969    22138896.637
        44.100          45.100    22138896.805    86877789.213 8  22138897.125
        51.200

 127067654.458 6  98830401.191 6  23737320.352    23737325.488    23737319.406
        39.900          36.000    23737324.813


 106817196.080 7  83080067.350 6  19996405.609    19996408.531    19996405.180
        45.500          40.500    19996408.793


 148868264.133 6                  28328702.680
        37.900                                   111167852.829 6  28328713.066
        38.300                                                   114067879.980 6
  28328713.980          40.200   112617865.512 7  28328713.617          42.400
 128602678.125 7                  24472279.078
        47.000                                    96034481.560 8  24472285.102
        48.000                                                    98539729.920 7
  24472284.457          47.600    97287096.343 8  24472284.547          50.600
 137836383.284 7                  26229383.500
        42.200                                   102929807.155 7  26229389.043
        44.000                                                   105614921.704 7
  26229387.871          44.200   104272365.028 7  26229388.730          47.500
 139482595.318 7                  26542653.297
        44.000                                   104159110.026 7  26542659.285
        45.100                                                   106876303.286 7
  26542658.527          44.300   105517704.755 8  26542658.797          48.000
 124211265.696 8                  23636616.844
        52.500                                    92755193.919 8  23636621.840
        51.300                                                    95174891.735 8
  23636621.184          51.300    93965040.932 9  23636621.203          54.100
 125657456.225 8                  23911812.766
        49.900                                    93835154.706 8  23911819.414
        50.600                                                    96283016.729 8
  23911818.465          50.000    95059086.819 8  23911818.840          53.100
 21  4 28 19  4  0.0000000  0 25G15G19G01G17G02G12G30G13G28R19R18G06
                                G14R09R08R20G24R07R16E07E30E13E21E27
                                E15
 123059896.370 6  95890766.726 6  23417497.211    23417506.625
        40.600          40.200    23417506.145


 105467999.287 8  82182828.22047  20069872.563    20069877.605
        52.200          47.700


 126708555.822 5  98734041.616 5  24111854.656    24111867.309
        35.800          35.600    24111866.000    94620134.819 6  24111864.238
        40.800

 109992071.776 8  85708137.029 7  20930794.328    20930801.770
        50.800          47.100    20930801.461


 129264092.252 6 100725324.54243  24598141.047    24598151.016
        40.000          21.800


 130049627.056 4 101337277.431 5  24747598.375
        29.400          31.900    24747608.039


 123366899.114 6  96129976.934 6  23475924.258    23475935.996
        41.600          39.500    23475936.340    92124575.261 7  23475934.246
        44.600

 119352341.312 7  93001860.64245  22712000.227    22712008.008
        45.300          31.200


 114396773.960 8  89140359.05046  21768981.555    21768988.340
        48.900          36.200


 104053748.922 6  80930848.581 7  19451784.250    19451788.039    19451782.613
        41.300          43.300    19451787.496


 109767666.706 8  85374995.447 7  20563222.719    20563226.000    20563221.410
        48.800          44.300    20563225.734


 119648397.568 6  93232524.676 7  22768318.906    22768329.645
        41.900          42.100    22768329.906    89347859.399 8  22768331.141
        48.400

 116086471.094 7  90457006.126 7  22090524.000    22090531.863
        45.200          45.200    22090531.641    86687991.413 8  22090535.453
        51.000

 108302137.236 8  84235006.897 7  20281512.359    20281514.758    20281511.625
        49.000          45.000    20281514.676


 127367032.331 4                  23784922.922                    23784918.250
        29.600


 122384576.086 5  95188105.766 6  22886553.953    22886561.863    22886554.141
        32.200          36.200    22886563.000


 116264307.115 7  90595502.975 7  22124336.406    22124346.723
        44.500          44.800    22124345.898    86820691.859 8  22124347.219
        51.200

 127151756.540 6  98895813.927 5  23753031.984    23753035.211    23753030.566
        40.100          34.400    23753033.953


 106846090.360 7  83102540.655 6  20001815.227    20001817.184    20001814.211
        46.300          41.600    20001817.148


 148948087.741 6                  28343894.305
        38.900                                   111227461.164 6  28343903.840
        39.400                                                   114129043.372 6
  28343903.684          38.400   112678251.381 7  28343903.824          42.600
 128646968.963 8                  24480708.117
        48.200                                    96067555.848 7  24480713.348
        47.700                                                    98573667.030 7
  24480712.703          46.700    97320602.045 8  24480712.938          49.900
 137743386.986 7                  26211686.492
        42.500                                   102860361.928 7  26211692.328
        43.700                                                   105543664.840 7
  26211692.359          43.900   104202013.988 7  26211691.930          47.300
 139423967.264 7                  26531497.047
        42.800                                   104115329.330 7  26531502.605
        45.100                                                   106831380.505 7
  26531502.332          44.600   105473353.020 7  26531502.301          47.900
 124196972.774 8                  23633897.273
        52.800                                    92744520.626 8  23633901.867
        51.300                                                    95163940.012 8
  23633901.328          51.200    93954228.425 9  23633901.359          54.000
 125621037.938 8                  23904883.266
        50.700                                    93807959.248 8  23904889.117
        50.800                                                    96255111.826 8
  23904888.254          50.300    95031536.641 8  23904888.648          53.100
 21  4 28 19  4 30.0000000  0 24G15G19G01G17G02G12G30G13G28R19R18G06
                                G14R09R20G24R07R16E07E30E13E21E27E15
 123117639.953 6  95935761.683 6  23428487.109    23428494.934
        41.600          39.400    23428495.262


 105458587.595 8  82175494.44347  20068081.336    20068086.781
        51.600          46.400


 126785826.710 6  98794252.668 5  24126559.992    24126570.254
        36.300          34.900    24126570.461    94677837.023 6  24126568.395
        41.100

 110042303.315 8  85747278.473 7  20940352.859    20940360.641
        49.900          46.400    20940360.430


 129159553.261 6 100643865.81543  24578249.031    24578257.785
        40.400          20.600


 129965119.444 5 101271427.485 5  24731519.578
        32.400          30.900    24731524.367


 123468496.697 6  96209143.796 6  23495257.945    23495269.375
        41.800          38.300    23495268.887    92200443.456 7  23495268.813
        44.700

 119439087.461 7  93069454.94944  22728507.586    22728514.645
        44.400          29.700


 114437296.950 7  89171935.38345  21776692.852    21776699.207
        47.800          34.900


 104015028.962 6  80900733.082 7  19444546.180    19444549.422    19444544.430
        41.300          42.400    19444549.047


 109846672.391 8  85436444.299 7  20578022.758    20578026.754    20578022.117
        48.800          43.800    20578026.023


 119552892.283 7  93158105.009 6  22750145.555    22750155.566
        42.400          41.400    22750155.766    89276540.550 8  22750156.324
        48.400

 116145070.858 7  90502668.247 7  22101675.367    22101682.992
        46.000          43.700    22101682.875    86731750.941 8  22101686.898
        51.000

 108237439.672 8  84184686.589 7  20269396.039    20269398.789    20269395.711
        48.100          44.000    20269398.309


 122250513.822 5  95083835.181 5  22861485.516    22861491.547    22861483.887
        31.800          34.900    22861493.277


 116188191.280 7  90536191.945 7  22109851.680    22109862.527
        44.700          43.700    22109861.844    86763852.129 8  22109862.793
        50.900

 127236169.562 6  98961468.407 5  23768800.281    23768804.059    23768798.520
        39.200          32.000    23768803.133


 106875408.589 7  83125343.701 6  20007303.039    20007305.770    20007302.551
        45.600          40.900    20007304.961


 149027784.003 6                  28359058.820
        37.500                                   111286974.354 6  28359070.129
        38.200                                                   114190109.148 6
  28359069.402          38.900   112738540.853 7  28359069.930          42.400
 128691372.421 7                  24489157.438
        47.100                                    96100714.257 7  24489162.820
        47.800                                                    98607690.435 7
  24489162.965          47.400    97354192.948 8  24489162.656          50.400
 137650495.480 7                  26194009.141
        42.300                                   102790994.964 7  26194015.328
        43.400                                                   105472488.300 7
  26194015.359          44.100   104131742.239 7  26194015.305          46.500
 139365336.882 7                  26520339.609
        42.600                                   104071546.927 7  26520345.492
        44.800                                                   106786455.946 7
  26520345.270          44.300   105428999.542 8  26520345.332          48.000
 124182794.936 8                  23631199.406
        52.100                                    92733933.273 8  23631203.945
        51.300                                                    95153076.467 8
  23631203.203          51.000    93943502.970 9  23631203.406          54.000
 125585032.534 8                  23898031.523
        51.000                                    93781072.111 8  23898037.371
        50.800                                                    96227523.282 8
  23898036.746          49.800    95004298.801 8  23898037.035          53.000
 21  4 28 19  5  0.0000000  0 25G15G19G01G17G02G12G30G13G28R19R18G06
                                G14R09R08R20G24R07R16E07E30E13E21E27
                                E15
 123175736.679 7  95981031.813 6  23439542.063    23439551.109
        42.400          39.600    23439550.699


 105449710.698 8  82168577.38547  20066392.211    20066397.645
        51.900          46.400


 126863549.344 5  98854815.713 5  24141349.930    24141360.371
        35.000          34.800    24141359.645    94735876.600 6  24141358.254
        41.100

 110092871.172 8  85786681.999 7  20949975.633    20949983.406
        50.700          47.300    20949982.707


 129055016.954 6 100562409.18943  24558356.273    24558364.520
        41.500          20.600


 129880636.734 5 101205596.851 4  24715442.367
        33.800          29.500    24715448.816


 123570309.999 6  96288478.690 6  23514631.609    23514643.547
        41.400          38.700    23514643.527    92276472.711 7  23514643.027
        44.500

 119526095.403 7  93137253.29444  22745063.203    22745072.336
        43.700          27.900


 114477925.875 8  89203594.26745  21784423.852    21784430.473
        48.800          34.400


 103977111.572 6  80871241.769 7  19437457.945    19437461.137    19437455.895
        40.900          42.100    19437461.258


 109926287.636 8  85498367.224 7  20592937.500    20592941.098    20592936.715
        48.300          43.600    20592940.449


 119457621.011 6  93083867.700 6  22732014.953    22732026.113
        41.900          41.400    22732026.523    89205396.474 8  22732026.965
        48.300

 116203820.118 7  90548446.868 7  22112854.563    22112862.395
        46.400          44.100    22112862.430    86775622.108 8  22112866.852
        51.500

 108172988.314 8  84134557.764 7  20257326.664    20257329.121    20257326.031
        48.800          43.600    20257328.617


 127401782.52615                  23791408.461                    23791408.543
        30.300


 122116645.089 5  94979715.162 5  22836449.984    22836456.633    22836449.512
        31.700          35.400    22836456.504


 116112422.885 7  90477151.664 7  22095433.602    22095444.168
        44.900          44.600    22095444.363    86707271.858 8  22095444.203
        50.700

 127320889.155 6  99027361.298 5  23784629.188    23784631.723    23784626.246
        41.500          35.400    23784631.809


 106905151.693 7  83148477.219 6  20012870.414    20012873.980    20012870.617
        45.400          41.600    20012873.996


 149107351.252 6                  28374201.617
        38.800                                   111346391.264 6  28374211.578
        39.100                                                   114251076.067 6
  28374211.523          38.300   112798732.772 7  28374211.305          42.200
 128735888.899 7                  24497628.938
        47.100                                    96133957.042 7  24497633.965
        47.500                                                    98641800.425 7
  24497633.797          47.300    97387869.340 8  24497633.750          50.200
 137557710.786 7                  26176353.727
        43.000                                   102721707.732 7  26176358.664
        43.700                                                   105401393.588 7
  26176358.426          44.700   104061551.267 7  26176358.992          47.300
 139306704.369 6                  26509181.930
        41.700                                   104027762.949 7  26509188.465
        45.500                                                   106741529.787 7
  26509187.867          44.200   105384644.470 8  26509187.996          48.400
 124168732.781 8                  23628523.156
        52.800                                    92723432.310 8  23628528.160
        51.400                                                    95142301.564 8
  23628527.363          51.100    93932865.047 9  23628527.496          54.000
 125549440.980 8                  23891258.844
        50.200                                    93754494.003 8  23891264.891
        50.900                                                    96200251.831 8
  23891263.789          49.900    94977374.024 8  23891264.207          53.300
 21  4 28 19  5 30.0000000  0 26G15G19G01G17G02G12R15G30G13G28R19R18
                                G06G14R09R08R20G24R07R16E07E30E13E21
                                E27E15
 123234183.551 6  96026574.765 6  23450663.922    23450672.957
        41.400          39.100    23450672.340


 105441367.648 8  82162076.30847  20064804.602    20064809.984
        51.500          46.800


 126941720.738 5  98915728.453 5  24156224.227    24156235.672
        34.700          34.800    24156235.820    94794251.259 7  24156234.430
        42.000

 110143772.648 8  85826345.470 7  20959662.055    20959669.949
        49.600          46.700    20959669.477


 128950485.320 6 100480956.17443  24538462.922    24538472.289
        39.400          19.600


 129796178.757 5                  24699371.023
        32.500


 127609901.74615                  23880470.102                    23880469.238
        31.100


 123672336.645 6  96367979.893 6  23534048.117    23534058.191
        41.300          38.700    23534057.996    92352661.348 7  23534057.352
        43.400

 119613361.948 7  93205253.15444  22761670.352    22761679.102
        43.400          28.200


 114518660.779 8  89235335.73545  21792175.492    21792182.328
        48.100          34.500


 103939997.156 6  80842375.048 6  19430519.461    19430523.055    19430518.148
        41.100          40.600    19430523.410


 110006507.904 8  85560760.742 6  20607964.945    20607969.258    20607964.668
        48.500          41.700    20607968.047


 119362586.477 7  93009814.844 7  22713931.992    22713941.684
        43.100          42.500    22713941.941    89134429.160 8  22713941.988
        48.200

 116262718.335 7  90594341.537 7  22124062.227    22124070.441
        45.100          43.600    22124069.852    86819604.504 8  22124075.219
        51.400

 108108785.177 8  84084622.003 6  20245303.742    20245305.625    20245303.074
        48.200          41.000    20245305.957


 127420154.12315                  23794843.266                    23794840.738
        31.900


 121982973.553 5  94875748.582 5  22811452.320    22811460.070    22811453.016
        33.400          34.900    22811461.121


 116037003.921 7  90418383.652 7  22081081.867    22081092.227
        45.200          44.500    22081092.008    86650952.501 8  22081092.352
        50.000

 127405910.479 6  99093488.892 5  23800510.695    23800513.238    23800508.367
        39.900          34.400    23800514.594


 106935319.882 7  83171941.344 6  20018518.672    20018521.559    20018518.137
        45.300          39.500    20018521.469


 149186787.453 6                  28389317.500
        38.600                                   111405710.193 6  28389327.805
        38.500                                                   114311942.469 6
  28389327.855          40.800   112858825.430 7  28389327.699          42.800
 128780518.292 7                  24506121.336
        47.300                                    96167284.173 7  24506126.965
        47.800                                                    98675996.957 7
  24506126.469          46.700    97421631.161 8  24506126.406          50.100
 137465034.299 7                  26158718.047
        43.100                                   102652501.315 7  26158722.938
        43.500                                                   105330381.784 7
  26158722.680          43.700   103991442.157 7  26158723.078          46.800
 139248069.565 7                  26498024.570
        44.000                                   103983977.238 7  26498030.832
        44.900                                                   106696601.845 7
  26498029.859          44.200   105340287.648 7  26498030.180          47.600
 124154786.432 8                  23625869.242
        52.100                                    92713017.829 8  23625874.148
        51.400                                                    95131615.408 8
  23625873.477          51.000    93922314.721 9  23625873.605          54.000
 125514263.706 8                  23884564.680
        50.000                                    93728225.274 8  23884570.840
        50.800                                                    96173297.826 8
  23884569.980          50.100    94950762.659 8  23884570.188          53.300
 21  4 28 19  6  0.0000000  0 26G15G19G01G17G02G12R15G30G13G28R19R18
                                G06G14R09R08R20G24R07R16E07E30E13E21
                                E27E15
 123292978.855 7  96072389.228 6  23461852.313    23461861.012
        42.900          39.300    23461860.867


 105433558.904 8  82155991.56547  20063318.906    20063324.035
        50.900          46.700


 127020339.232 5  98976989.559 6  24171183.570    24171195.660
        33.300          36.100    24171196.988    94852959.836 7  24171195.957
        42.200

 110195006.833 8  85866268.192 7  20969412.000    20969419.238
        49.600          46.500    20969418.953


 128845961.982 6 100399509.67043  24518570.305    24518581.445
        38.700          19.000


 129711746.59114 101073992.14714  24683303.070
        29.100          29.600    24683309.586


 127703183.616 5                  23897924.625                    23897924.012
        32.200


 123774575.825 6  96447646.680 6  23553502.922    23553513.430
        40.000          38.300    23553512.906    92429008.659 7  23553513.324
        43.900

 119700884.239 7  93273452.26644  22778325.320    22778333.824
        43.900          28.500


 114559502.334 8  89267160.31845  21799947.844    21799954.707
        48.600          35.200


 103903687.902 6  80814134.537 6  19423731.633    19423735.422    19423730.707
        41.200          40.600    19423735.777


 110087330.381 8  85623622.637 6  20623106.133    20623110.246    20623105.246
        48.000          41.600    20623109.234


 119267792.789 7  92935949.661 6  22695893.406    22695903.238
        43.000          41.700    22695902.363    89063641.697 8  22695903.680
        48.300

 116321766.286 7  90640352.901 7  22135299.656    22135307.918
        46.600          45.100    22135307.664    86863698.713 8  22135311.148
        51.000

 108044833.565 8  84034881.866 6  20233327.945    20233329.555    20233326.891
        49.000          41.300    20233328.957


 127439188.593 5                  23798395.664                    23798395.359
        33.400


 121849503.621 5  94771938.700 6  22786495.016    22786500.746    22786493.547
        32.600          36.700    22786501.219


 115961937.633 7  90359890.444 7  22066797.078    22066807.715
        45.400          45.000    22066807.477    86594896.513 8  22066807.711
        50.100

 127491230.226 6  99159848.565 5  23816446.695    23816452.809    23816446.707
        38.600          34.600    23816454.535


 106965915.120 7  83195737.649 6  20024246.359    20024248.848    20024245.953
        45.600          39.200    20024249.273


 149266091.667 6                  28404409.930
        38.700                                   111464930.673 6  28404419.000
        37.900                                                   114372707.825 6
  28404419.363          38.600   112918818.363 6  28404418.547          41.900
 128825261.932 7                  24514636.383
        47.100                                    96200696.603 7  24514641.500
        47.200                                                    98710281.010 7
  24514640.762          46.700    97455479.411 8  24514640.844          49.600
 137372468.815 7                  26141103.078
        43.600                                   102583377.821 7  26141107.781
        43.400                                                   105259455.040 7
  26141107.691          44.600   103921417.034 7  26141108.457          47.300
 139189433.617 7                  26486866.703
        43.600                                   103940190.670 7  26486872.590
        45.300                                                   106651673.004 7
  26486871.555          43.800   105295929.943 8  26486872.031          48.200
 124140957.408 8                  23623237.711
        52.200                                    92702690.961 8  23623242.547
        51.400                                                    95121019.129 8
  23623241.754          51.000    93911853.148 9  23623242.016          54.000
 125479502.483 8                  23877949.703
        49.500                                    93702267.232 8  23877955.855
        50.900                                                    96146662.625 8
  23877955.094          50.600    94924466.034 8  23877955.367          53.300
 21  4 28 19  6 30.0000000  0 26G15G19G01G17G02G12R15G30G13G28R19R18
                                G06G14R09R08R20G24R07R16E07E30E13E21
                                E27E15
 123352119.771 6  96118473.025 6  23473105.758    23473115.332
        41.900          38.900    23473114.957


 105426284.121 8  82150322.90547  20061934.523    20061939.832
        51.300          46.900


 127099402.215 5  99038596.976 6  24186230.055    24186241.672
        33.200          36.100    24186241.996    94912000.318 6  24186241.156
        41.900

 110246571.533 8  85906448.458 7  20979224.617    20979231.832
        49.400          46.600    20979231.281


 128741449.795 6 100318071.80843  24498684.570    24498692.645
        38.300          18.600


 129627340.560 4 101008221.17015  24667241.930
        29.900          30.900    24667247.781


 127796664.95815                  23915418.383                    23915415.758
        31.800


 123877025.631 6  96527477.607 6  23572998.398    23573009.629
        41.100          38.300    23573008.723    92505513.253 7  23573009.102
        44.000

 119788659.382 7  93341848.44144  22795027.867    22795037.000
        43.400          27.600


 114600450.438 7  89299067.90545  21807740.094    21807746.746
        47.900          35.200


 103868184.843 6  80786521.030 6  19417094.875    19417098.266    19417093.191
        40.400          40.800    19417098.742


 110168751.201 8  85686949.927 7  20638359.266    20638363.215    20638358.621
        48.700          42.800    20638362.602


 119173243.022 7  92862274.563 7  22677899.469    22677911.629
        42.900          42.800    22677911.461    88993036.412 8  22677910.918
        48.100

 116380963.806 7  90686480.818 7  22146564.133    22146572.723
        46.200          44.500    22146572.711    86907904.628 8  22146576.516
        51.000

 107981135.677 8  83985339.065 6  20221398.258    20221401.078    20221398.133
        48.500          41.700    20221400.398


 127458884.08814                  23802072.586                    23802070.395
        28.900


 121716239.057 5  94668288.617 6  22761572.617    22761580.215    22761570.980
        32.800          37.100    22761581.141


 115887226.346 7  90301673.879 7  22052580.398    22052590.883
        46.400          45.200    22052590.723    86539105.640 8  22052590.832
        50.400

 127576844.064 6  99226436.997 5  23832441.984    23832446.680    23832439.648
        39.200          34.800    23832445.496


