# Header Description:
# 
# Version: v3.0.6.4 Platform: 14 Manufacturer: Google Model: Pixel 7
# 
# Raw,utcTimeMillis,TimeNanos,LeapSecond,TimeUncertaintyNanos,FullBiasNanos,BiasNanos,BiasUncertaintyNanos,DriftNanosPerSecond,DriftUncertaintyNanosPerSecond,HardwareClockDiscontinuityCount,Svid,TimeOffsetNanos,State,ReceivedSvTimeNanos,ReceivedSvTimeUncertaintyNanos,Cn0DbHz,PseudorangeRateMetersPerSecond,PseudorangeRateUncertaintyMetersPerSecond,AccumulatedDeltaRangeState,AccumulatedDeltaRangeMeters,AccumulatedDeltaRangeUncertaintyMeters,CarrierFrequencyHz,CarrierCycles,CarrierPhase,CarrierPhaseUncertainty,MultipathIndicator,SnrInDb,ConstellationType,AgcDb,BasebandCn0DbHz,FullInterSignalBiasNanos,FullInterSignalBiasUncertaintyNanos,SatelliteInterSignalBiasNanos,SatelliteInterSignalBiasUncertaintyNanos,CodeType,ChipsetElapsedRealtimeNanos
# 
# UncalAccel,utcTimeMillis,elapsedRealtimeNanos,UncalAccelXMps2,UncalAccelYMps2,UncalAccelZMps2,BiasXMps2,BiasYMps2,BiasZMps2
# 
# Accel,utcTimeMillis,elapsedRealtimeNanos,AccelXMps2,AccelYMps2,AccelZMps2
# 
# UncalGyro,utcTimeMillis,elapsedRealtimeNanos,UncalGyroXRadPerSec,UncalGyroYRadPerSec,UncalGyroZRadPerSec,DriftXRadPerSec,DriftYRadPerSec,DriftZRadPerSec
# 
# Gyro,utcTimeMillis,elapsedRealtimeNanos,GyroXRadPerSec,GyroYRadPerSec,GyroZRadPerSec
# 
# UncalMag,utcTimeMillis,elapsedRealtimeNanos,UncalMagXMicroT,UncalMagYMicroT,UncalMagZMicroT,BiasXMicroT,BiasYMicroT,BiasZMicroT
# 
# Mag,utcTimeMillis,elapsedRealtimeNanos,MagXMicroT,MagYMicroT,MagZMicroT
# 
# OrientationDeg,utcTimeMillis,elapsedRealtimeNanos,yawDeg,rollDeg,pitchDeg
# 
# Fix,Provider,LatitudeDegrees,LongitudeDegrees,AltitudeMeters,SpeedMps,AccuracyMeters,BearingDegrees,UnixTimeMillis,SpeedAccuracyMps,BearingAccuracyDegrees,elapsedRealtimeNanos,VerticalAccuracyMeters,MockLocation,NumberOfUsedSignals,VerticalSpeedAccuracyMps,SolutionType
# 
# Nav,Svid,Type,Status,MessageId,Sub-messageId,Data(Bytes)
# 
# Status,UnixTimeMillis,SignalCount,SignalIndex,ConstellationType,Svid,CarrierFrequencyHz,Cn0DbHz,AzimuthDegrees,ElevationDegrees,UsedInFix,HasAlmanacData,HasEphemerisData,BasebandCn0DbHz
# 

# Agc,utcTimeMillis,TimeNanos,LeapSecond,TimeUncertaintyNanos,FullBiasNanos,BiasNanos,BiasUncertaintyNanos,DriftNanosPerSecond,DriftUncertaintyNanosPerSecond,HardwareClockDiscontinuityCount,AgcDb,CarrierFrequencyHz,ConstellationType
# 
Fix,GPS,37.4265079783,-122.1737079613,23.67296474531974,0.0,4.2366138,,1699400582000,0.19259089,,16124559129000,3.0,0,,,
Fix,FLP,37.4265084000,-122.1737085000,1.7895395873822721,0.032405708,4.139,,1699400584473,0.1958978,,16126559152000,1.391284,0,,,
Fix,NLP,37.4266961000,-122.1735829000,8.300000190734863,,15.136,,1699400585063,,,16127149000000,2.5976572,0,,,
Fix,GPS,37.4265085234,-122.1737086237,23.58730408634848,0.0,4.137764,,1699400588000,0.19814228,,16130559277000,3.0,0,,,
Fix,FLP,37.4265089000,-122.1737087000,1.5747113590160176,0.01595533,4.271,,1699400592472,0.19429271,,16134559289000,1.408621,0,,,
Raw,1699400594000,61090000000,,,-1383435750910273353,0.0,6.979524800095384,129.0,1.0,22,4,0.0,16431,258211922049091,40,28.924739837646484,673.7922380838304,0.8101946432987757,16,40099.90686538701,340282346638528860000000000000000000000,1575420030,,,,1,,1,,25.324739456176758,-0.20372681261465636,1.0,-0.20372681261465636,1.0,C,16136559319000
Raw,1699400594000,61090000000,,,-1383435750910273353,0.0,6.979524800095384,129.0,1.0,22,5,0.0,16423,258211919403574,47,26.83272933959961,-217.70746801583198,0.9073916185431266,16,-10738.134329609662,340282346638528860000000000000000000000,1575420030,,,,0,,1,,23.232728958129883,-0.2619344840127561,1.0,-0.2619344840127561,1.0,C,16136559319000
Raw,1699400594000,61090000000,,,-1383435750910273353,0.0,6.979524800095384,129.0,1.0,22,7,0.0,16431,258211930465556,16,39.69899368286133,-8.582134029803036,0.15,16,-594.4374008279374,340282346638528860000000000000000000000,1575420030,,,,0,,1,,36.098995208740234,-0.7566996039129875,1.0,-0.7566996039129875,1.0,C,16136559319000
Raw,1699400594000,61090000000,,,-1383435750910273353,0.0,6.979524800095384,129.0,1.0,22,8,0.0,16431,258211926996567,18,38.27204513549805,-38.52570543385494,0.15,16,-2553.86673837627,340282346638528860000000000000000000000,1575420030,,,,1,,1,,34.67204666137695,-1.222360875687938,1.0,-1.222360875687938,1.0,C,16136559319000
Raw,1699400594000,61090000000,,,-1383435750910273353,0.0,6.979524800095384,129.0,1.0,22,9,0.0,16431,258211929973007,31,31.829233169555664,460.3385162604691,0.681008220512064,16,27869.50714753129,340282346638528860000000000000000000000,1575420030,,,,0,,1,,28.229232788085938,-1.1641532291423,1.0,-1.1641532291423,1.0,C,16136559319000
Raw,1699400594000,61090000000,,,-1383435750910273353,0.0,6.979524800095384,129.0,1.0,22,14,0.0,16431,258211926552652,22,35.971920013427734,-473.7324104370857,0.4941008610321955,16,-28956.485500609277,340282346638528860000000000000000000000,1575420030,,,,0,,1,,32.37192153930664,-0.2619344840127561,1.0,-0.2619344840127561,1.0,C,16136559319000
Raw,1699400594000,61090000000,,,-1383435750910273353,0.0,6.979524800095384,129.0,1.0,22,20,0.0,16431,258211922721057,19,37.902732849121094,158.3355049697593,0.15,16,9467.358145191827,340282346638528860000000000000000000000,1575420030,,,,0,,1,,34.302734375,0.0,1.0,0.0,1.0,C,16136559319000
Raw,1699400594000,61090000000,,,-1383435750910273353,0.0,6.979524800095384,129.0,1.0,22,22,0.0,16431,258211922317083,13,42.48393630981445,-567.6847235720822,0.15,16,-34649.88002878203,340282346638528860000000000000000000000,1575420030,,,,0,,1,,38.88393783569336,0.0,1.0,0.0,1.0,C,16136559319000
Raw,1699400594000,61090000000,,,-1383435750910273353,0.0,6.979524800095384,129.0,1.0,22,27,0.0,16431,258211921611963,28,33.01357650756836,387.7627198565792,0.6262455678210594,16,23296.50105682302,340282346638528860000000000000000000000,1575420030,,,,0,,1,,29.413578033447266,-1.4842953845531561,1.0,-1.4842953845531561,1.0,C,16136559319000
Raw,1699400594000,61090000000,,,-1383435750910273353,0.0,6.979524800095384,129.0,1.0,22,30,0.0,16431,258211928161464,49,26.253435134887695,-261.41453760103184,0.9314196172571121,16,-15980.124582651892,340282346638528860000000000000000000000,1575420030,,,,0,,1,,22.65343475341797,-1.8044374405541648,1.0,-1.8044374405541648,1.0,C,16136559319000
Raw,1699400594000,61090000000,,,-1383435750910273353,0.0,6.979524800095384,129.0,1.0,22,4,0.0,16384,258211922049676,1000000000,26.79561996459961,673.8336141860491,299792458,16,40770.4963580883,340282346638528860000000000000000000000,1176450050,,,,0,,1,,23.195619583129883,-1.77522804402381,3.1238571846067225,-1.77522804402381,1.0,Q,16136559319000
Raw,1699400594000,61090000000,,,-1383435750910273353,0.0,6.979524800095384,129.0,1.0,22,8,0.0,81921,258211926997117,14,33.025917053222656,-38.29775344401625,0.6266593501447817,16,-2697.779708928311,340282346638528860000000000000000000000,1176450050,,,,0,,1,,29.42591667175293,5.849869869574474,3.1238571846067225,5.849869869574474,1.0,Q,16136559319000
Raw,1699400594000,61090000000,,,-1383435750910273353,0.0,6.979524800095384,129.0,1.0,22,9,0.0,81921,258211929973619,36,28.208181381225586,460.35058145007815,0.8438428813374097,16,29277.139043810203,340282346638528860000000000000000000000,1176450050,,,,0,,1,,24.60818099975586,4.743924187567964,3.1238571846067225,4.743924187567964,1.0,Q,16136559319000
Raw,1699400594000,61090000000,,,-1383435750910273353,0.0,6.979524800095384,129.0,1.0,22,14,0.0,81921,258211926553160,9,32.640663146972656,-473.58200455645056,0.6439038749339616,16,-30429.328609281965,340282346638528860000000000000000000000,1176450050,,,,0,,1,,29.040664672851562,0.0,3.1238571846067225,0.0,1.0,Q,16136559319000
Raw,1699400594000,61090000000,,,-1383435750910273353,0.0,6.979524800095384,129.0,1.0,22,27,0.0,81921,258211921612498,11,35.683876037597656,387.31896627265223,0.5061652851173446,16,24567.568842745244,340282346638528860000000000000000000000,1176450050,,,,0,,1,,32.08387756347656,6.140908102302663,3.1238571846067225,6.140908102302663,1.0,Q,16136559319000
Raw,1699400594000,61090000000,,,-1383435750910273353,0.0,6.979524800095384,129.0,1.0,22,30,0.0,81921,258211928162008,26,28.837072372436523,-261.40838571762947,0.8152365170087252,16,-16791.51318650113,340282346638528860000000000000000000000,1176450050,,,,0,,1,,25.237071990966797,3.405148317018291,3.1238571846067225,3.405148317018291,1.0,Q,16136559319000
Raw,1699400594000,61090000000,,,-1383435750910273353,0.0,6.979524800095384,129.0,1.0,22,2,0.0,32995,9793935377558,38,37.91777038574219,336.31600154944044,0.15,16,20164.942386921055,340282346638528860000000000000000000000,1599750020,,,,0,,3,,34.317771911621094,52.1540641784668,2.0000000474974513,52.1540641784668,2.0000000474974513,C,16136559319000
Raw,1699400594000,61090000000,,,-1383435750910273353,0.0,6.979524800095384,129.0,1.0,22,13,0.0,32995,9793933435763,58,32.8277587890625,-136.0053014608455,0.6367285193264416,16,-8418.065088850073,340282346638528860000000000000000000000,1600875010,,,,0,,3,,29.227760314941406,52.1540641784668,2.0000000474974513,52.1540641784668,2.0000000474974513,C,16136559319000
Raw,1699400594000,61090000000,,,-1383435750910273353,0.0,6.979524800095384,129.0,1.0,22,12,0.0,32995,9793932988551,43,36.65876007080078,407.29370564943224,0.15,16,24638.63567854673,340282346638528860000000000000000000000,1601437440,,,,0,,3,,33.05876159667969,52.1540641784668,2.0000000474974513,52.1540641784668,2.0000000474974513,C,16136559319000
Raw,1699400594000,61090000000,,,-1383435750910273353,0.0,6.979524800095384,129.0,1.0,22,1,0.0,32867,9793924342452,65,31.382265090942383,857.1542863835502,0.7000950618378168,16,52576.16854642708,340282346638528860000000000000000000000,1602562560,,,,0,,3,,27.782264709472656,52.1540641784668,2.0000000474974513,52.1540641784668,2.0000000474974513,C,16136559319000
Raw,1699400594000,61090000000,,,-1383435750910273353,0.0,6.979524800095384,129.0,1.0,22,21,0.0,32995,9793921307535,91,27.317079544067383,-150.3435949458668,0.8823560572081854,16,-9338.039742547451,340282346638528860000000000000000000000,1604249980,,,,1,,3,,23.717079162597656,52.1540641784668,2.0000000474974513,52.1540641784668,2.0000000474974513,C,16136559319000
Raw,1699400594000,61090000000,,,-1383435750910273353,0.0,6.979524800095384,129.0,1.0,22,3,0.0,32995,9793931649005,68,30.936708450317383,-448.036215001365,0.7214455906958248,16,-27395.348742389968,340282346638528860000000000000000000000,1604812540,,,,0,,3,,27.336708068847656,52.1540641784668,2.0000000474974513,52.1540641784668,2.0000000474974513,C,16136559319000
Raw,1699400594000,61090000000,,,-1383435750910273353,0.0,6.979524800095384,129.0,1.0,22,7,0.0,85026,258211919447428,30,32.421138763427734,367.140686465518,0.6539364986690765,16,22709.707574822554,340282346638528860000000000000000000000,1575420030,,,,0,,6,,28.82114028930664,-0.4074536263942718,1.5000000237487257,-0.4074536263942718,1.5000000237487257,C,16136559319000
Raw,1699400594000,61090000000,,,-1383435750910273353,0.0,6.979524800095384,129.0,1.0,22,19,0.0,85026,258211910199972,129,14.39716911315918,-452.4301252962857,1.4642297281360364,16,-26122.568808454278,340282346638528860000000000000000000000,1575420030,,,,1,,6,,10.79716968536377,-0.4074536263942718,1.5000000237487257,-0.4074536263942718,1.5000000237487257,C,16136559319000
Raw,1699400594000,61090000000,,,-1383435750910273353,0.0,6.979524800095384,129.0,1.0,22,27,0.0,85026,258211922516224,24,35.13596725463867,-8.766964789141387,0.5316861886212463,16,-539.7575857380159,340282346638528860000000000000000000000,1575420030,,,,0,,6,,31.535968780517578,-0.4074536263942718,1.5000000237487257,-0.4074536263942718,1.5000000237487257,C,16136559319000
Raw,1699400594000,61090000000,,,-1383435750910273353,0.0,6.979524800095384,129.0,1.0,22,30,0.0,85026,258211915684863,34,30.6708927154541,448.2500142511326,0.732685878349371,16,27519.898173620637,340282346638528860000000000000000000000,1575420030,,,,1,,6,,27.070892333984375,-0.4074536263942718,1.5000000237487257,-0.4074536263942718,1.5000000237487257,C,16136559319000
Raw,1699400594000,61090000000,,,-1383435750910273353,0.0,6.979524800095384,129.0,1.0,22,7,0.0,84003,258211919447984,18,30.73341941833496,367.0550372522762,0.7319899838171651,16,22994.389132056538,340282346638528860000000000000000000000,1176450050,,,,0,,6,,27.133419036865234,-4.840362817049026,3.623857208355448,-4.840362817049026,1.5000000237487257,Q,16136559319000
Raw,1699400594000,61090000000,,,-1383435750910273353,0.0,6.979524800095384,129.0,1.0,22,19,0.0,16384,258211910200509,1000000000,13.054262161254883,-452.3168011283474,299792458,16,-25677.125597052265,340282346638528860000000000000000000000,1176450050,,,,1,,6,,9.454261779785156,2.5478191673755632,3.623857208355448,2.5478191673755632,1.5000000237487257,Q,16136559319000
Raw,1699400594000,61090000000,,,-1383435750910273353,0.0,6.979524800095384,129.0,1.0,22,27,0.0,84003,258211922516772,30,27.637479782104492,-8.838283394492134,0.8717628702574873,16,-685.9292011589349,340282346638528860000000000000000000000,1176450050,,,,0,,6,,24.037479400634766,-2.254499122500419,3.623857208355448,-2.254499122500419,1.5000000237487257,Q,16136559319000
Raw,1699400594000,61090000000,,,-1383435750910273353,0.0,6.979524800095384,129.0,1.0,22,30,0.0,16384,258211915685389,1000000000,20.831655502319336,447.81576967257547,299792458,16,28156.6872944729,340282346638528860000000000000000000000,1176450050,,,,0,,6,,17.23165512084961,-2.254499122500419,3.623857208355448,-2.254499122500419,1.5000000237487257,Q,16136559319000
Fix,GPS,37.4265112815,-122.1737080443,23.24230791913169,0.0,4.0901904,,1699400594000,0.20834292,,16136559319000,3.0,0,,,
Fix,NLP,37.4267042000,-122.1736006000,8.300000190734863,,19.376,,1699400595075,,,16137161000000,2.6330657,0,,,
Fix,GPS,37.4264969338,-122.1737394073,22.58852262993909,0.8924806,4.107699,201.09357,1699400600000,0.16946356,10.303598,16142559392000,3.0,0,,,
Fix,FLP,37.4264993000,-122.1737335000,1.7549287890041967,0.76968116,9.633,249.99295,1699400600630,,,16142716772889,1.4183482,0,,,
Fix,NLP,37.4265907000,-122.1736076000,8.09999942779541,,20.592,,1699400604987,,,16147074000000,2.0490046,0,,,
Fix,GPS,37.4264415621,-122.1737797591,21.715970730072797,0.9455695,3.9290955,213.37006,1699400606000,0.1588222,9.325296,16148559499000,3.0,0,,,
Fix,FLP,37.4264491000,-122.1737490000,1.6092760344572454,0.9251802,7.281,200.77103,1699400606641,,,16148728624988,1.4729532,0,,,
UncalMag,1699400609588,16151674020836,-68.1492,-103.2242,-155.2694,-79.950134,-76.57953,-113.967804
Fix,FLP,37.4264175000,-122.1737979000,1.4437135953800713,0.7519109,7.172,254.08318,1699400612153,,,16154239526077,1.4101949,0,,,
Raw,1699400612000,79090000000,,,-1383435750910271066,0.0,8.256711498743169,128.0,1.0,22,4,0.0,16431,258229922008714,23,35.72514724731445,675.5032455661885,0.5043806491443987,16,52233.294020059795,340282346638528860000000000000000000000,1575420030,,,,0,,1,,32.12514877319336,-0.20372681261465636,1.0,-0.20372681261465636,1.0,C,16154559590000
Raw,1699400612000,79090000000,,,-1383435750910271066,0.0,8.256711498743169,128.0,1.0,22,5,0.0,16423,258229919416660,71,21.703279495239258,-216.89257352159984,1.1380595541359746,16,-14656.840591285852,340282346638528860000000000000000000000,1575420030,,,,0,,1,,18.10327911376953,-0.2619344840127561,1.0,-0.2619344840127561,1.0,C,16154559590000
Raw,1699400612000,79090000000,,,-1383435750910271066,0.0,8.256711498743169,128.0,1.0,22,7,0.0,16431,258229930466072,27,33.82284164428711,-8.440286573523782,0.5914465143363974,16,-743.4026023376585,340282346638528860000000000000000000000,1575420030,,,,0,,1,,30.222843170166016,-0.7566996039129875,1.0,-0.7566996039129875,1.0,C,16154559590000
Raw,1699400612000,79090000000,,,-1383435750910271066,0.0,8.256711498743169,128.0,1.0,22,8,0.0,16431,258229926998798,48,26.561254501342773,-36.184504809775916,0.9173682591807109,16,-3220.021239992833,340282346638528860000000000000000000000,1575420030,,,,0,,1,,22.961254119873047,-1.222360875687938,1.0,-1.222360875687938,1.0,C,16154559590000
Raw,1699400612000,79090000000,,,-1383435750910271066,0.0,8.256711498743169,128.0,1.0,22,9,0.0,16431,258229929945408,17,39.151573181152344,462.3912685343814,0.15,16,36169.751399786495,340282346638528860000000000000000000000,1575420030,,,,0,,1,,35.55157470703125,-1.1641532291423,1.0,-1.1641532291423,1.0,C,16154559590000
Raw,1699400612000,79090000000,,,-1383435750910271066,0.0,8.256711498743169,128.0,1.0,22,14,0.0,16431,258229926581092,15,40.74195861816406,-473.4559335497727,0.15,16,-37486.1304101197,340282346638528860000000000000000000000,1575420030,,,,0,,1,,37.14196014404297,-0.2619344840127561,1.0,-0.2619344840127561,1.0,C,16154559590000
Raw,1699400612000,79090000000,,,-1383435750910271066,0.0,8.256711498743169,128.0,1.0,22,20,0.0,16431,258229922711522,21,36.425498962402344,159.46993953512106,0.15,16,12332.990350234426,340282346638528860000000000000000000000,1575420030,,,,0,,1,,32.82550048828125,0.0,1.0,0.0,1.0,C,16154559590000
Raw,1699400612000,79090000000,,,-1383435750910271066,0.0,8.256711498743169,128.0,1.0,22,22,0.0,16431,258229922351240,11,46.83148193359375,-567.912223969372,0.15,16,-44874.6611279468,340282346638528860000000000000000000000,1575420030,,,,0,,1,,43.231483459472656,0.0,1.0,0.0,1.0,C,16154559590000
Raw,1699400612000,79090000000,,,-1383435750910271066,0.0,8.256711498743169,128.0,1.0,22,27,0.0,16431,258229921588511,82,20.02826499938965,387.0214264272081,1.210176301388496,16,30295.66514807359,340282346638528860000000000000000000000,1575420030,,,,0,,1,,16.428264617919922,-1.4842953845531561,1.0,-1.4842953845531561,1.0,C,16154559590000
Raw,1699400612000,79090000000,,,-1383435750910271066,0.0,8.256711498743169,128.0,1.0,22,30,0.0,16431,258229928177171,16,40.3154411315918,-261.35334255034513,0.15,16,-20685.611531346825,340282346638528860000000000000000000000,1575420030,,,,0,,1,,36.7154426574707,-1.8044374405541648,1.0,-1.8044374405541648,1.0,C,16154559590000
Raw,1699400612000,79090000000,,,-1383435750910271066,0.0,8.256711498743169,128.0,1.0,22,4,0.0,81921,258229922009220,7,34.128150939941406,675.4959519204926,0.5761958798210998,16,52909.2574788778,340282346638528860000000000000000000000,1176450050,,,,0,,1,,30.528152465820312,-1.77522804402381,2.6002102484745304,-1.77522804402381,1.0,Q,16154559590000
Raw,1699400612000,79090000000,,,-1383435750910271066,0.0,8.256711498743169,128.0,1.0,22,8,0.0,81921,258229926999371,90,22.46869659423828,-34.9849855333768,1.1014060688665226,16,-3361.837758364543,340282346638528860000000000000000000000,1176450050,,,,0,,1,,18.868696212768555,5.849869869574474,2.6002102484745304,5.849869869574474,1.0,Q,16154559590000
Raw,1699400612000,79090000000,,,-1383435750910271066,0.0,8.256711498743169,128.0,1.0,22,9,0.0,81921,258229929945951,7,35.168033599853516,462.3956992537294,0.5308611202474729,16,37576.1491847885,340282346638528860000000000000000000000,1176450050,,,,0,,1,,31.568035125732422,4.743924187567964,2.6002102484745304,4.743924187567964,1.0,Q,16154559590000
Raw,1699400612000,79090000000,,,-1383435750910271066,0.0,8.256711498743169,128.0,1.0,22,14,0.0,81921,258229926581617,38,26.79859733581543,-473.29554150937633,0.9066201701278085,16,-38957.08163960102,340282346638528860000000000000000000000,1176450050,,,,0,,1,,23.198596954345703,0.0,2.6002102484745304,0.0,1.0,Q,16154559590000
Raw,1699400612000,79090000000,,,-1383435750910271066,0.0,8.256711498743169,128.0,1.0,22,27,0.0,16384,258229921589137,1000000000,17.28215789794922,389.70743074331426,299792458,16,31572.49465760486,340282346638528860000000000000000000000,1176450050,,,,0,,1,,13.682157516479492,6.140908102302663,2.6002102484745304,6.140908102302663,1.0,Q,16154559590000
Raw,1699400612000,79090000000,,,-1383435750910271066,0.0,8.256711498743169,128.0,1.0,22,30,0.0,81921,258229928177718,8,32.963722229003906,-261.82860536532746,0.6296685248461755,16,-21494.74352650828,340282346638528860000000000000000000000,1176450050,,,,0,,1,,29.36372184753418,3.405148317018291,2.6002102484745304,3.405148317018291,1.0,Q,16154559590000
Raw,1699400612000,79090000000,,,-1383435750910271066,0.0,8.256711498743169,128.0,1.0,22,2,0.0,32995,9811935357336,37,38.4862060546875,338.81366621080156,0.15,16,26241.462527033687,340282346638528860000000000000000000000,1599750020,,,,0,,3,,34.886207580566406,55.87935447692871,2.0000000474974513,55.87935447692871,2.0000000474974513,C,16154559590000
Raw,1699400612000,79090000000,,,-1383435750910271066,0.0,8.256711498743169,128.0,1.0,22,13,0.0,32995,9811933443930,61,32.16294479370117,-135.52192702121073,0.6666259563978212,16,-10858.662286464736,340282346638528860000000000000000000000,1600875010,,,,0,,3,,28.562944412231445,55.87935447692871,2.0000000474974513,55.87935447692871,2.0000000474974513,C,16154559590000
Raw,1699400612000,79090000000,,,-1383435750910271066,0.0,8.256711498743169,128.0,1.0,22,12,0.0,32995,9811932964031,44,36.26408386230469,407.35481549397764,0.15,16,31979.694460122104,340282346638528860000000000000000000000,1601437440,,,,0,,3,,32.664085388183594,55.87935447692871,2.0000000474974513,55.87935447692871,2.0000000474974513,C,16154559590000
Raw,1699400612000,79090000000,,,-1383435750910271066,0.0,8.256711498743169,128.0,1.0,22,1,0.0,32867,9811924291024,44,36.224464416503906,857.1941628576819,0.15,16,68004.15138344077,340282346638528860000000000000000000000,1602562560,,,,1,,3,,32.62446594238281,55.87935447692871,2.0000000474974513,55.87935447692871,2.0000000474974513,C,16154559590000
Raw,1699400612000,79090000000,,,-1383435750910271066,0.0,8.256711498743169,128.0,1.0,22,21,0.0,32995,9811921316358,156,20.646595001220703,-147.09776924014523,1.1823217481222503,16,-12008.029239642008,340282346638528860000000000000000000000,1604249980,,,,0,,3,,17.046594619750977,55.87935447692871,2.0000000474974513,55.87935447692871,2.0000000474974513,C,16154559590000
Raw,1699400612000,79090000000,,,-1383435750910271066,0.0,8.256711498743169,128.0,1.0,22,3,0.0,32995,9811931675915,33,41.636165618896484,-446.777379469695,0.15,16,-35442.239575522195,340282346638528860000000000000000000000,1604812540,,,,0,,3,,38.03616714477539,55.87935447692871,2.0000000474974513,55.87935447692871,2.0000000474974513,C,16154559590000
Raw,1699400612000,79090000000,,,-1383435750910271066,0.0,8.256711498743169,128.0,1.0,22,7,0.0,85026,258229919425402,22,36.20639419555664,368.5008491404303,0.15,16,29321.45393526203,340282346638528860000000000000000000000,1575420030,,,,0,,6,,32.60639572143555,-0.4074536263942718,1.5000000237487257,-0.4074536263942718,1.5000000237487257,C,16154559590000
Raw,1699400612000,79090000000,,,-1383435750910271066,0.0,8.256711498743169,128.0,1.0,22,19,0.0,85026,258229910227141,55,24.994121551513672,-452.2863654946725,0.9877016019552975,16,-34263.984277210606,340282346638528860000000000000000000000,1575420030,,,,0,,6,,21.394121170043945,-0.4074536263942718,1.5000000237487257,-0.4074536263942718,1.5000000237487257,C,16154559590000
Raw,1699400612000,79090000000,,,-1383435750910271066,0.0,8.256711498743169,128.0,1.0,22,27,0.0,85026,258229922516747,23,35.80310821533203,-8.063426200983404,0.5016857719400214,16,-689.8172272080122,340282346638528860000000000000000000000,1575420030,,,,0,,6,,32.20310974121094,-0.4074536263942718,1.5000000237487257,-0.4074536263942718,1.5000000237487257,C,16154559590000
Raw,1699400612000,79090000000,,,-1383435750910271066,0.0,8.256711498743169,128.0,1.0,22,30,0.0,85026,258229915657925,44,27.597835540771484,449.044783054788,0.8708729320519142,16,35600.33742210144,340282346638528860000000000000000000000,1575420030,,,,0,,6,,23.997835159301758,-0.4074536263942718,1.5000000237487257,-0.4074536263942718,1.5000000237487257,C,16154559590000
Raw,1699400612000,79090000000,,,-1383435750910271066,0.0,8.256711498743169,128.0,1.0,22,7,0.0,84003,258229919425937,12,33.04557800292969,368.4897723420604,0.6280108659939665,16,29601.83104798563,340282346638528860000000000000000000000,1176450050,,,,0,,6,,29.44557762145996,-4.840362817049026,3.100210272223256,-4.840362817049026,1.5000000237487257,Q,16154559590000
Raw,1699400612000,79090000000,,,-1383435750910271066,0.0,8.256711498743169,128.0,1.0,22,19,0.0,16384,258229910227681,1000000000,20.142227172851562,-452.5644442574421,299792458,16,-33818.803780172544,340282346638528860000000000000000000000,1176450050,,,,0,,6,,16.542226791381836,2.5478191673755632,3.100210272223256,2.5478191673755632,1.5000000237487257,Q,16154559590000
Raw,1699400612000,79090000000,,,-1383435750910271066,0.0,8.256711498743169,128.0,1.0,22,27,0.0,84003,258229922517287,20,29.855030059814453,-7.8597984343343406,0.7720422621825969,16,-829.3150385178421,340282346638528860000000000000000000000,1176450050,,,,0,,6,,26.255029678344727,-2.254499122500419,3.100210272223256,-2.254499122500419,1.5000000237487257,Q,16154559590000
Raw,1699400612000,79090000000,,,-1383435750910271066,0.0,8.256711498743169,128.0,1.0,22,30,0.0,84003,258229915658494,16,30.642181396484375,449.24880063953356,0.7354112100925358,16,36238.978533508925,340282346638528860000000000000000000000,1176450050,,,,0,,6,,27.04218101501465,-2.254499122500419,3.100210272223256,-2.254499122500419,1.5000000237487257,Q,16154559590000
Fix,GPS,37.4264076658,-122.1738305302,20.588027903549634,1.1706601,4.1063285,270.6175,1699400612000,0.17480236,7.8439975,16154559590000,3.0,0,,,
Fix,NLP,37.4265765000,-122.1736670000,8.399999618530273,,31.862,,1699400614892,,,16156979000000,2.7988904,0,,,
Fix,GPS,37.4264228300,-122.1739136410,18.62774657804733,1.2653669,3.3343763,277.04684,1699400618000,0.14616767,5.6544795,16160559681000,3.0,0,,,
Fix,FLP,37.4264296000,-122.1738957000,1.57883245356183,1.2613729,7.244,281.73172,1699400618665,,,16160752385758,1.5649339,0,,,
Fix,GPS,37.4264320470,-122.1740010056,17.64703043736209,1.2597307,3.1933322,268.11633,1699400624000,0.1507143,6.8118515,16166559819000,3.0,0,,,
Fix,FLP,37.4264563000,-122.1739892000,1.527480008855708,1.260672,7.558,279.82196,1699400624678,,,16166764234398,1.5759759,0,,,
Fix,NLP,37.4265475000,-122.1740918000,4.900000095367432,,43.768,,1699400624943,,,16167029000000,2.5672545,0,,,
Fix,FLP,37.4264052000,-122.1740516000,2.0338341476260346,1.2776529,7.839,216.5974,1699400629700,,,16171786619716,1.5935442,0,,,
Fix,GPS,37.4263658205,-122.1740610410,16.789693954704052,1.3701437,3.2895591,198.69359,1699400630000,0.1553499,8.480508,16172559962000,3.0,0,,,
Raw,1699400630000,97090000000,,,-1383435750910268782,0.0,8.043702440777738,128.0,1.0,22,4,0.0,16431,258247921968166,24,35.31336212158203,674.9291606685183,0.5228908845357754,16,64386.95831180264,340282346638528860000000000000000000000,1575420030,,,,0,,1,,31.713363647460938,-0.20372681261465636,1.0,-0.20372681261465636,1.0,C,16172559962000
Raw,1699400630000,97090000000,,,-1383435750910268782,0.0,8.043702440777738,128.0,1.0,22,5,0.0,16423,258247919429707,37,29.914167404174805,-213.45380702950263,0.7688275276652998,16,-18535.223986025358,340282346638528860000000000000000000000,1575420030,,,,0,,1,,26.314167022705078,-0.2619344840127561,1.0,-0.2619344840127561,1.0,C,16172559962000
Raw,1699400630000,97090000000,,,-1383435750910268782,0.0,8.043702440777738,128.0,1.0,22,7,0.0,16431,258247930466553,29,32.86198043823242,-7.538510572231171,0.6346554805353608,16,-889.951315965291,340282346638528860000000000000000000000,1575420030,,,,0,,1,,29.261980056762695,-0.7566996039129875,1.0,-0.7566996039129875,1.0,C,16172559962000
Raw,1699400630000,97090000000,,,-1383435750910268782,0.0,8.043702440777738,128.0,1.0,22,8,0.0,16431,258247927000891,22,36.258392333984375,-32.95646588605217,0.15,16,-3841.885181639411,340282346638528860000000000000000000000,1575420030,,,,0,,1,,32.65839385986328,-1.222360875687938,1.0,-1.222360875687938,1.0,C,16172559962000
Raw,1699400630000,97090000000,,,-1383435750910268782,0.0,8.043702440777738,128.0,1.0,22,9,0.0,16431,258247929917608,30,32.399288177490234,462.9177402402893,0.6553633686994798,16,44500.507823674365,340282346638528860000000000000000000000,1575420030,,,,0,,1,,28.79928970336914,-1.1641532291423,1.0,-1.1641532291423,1.0,C,16172559962000
Raw,1699400630000,97090000000,,,-1383435750910268782,0.0,8.043702440777738,128.0,1.0,22,14,0.0,16431,258247926609496,15,40.88268280029297,-471.87314426885337,0.15,16,-45994.47762509116,340282346638528860000000000000000000000,1575420030,,,,0,,1,,37.282684326171875,-0.2619344840127561,1.0,-0.2619344840127561,1.0,C,16172559962000
Raw,1699400630000,97090000000,,,-1383435750910268782,0.0,8.043702440777738,128.0,1.0,22,20,0.0,16431,258247922701877,26,33.89845275878906,162.1254911763241,0.5866498079845992,16,15221.987171078383,340282346638528860000000000000000000000,1575420030,,,,0,,1,,30.298452377319336,0.0,1.0,0.0,1.0,C,16172559962000
Raw,1699400630000,97090000000,,,-1383435750910268782,0.0,8.043702440777738,128.0,1.0,22,22,0.0,16431,258247922385341,14,41.41533660888672,-566.9171866511886,0.15,16,-55084.297108289655,340282346638528860000000000000000000000,1575420030,,,,0,,1,,37.815338134765625,0.0,1.0,0.0,1.0,C,16172559962000
Raw,1699400630000,97090000000,,,-1383435750910268782,0.0,8.043702440777738,128.0,1.0,22,27,0.0,16431,258247921565062,36,30.13426399230957,391.1112871274888,0.7557166323735749,16,37321.963405960945,340282346638528860000000000000000000000,1575420030,,,,0,,1,,26.534263610839844,-1.4842953845531561,1.0,-1.4842953845531561,1.0,C,16172559962000
Raw,1699400630000,97090000000,,,-1383435750910268782,0.0,8.043702440777738,128.0,1.0,22,30,0.0,16431,258247928192881,16,39.79343032836914,-260.460348106991,0.15,16,-25387.26185956983,340282346638528860000000000000000000000,1575420030,,,,0,,1,,36.19343185424805,-1.8044374405541648,1.0,-1.8044374405541648,1.0,C,16172559962000
Raw,1699400630000,97090000000,,,-1383435750910268782,0.0,8.043702440777738,128.0,1.0,22,4,0.0,81921,258247921968680,55,25.31407356262207,675.1511056253948,0.9725477562911409,16,65067.58913855278,340282346638528860000000000000000000000,1176450050,,,,0,,1,,21.714073181152344,-1.77522804402381,2.338417398641317,-1.77522804402381,1.0,Q,16172559962000
Raw,1699400630000,97090000000,,,-1383435750910268782,0.0,8.043702440777738,128.0,1.0,22,8,0.0,81921,258247927001436,9,35.472503662109375,-33.43784224167328,0.5166398824268408,16,-3977.1966660029484,340282346638528860000000000000000000000,1176450050,,,,0,,1,,31.87250328063965,5.849869869574474,2.338417398641317,5.849869869574474,1.0,Q,16172559962000
Raw,1699400630000,97090000000,,,-1383435750910268782,0.0,8.043702440777738,128.0,1.0,22,9,0.0,81921,258247929918171,13,31.44549560546875,463.0885615123816,0.698254609185585,16,45909.51472929591,340282346638528860000000000000000000000,1176450050,,,,0,,1,,27.845495223999023,4.743924187567964,2.338417398641317,4.743924187567964,1.0,Q,16172559962000
Raw,1699400630000,97090000000,,,-1383435750910268782,0.0,8.043702440777738,128.0,1.0,22,14,0.0,81921,258247926610023,13,34.55821228027344,-472.287995929649,0.5576840468145736,16,-47465.340894587694,340282346638528860000000000000000000000,1176450050,,,,0,,1,,30.958213806152344,0.0,2.338417398641317,0.0,1.0,Q,16172559962000
Raw,1699400630000,97090000000,,,-1383435750910268782,0.0,8.043702440777738,128.0,1.0,22,27,0.0,81921,258247921565654,39,26.629438400268555,392.4930239973801,0.9133248283719051,16,38614.75929978162,340282346638528860000000000000000000000,1176450050,,,,0,,1,,23.029438018798828,6.140908102302663,2.338417398641317,6.140908102302663,1.0,Q,16172559962000
Raw,1699400630000,97090000000,,,-1383435750910268782,0.0,8.043702440777738,128.0,1.0,22,30,0.0,81921,258247928193416,7,37.649818420410156,-260.45165708057766,0.15,16,-26190.57239050715,340282346638528860000000000000000000000,1176450050,,,,0,,1,,34.04981994628906,3.405148317018291,2.338417398641317,3.405148317018291,1.0,Q,16172559962000
Raw,1699400630000,97090000000,,,-1383435750910268782,0.0,8.043702440777738,128.0,1.0,22,2,0.0,32995,9829935336918,33,40.88121032714844,341.90150268931166,0.15,16,32369.994712625896,340282346638528860000000000000000000000,1599750020,,,,0,,3,,37.281211853027344,55.87935447692871,2.0000000474974513,55.87935447692871,2.0000000474974513,C,16172559962000
Raw,1699400630000,97090000000,,,-1383435750910268782,0.0,8.043702440777738,128.0,1.0,22,13,0.0,32995,9829933452027,68,30.869474411010742,-132.6373668340168,0.7247933266743183,16,-13275.712538136966,340282346638528860000000000000000000000,1600875010,,,,0,,3,,27.269474029541016,55.87935447692871,2.0000000474974513,55.87935447692871,2.0000000474974513,C,16172559962000
Raw,1699400630000,97090000000,,,-1383435750910268782,0.0,8.043702440777738,128.0,1.0,22,12,0.0,32995,9829932939466,59,32.59035110473633,408.2813129920937,0.6473152492492438,16,39325.41579312015,340282346638528860000000000000000000000,1601437440,,,,0,,3,,28.9903507232666,55.87935447692871,2.0000000474974513,55.87935447692871,2.0000000474974513,C,16172559962000
Raw,1699400630000,97090000000,,,-1383435750910268782,0.0,8.043702440777738,128.0,1.0,22,1,0.0,32867,9829924239550,33,41.046974182128906,857.567774746085,0.15,16,83446.78758726256,340282346638528860000000000000000000000,1602562560,,,,0,,3,,37.44697570800781,55.87935447692871,2.0000000474974513,55.87935447692871,2.0000000474974513,C,16172559962000
Raw,1699400630000,97090000000,,,-1383435750910268782,0.0,8.043702440777738,128.0,1.0,22,21,0.0,32995,9829921324999,76,29.586450576782227,-145.94392471579374,0.780308123264251,16,-14653.452605509592,340282346638528860000000000000000000000,1604249980,,,,0,,3,,25.9864501953125,55.87935447692871,2.0000000474974513,55.87935447692871,2.0000000474974513,C,16172559962000
Raw,1699400630000,97090000000,,,-1383435750910268782,0.0,8.043702440777738,128.0,1.0,22,3,0.0,32995,9829931702655,34,39.51995849609375,-443.30171871841185,0.15,16,-43455.69787521484,340282346638528860000000000000000000000,1604812540,,,,0,,3,,35.919960021972656,55.87935447692871,2.0000000474974513,55.87935447692871,2.0000000474974513,C,16172559962000
Raw,1699400630000,97090000000,,,-1383435750910268782,0.0,8.043702440777738,128.0,1.0,22,7,0.0,85026,258247919403262,32,31.526857376098633,368.8536025654414,0.694143412867521,16,35958.25527676192,340282346638528860000000000000000000000,1575420030,,,,1,,6,,27.926856994628906,-0.4074536263942718,1.5000000237487257,-0.4074536263942718,1.5000000237487257,C,16172559962000
Raw,1699400630000,97090000000,,,-1383435750910268782,0.0,8.043702440777738,128.0,1.0,22,19,0.0,85026,258247910254339,37,29.75680160522461,-450.7237871104712,0.7735341684630446,16,-42402.57420347525,340282346638528860000000000000000000000,1575420030,,,,0,,6,,26.156801223754883,-0.4074536263942718,1.5000000237487257,-0.4074536263942718,1.5000000237487257,C,16172559962000
Raw,1699400630000,97090000000,,,-1383435750910268782,0.0,8.043702440777738,128.0,1.0,22,27,0.0,85026,258247922517183,23,35.41295623779297,-6.581187622343744,0.5192305818100107,16,-821.0688482693231,340282346638528860000000000000000000000,1575420030,,,,0,,6,,31.812955856323242,-0.4074536263942718,1.5000000237487257,-0.4074536263942718,1.5000000237487257,C,16172559962000
Raw,1699400630000,97090000000,,,-1383435750910268782,0.0,8.043702440777738,128.0,1.0,22,30,0.0,85026,258247915630958,33,31.212913513183594,449.48219730180176,0.7083021439954287,16,43685.94218879967,340282346638528860000000000000000000000,1575420030,,,,0,,6,,27.612913131713867,-0.4074536263942718,1.5000000237487257,-0.4074536263942718,1.5000000237487257,C,16172559962000
Raw,1699400630000,97090000000,,,-1383435750910268782,0.0,8.043702440777738,128.0,1.0,22,7,0.0,84003,258247919403807,19,29.626489639282227,368.60561861178144,0.7817594234929821,16,36235.923446060944,340282346638528860000000000000000000000,1176450050,,,,0,,6,,26.0264892578125,-4.840362817049026,2.8384174223900427,-4.840362817049026,1.5000000237487257,Q,16172559962000
Raw,1699400630000,97090000000,,,-1383435750910268782,0.0,8.043702440777738,128.0,1.0,22,19,0.0,84003,258247910254855,19,30.449071884155273,-450.8024835025824,0.7431230981210986,16,-41957.28723788224,340282346638528860000000000000000000000,1176450050,,,,0,,6,,26.849071502685547,2.5478191673755632,2.8384174223900427,2.5478191673755632,1.5000000237487257,Q,16172559962000
Raw,1699400630000,97090000000,,,-1383435750910268782,0.0,8.043702440777738,128.0,1.0,22,27,0.0,84003,258247922517734,15,31.15657615661621,-6.6148339299307395,0.7135132983439281,16,-957.4435177962652,340282346638528860000000000000000000000,1176450050,,,,0,,6,,27.556575775146484,-2.254499122500419,2.8384174223900427,-2.254499122500419,1.5000000237487257,Q,16172559962000
Raw,1699400630000,97090000000,,,-1383435750910268782,0.0,8.043702440777738,128.0,1.0,22,30,0.0,84003,258247915631496,25,28.273090362548828,449.97884685825215,0.8419417858767946,16,44344.740241484345,340282346638528860000000000000000000000,1176450050,,,,0,,6,,24.6730899810791,-2.254499122500419,2.8384174223900427,-2.254499122500419,1.5000000237487257,Q,16172559962000
Agc,1699400632000,99090000000,,,-1383435750910268529,0.0,7.968717990809523,128.0,1.0,22,43.90369415283203,1575420000,1
Agc,1699400632000,99090000000,,,-1383435750910268529,0.0,7.968717990809523,128.0,1.0,22,29.666786193847656,1176450000,1
Agc,1699400632000,99090000000,,,-1383435750910268529,0.0,7.968717990809523,128.0,1.0,22,65.08193969726562,1602000000,3
Agc,1699400632000,99090000000,,,-1383435750910268529,0.0,7.968717990809523,128.0,1.0,22,43.90369415283203,1575420000,6
Agc,1699400632000,99090000000,,,-1383435750910268529,0.0,7.968717990809523,128.0,1.0,22,29.666786193847656,1176450000,6
Agc,1699400632000,99090000000,,,-1383435750910268529,0.0,7.968717990809523,128.0,1.0,22,18.456707000732422,1561096000,5
Agc,1699400632000,99090000000,,,-1383435750910268529,0.0,7.968717990809523,128.0,1.0,22,43.90369415283203,1575420000,5
Agc,1699400632000,99090000000,,,-1383435750910268529,0.0,7.968717990809523,128.0,1.0,22,29.666786193847656,1176450000,5
UncalAccel,1699400633245,16175331060713,0.15553348,1.1874382,10.695319,0.065623306,0.002461203,-0.031848617
OrientationDeg,1699400633245,16175331060713,229.0,1.0,0.0
UncalGyro,1699400633290,16175376984694,0.36483926,-0.033750303,0.05467244,-0.0020647193,-0.0038371063,-0.0013321454
Fix,NLP,37.4265333000,-122.1741813000,9.5,,27.829,,1699400634999,,,16177085000000,3.8277712,0,,,
Fix,FLP,37.4263527000,-122.1741127000,5.199999809265137,1.173751,7.995,231.35841,1699400635720,,,16177806724887,2.0206547,0,,,
Fix,GPS,37.4263285870,-122.1741118519,15.284139442614885,1.2526977,3.1096954,248.876,1699400636000,0.14616773,7.042767,16178560058000,3.0,0,,,
Fix,FLP,37.4263110000,-122.1741471000,5.199999809265137,1.130053,8.129,225.38834,1699400641231,,,16183317450174,2.2228935,0,,,
Fix,GPS,37.4262724242,-122.1741723213,14.15819343482599,1.2845626,3.1610892,206.62321,1699400642000,0.16068393,7.276408,16184560186000,3.0,0,,,
Fix,NLP,37.4264897000,-122.1742379000,4.900000095367432,,29.788,,1699400645064,,,16187150000000,4.629289,0,,,
Fix,FLP,37.4262234000,-122.1741408000,2.3965555789995534,1.1073067,5.61,204.50438,1699400647844,,,16189930248069,2.06587,0,,,
Fix,GPS,37.4262057005,-122.1742191375,14.250649973121769,1.2906821,3.342556,193.50864,1699400648000,0.179936,9.435576,16190560277000,3.0409112,0,,,
Raw,1699400648000,115090000000,,,-1383435750910266469,0.0,8.306682840643461,130.0,1.0,22,4,0.0,16431,258265921927586,16,39.651851654052734,676.4085437763474,0.15,16,76554.88208830541,340282346638528860000000000000000000000,1575420030,,,,0,,1,,36.05185317993164,-0.20372681261465636,1.0,-0.20372681261465636,1.0,C,16190560277000
Raw,1699400648000,115090000000,,,-1383435750910266469,0.0,8.306682840643461,130.0,1.0,22,5,0.0,16423,258265919442505,64,23.047548294067383,-212.20828069710478,1.077613918088983,16,-22365.604281537508,340282346638528860000000000000000000000,1575420030,,,,0,,1,,19.447547912597656,-0.2619344840127561,1.0,-0.2619344840127561,1.0,C,16190560277000
Raw,1699400648000,115090000000,,,-1383435750910266469,0.0,8.306682840643461,130.0,1.0,22,7,0.0,16431,258265930466960,40,28.925561904907227,-6.473582916640634,0.8116718382063883,16,-1011.4617916764275,340282346638528860000000000000000000000,1575420030,,,,0,,1,,25.3255615234375,-0.7566996039129875,1.0,-0.7566996039129875,1.0,C,16190560277000
Raw,1699400648000,115090000000,,,-1383435750910266469,0.0,8.306682840643461,130.0,1.0,22,8,0.0,16431,258265927002777,21,36.847232818603516,-30.596805351458983,0.15,16,-4420.4988055775,340282346638528860000000000000000000000,1575420030,,,,0,,1,,33.24723434448242,-1.222360875687938,1.0,-1.222360875687938,1.0,C,16190560277000
Raw,1699400648000,115090000000,,,-1383435750910266469,0.0,8.306682840643461,130.0,1.0,22,9,0.0,16431,258265929889734,15,41.133277893066406,465.12250027029336,0.15,16,52864.30653782574,340282346638528860000000000000000000000,1575420030,,,,0,,1,,37.53327941894531,-1.1641532291423,1.0,-1.1641532291423,1.0,C,16190560277000
Raw,1699400648000,115090000000,,,-1383435750910266469,0.0,8.306682840643461,130.0,1.0,22,14,0.0,16431,258265926637796,32,31.627897262573242,-470.3013295389344,0.6894621342102747,16,-54473.58555724328,340282346638528860000000000000000000000,1575420030,,,,0,,1,,28.027896881103516,-0.2619344840127561,1.0,-0.2619344840127561,1.0,C,16190560277000
Raw,1699400648000,115090000000,,,-1383435750910266469,0.0,8.306682840643461,130.0,1.0,22,20,0.0,16431,258265922692091,72,21.601070404052734,163.68934765264498,1.1396474504599885,16,18155.99262452444,340282346638528860000000000000000000000,1575420030,,,,1,,1,,18.001070022583008,0.0,1.0,0.0,1.0,C,16190560277000
Raw,1699400648000,115090000000,,,-1383435750910266469,0.0,8.306682840643461,130.0,1.0,22,22,0.0,16431,258265922419341,28,33.37769317626953,-565.3524610722263,0.6100168599977742,16,-65270.8231337757,340282346638528860000000000000000000000,1575420030,,,,1,,1,,29.777694702148438,0.0,1.0,0.0,1.0,C,16190560277000
Raw,1699400648000,115090000000,,,-1383435750910266469,0.0,8.306682840643461,130.0,1.0,22,27,0.0,16431,258265921541420,35,30.315690994262695,393.8007337717038,0.7475538174690639,16,44402.233184698714,340282346638528860000000000000000000000,1575420030,,,,0,,1,,26.71569061279297,-1.4842953845531561,1.0,-1.4842953845531561,1.0,C,16190560277000
Raw,1699400648000,115090000000,,,-1383435750910266469,0.0,8.306682840643461,130.0,1.0,22,30,0.0,16431,258265928208475,19,37.92707824707031,-259.0512430245119,0.15,16,-30062.958186985277,340282346638528860000000000000000000000,1575420030,,,,0,,1,,34.32707977294922,-1.8044374405541648,1.0,-1.8044374405541648,1.0,C,16190560277000
Raw,1699400648000,115090000000,,,-1383435750910266469,0.0,8.306682840643461,130.0,1.0,22,4,0.0,81921,258265921928103,12,33.754878997802734,676.389934755086,0.5929669114203446,16,77238.93102572781,340282346638528860000000000000000000000,1176450050,,,,0,,1,,30.15488052368164,-1.77522804402381,2.140452529874742,-1.77522804402381,1.0,Q,16190560277000
Raw,1699400648000,115090000000,,,-1383435750910266469,0.0,8.306682840643461,130.0,1.0,22,8,0.0,81921,258265927003340,13,33.269371032714844,-30.34181958313711,0.6157124911403615,16,-4548.687405715097,340282346638528860000000000000000000000,1176450050,,,,0,,1,,29.66937255859375,5.849869869574474,2.140452529874742,5.849869869574474,1.0,Q,16190560277000
Raw,1699400648000,115090000000,,,-1383435750910266469,0.0,8.306682840643461,130.0,1.0,22,9,0.0,81921,258265929890294,22,30.764785766601562,465.45180496521675,0.7288602557392814,16,54273.812671773034,340282346638528860000000000000000000000,1176450050,,,,0,,1,,27.164785385131836,4.743924187567964,2.140452529874742,4.743924187567964,1.0,Q,16190560277000
Raw,1699400648000,115090000000,,,-1383435750910266469,0.0,8.306682840643461,130.0,1.0,22,14,0.0,81921,258265926638329,15,31.778221130371094,-470.24492307338915,0.6827022916762222,16,-55945.50864284059,340282346638528860000000000000000000000,1176450050,,,,0,,1,,28.178220748901367,0.0,2.140452529874742,0.0,1.0,Q,16190560277000
Raw,1699400648000,115090000000,,,-1383435750910266469,0.0,8.306682840643461,130.0,1.0,22,27,0.0,81921,258265921541998,29,27.20627212524414,395.4476321533425,0.8873810228244694,16,45700.95053266484,340282346638528860000000000000000000000,1176450050,,,,0,,1,,23.606271743774414,6.140908102302663,2.140452529874742,6.140908102302663,1.0,Q,16190560277000
Raw,1699400648000,115090000000,,,-1383435750910266469,0.0,8.306682840643461,130.0,1.0,22,30,0.0,81921,258265928209030,7,41.85022735595703,-259.00393657485824,0.15,16,-30866.608329946095,340282346638528860000000000000000000000,1176450050,,,,0,,1,,38.25022888183594,3.405148317018291,2.140452529874742,3.405148317018291,1.0,Q,16190560277000
Raw,1699400648000,115090000000,,,-1383435750910266469,0.0,8.306682840643461,130.0,1.0,22,2,0.0,32995,9847935316317,33,42.296531677246094,345.53724873888245,0.15,16,38554.811889336146,340282346638528860000000000000000000000,1599750020,,,,0,,3,,38.696533203125,55.87935447692871,2.0000000474974513,55.87935447692871,2.0000000474974513,C,16190560277000
Raw,1699400648000,115090000000,,,-1383435750910266469,0.0,8.306682840643461,130.0,1.0,22,13,0.0,32995,9847933459937,61,32.241058349609375,-130.9555339344422,0.6631161290489507,16,-15658.296665186303,340282346638528860000000000000000000000,1600875010,,,,0,,3,,28.64105987548828,55.87935447692871,2.0000000474974513,55.87935447692871,2.0000000474974513,C,16190560277000
Raw,1699400648000,115090000000,,,-1383435750910266469,0.0,8.306682840643461,130.0,1.0,22,12,0.0,32995,9847932914737,76,29.48428726196289,409.76758075614043,0.7869869533967639,16,46698.28099702247,340282346638528860000000000000000000000,1601437440,,,,0,,3,,25.884286880493164,55.87935447692871,2.0000000474974513,55.87935447692871,2.0000000474974513,C,16190560277000
Raw,1699400648000,115090000000,,,-1383435750910266469,0.0,8.306682840643461,130.0,1.0,22,1,0.0,32867,9847924188015,62,32.098976135253906,858.5326490902457,0.6678374812195305,16,98901.38430042387,340282346638528860000000000000000000000,1602562560,,,,0,,3,,28.498977661132812,55.87935447692871,2.0000000474974513,55.87935447692871,2.0000000474974513,C,16190560277000
Raw,1699400648000,115090000000,,,-1383435750910266469,0.0,8.306682840643461,130.0,1.0,22,21,0.0,32995,9847921333718,82,28.572980880737305,-142.52508794014824,0.825884355710996,16,-17243.534320704945,340282346638528860000000000000000000000,1604249980,,,,0,,3,,24.972980499267578,55.87935447692871,2.0000000474974513,55.87935447692871,2.0000000474974513,C,16190560277000
Raw,1699400648000,115090000000,,,-1383435750910266469,0.0,8.306682840643461,130.0,1.0,22,3,0.0,32995,9847931729228,54,33.686771392822266,-440.7763791023542,0.5977927076813234,16,-51413.631602165835,340282346638528860000000000000000000000,1604812540,,,,0,,3,,30.086772918701172,55.87935447692871,2.0000000474974513,55.87935447692871,2.0000000474974513,C,16190560277000
Raw,1699400648000,115090000000,,,-1383435750910266469,0.0,8.306682840643461,130.0,1.0,22,7,0.0,85026,258265919381079,19,37.78431701660156,370.5490343651686,0.15,16,42619.41531031162,340282346638528860000000000000000000000,1575420030,,,,0,,6,,34.18431854248047,-0.4074536263942718,1.5000000237487257,-0.4074536263942718,1.5000000237487257,C,16190560277000
Raw,1699400648000,115090000000,,,-1383435750910266469,0.0,8.306682840643461,130.0,1.0,22,19,0.0,85026,258265910281398,70,21.927106857299805,-450.72071968938417,1.1256317058879617,16,-50528.652768497726,340282346638528860000000000000000000000,1575420030,,,,0,,6,,18.327106475830078,-0.4074536263942718,1.5000000237487257,-0.4074536263942718,1.5000000237487257,C,16190560277000
Raw,1699400648000,115090000000,,,-1383435750910266469,0.0,8.306682840643461,130.0,1.0,22,27,0.0,85026,258265922517519,20,37.122169494628906,-4.5782394031021205,0.15,16,-923.4567843771486,340282346638528860000000000000000000000,1575420030,,,,0,,6,,33.52217102050781,-0.4074536263942718,1.5000000237487257,-0.4074536263942718,1.5000000237487257,C,16190560277000
Raw,1699400648000,115090000000,,,-1383435750910266469,0.0,8.306682840643461,130.0,1.0,22,30,0.0,85026,258265915603879,37,29.913795471191406,450.4092742016787,0.7667170780528014,16,51800.15795946893,340282346638528860000000000000000000000,1575420030,,,,0,,6,,26.31379508972168,-0.4074536263942718,1.5000000237487257,-0.4074536263942718,1.5000000237487257,C,16190560277000
Raw,1699400648000,115090000000,,,-1383435750910266469,0.0,8.306682840643461,130.0,1.0,22,7,0.0,84003,258265919381606,19,29.21022605895996,370.6965091545428,0.8004743533253893,16,42894.26045191643,340282346638528860000000000000000000000,1176450050,,,,0,,6,,25.610225677490234,-4.840362817049026,2.6404525536234678,-4.840362817049026,1.5000000237487257,Q,16190560277000
Raw,1699400648000,115090000000,,,-1383435750910266469,0.0,8.306682840643461,130.0,1.0,22,19,0.0,84003,258265910281949,22,29.897056579589844,-450.04189940281935,0.767951502024987,16,-50073.05511887978,340282346638528860000000000000000000000,1176450050,,,,0,,6,,26.297056198120117,2.5478191673755632,2.6404525536234678,2.5478191673755632,1.5000000237487257,Q,16190560277000
Raw,1699400648000,115090000000,,,-1383435750910266469,0.0,8.306682840643461,130.0,1.0,22,27,0.0,84003,258265922518079,21,29.3900203704834,-4.556010185911884,0.7929533137398947,16,-1061.0605691853618,340282346638528860000000000000000000000,1176450050,,,,0,,6,,25.790019989013672,-2.254499122500419,2.6404525536234678,-2.254499122500419,1.5000000237487257,Q,16190560277000
Raw,1699400648000,115090000000,,,-1383435750910266469,0.0,8.306682840643461,130.0,1.0,22,30,0.0,84003,258265915604441,25,28.33955955505371,451.414536256819,0.838947855086619,16,52473.566841509935,340282346638528860000000000000000000000,1176450050,,,,0,,6,,24.739559173583984,-2.254499122500419,2.6404525536234678,-2.254499122500419,1.5000000237487257,Q,16190560277000
Fix,FLP,37.4261510000,-122.1741731000,4.900000095367432,1.1811074,5.089,199.8926,1699400653889,,,16195975237458,2.6523669,0,,,
Fix,GPS,37.4261425707,-122.1742411223,14.12987513412314,1.2172059,3.8891122,204.13144,1699400654000,0.18216045,15.337183,16196560243000,3.143098,0,,,
Fix,NLP,37.4261536000,-122.1742530000,4.900000095367432,,17.998,,1699400654689,,,16196775000000,4.1185675,0,,,
Fix,FLP,37.4260804000,-122.1742171000,4.900000095367432,1.2292556,5.206,199.05173,1699400659502,,,16201588160398,2.7483478,0,,,
UncalMag,1699400659742,16201828643671,-79.617195,-100.9916,-154.696,-79.950134,-76.57953,-113.967804
Fix,GPS,37.4260831431,-122.1742912306,13.460611306050046,1.1821542,3.7898283,198.96463,1699400660000,0.21838447,13.569276,16202560366000,3.0268247,0,,,
Fix,FLP,37.4260254000,-122.1742532000,4.900000095367432,1.2066656,5.631,197.32434,1699400664513,,,16206599974002,2.9218335,0,,,
Fix,NLP,37.4261103000,-122.1742431000,3.1000001430511475,,20.335,,1699400665092,,,16207179000000,4.164711,0,,,
Fix,GPS,37.4260225675,-122.1743088766,13.253873648248874,1.1372597,3.703876,192.34988,1699400666000,0.18863358,12.668292,16208560435000,3.0,0,,,
Raw,1699400666000,133090000000,,,-1383435750910264140,0.0,8.077155842497094,130.0,1.0,22,4,0.0,16431,258283921886959,14,41.36347961425781,676.8529108444918,0.15,16,88740.53945198315,340282346638528860000000000000000000000,1575420030,,,,0,,1,,37.76348114013672,-0.20372681261465636,1.0,-0.20372681261465636,1.0,C,16208560435000
Raw,1699400666000,133090000000,,,-1383435750910264140,0.0,8.077155842497094,130.0,1.0,22,5,0.0,16423,258283919454947,95,18.21510887145996,-210.59636795708673,1.2949255247627631,16,-26153.700065559973,340282346638528860000000000000000000000,1575420030,,,,0,,1,,14.615108489990234,-0.2619344840127561,1.0,-0.2619344840127561,1.0,C,16208560435000
Raw,1699400666000,133090000000,,,-1383435750910264140,0.0,8.077155842497094,130.0,1.0,22,7,0.0,16431,258283930467311,29,32.659400939941406,-5.735102355009406,0.6437654149543377,16,-1118.3935553010997,340282346638528860000000000000000000000,1575420030,,,,0,,1,,29.05940055847168,-0.7566996039129875,1.0,-0.7566996039129875,1.0,C,16208560435000
Raw,1699400666000,133090000000,,,-1383435750910264140,0.0,8.077155842497094,130.0,1.0,22,8,0.0,16431,258283927004554,27,33.66281509399414,-28.094462872940113,0.5980200350036387,16,-4948.707473089479,340282346638528860000000000000000000000,1575420030,,,,0,,1,,30.062816619873047,-1.222360875687938,1.0,-1.222360875687938,1.0,C,16208560435000
Raw,1699400666000,133090000000,,,-1383435750910264140,0.0,8.077155842497094,130.0,1.0,22,9,0.0,16431,258283929861766,11,44.06407928466797,467.03650286370134,0.15,16,61256.84350805003,340282346638528860000000000000000000000,1575420030,,,,0,,1,,40.464080810546875,-1.1641532291423,1.0,-1.1641532291423,1.0,C,16208560435000
Raw,1699400666000,133090000000,,,-1383435750910264140,0.0,8.077155842497094,130.0,1.0,22,14,0.0,16431,258283926666033,21,36.96119689941406,-468.9848264908278,0.15,16,-62925.11966785419,340282346638528860000000000000000000000,1575420030,,,,0,,1,,33.36119842529297,-0.2619344840127561,1.0,-0.2619344840127561,1.0,C,16208560435000
Raw,1699400666000,133090000000,,,-1383435750910264140,0.0,8.077155842497094,130.0,1.0,22,20,0.0,16431,258283922682081,64,23.12174415588379,166.43978485280752,1.071262599062119,16,21131.0176079228,340282346638528860000000000000000000000,1575420030,,,,0,,1,,19.521743774414062,0.0,1.0,0.0,1.0,C,16208560435000
Raw,1699400666000,133090000000,,,-1383435750910264140,0.0,8.077155842497094,130.0,1.0,22,22,0.0,16431,258283922453240,29,32.69436264038086,-564.2049388435598,0.6407517136766869,16,-75435.62054718431,340282346638528860000000000000000000000,1575420030,,,,1,,1,,29.094362258911133,0.0,1.0,0.0,1.0,C,16208560435000
Raw,1699400666000,133090000000,,,-1383435750910264140,0.0,8.077155842497094,130.0,1.0,22,27,0.0,16431,258283921517659,45,27.472061157226562,396.02413690542585,0.8754244044782631,16,51520.398932742704,340282346638528860000000000000000000000,1575420030,,,,1,,1,,23.872060775756836,-1.4842953845531561,1.0,-1.4842953845531561,1.0,C,16208560435000
Raw,1699400666000,133090000000,,,-1383435750910264140,0.0,8.077155842497094,130.0,1.0,22,30,0.0,16431,258283928224014,17,39.033531188964844,-258.729726170904,0.15,16,-34721.24532401601,340282346638528860000000000000000000000,1575420030,,,,0,,1,,35.43353271484375,-1.8044374405541648,1.0,-1.8044374405541648,1.0,C,16208560435000
Raw,1699400666000,133090000000,,,-1383435750910264140,0.0,8.077155842497094,130.0,1.0,22,4,0.0,81921,258283921887486,8,36.660499572753906,676.8574778936659,0.15,16,89420.32823678381,340282346638528860000000000000000000000,1176450050,,,,0,,1,,33.06050109863281,-1.77522804402381,2.0367054312286834,-1.77522804402381,1.0,Q,16208560435000
Raw,1699400666000,133090000000,,,-1383435750910264140,0.0,8.077155842497094,130.0,1.0,22,8,0.0,81921,258283927005100,15,31.14181137084961,-28.4887883742949,0.7113868725799346,16,-5073.936218792138,340282346638528860000000000000000000000,1176450050,,,,0,,1,,27.541810989379883,5.849869869574474,2.0367054312286834,5.849869869574474,1.0,Q,16208560435000
Raw,1699400666000,133090000000,,,-1383435750910264140,0.0,8.077155842497094,130.0,1.0,22,9,0.0,81921,258283929862313,9,34.260353088378906,466.44438834653056,0.571663578776545,16,62671.1522925492,340282346638528860000000000000000000000,1176450050,,,,0,,1,,30.66035270690918,4.743924187567964,2.0367054312286834,4.743924187567964,1.0,Q,16208560435000
Raw,1699400666000,133090000000,,,-1383435750910264140,0.0,8.077155842497094,130.0,1.0,22,14,0.0,81921,258283926666549,12,31.397947311401367,-469.4052676744932,0.6998078905146929,16,-64399.84319443648,340282346638528860000000000000000000000,1176450050,,,,0,,1,,27.79794692993164,0.0,2.0367054312286834,0.0,1.0,Q,16208560435000
Raw,1699400666000,133090000000,,,-1383435750910264140,0.0,8.077155842497094,130.0,1.0,22,27,0.0,16384,258283921518199,1000000000,22.04851722717285,396.9383647191937,299792458,16,52827.65762532708,340282346638528860000000000000000000000,1176450050,,,,0,,1,,18.448516845703125,6.140908102302663,2.0367054312286834,6.140908102302663,1.0,Q,16208560435000
Raw,1699400666000,133090000000,,,-1383435750910264140,0.0,8.077155842497094,130.0,1.0,22,30,0.0,81921,258283928224586,13,38.71473693847656,-258.8386877844074,0.15,16,-35517.045958550305,340282346638528860000000000000000000000,1176450050,,,,0,,1,,35.11473846435547,3.405148317018291,2.0367054312286834,3.405148317018291,1.0,Q,16208560435000
Raw,1699400666000,133090000000,,,-1383435750910264140,0.0,8.077155842497094,130.0,1.0,22,2,0.0,32995,9865935295512,33,40.00341033935547,348.1265270433769,0.15,16,44794.45813909241,340282346638528860000000000000000000000,1599750020,,,,0,,3,,36.403411865234375,55.87935447692871,2.0000000474974513,55.87935447692871,2.0000000474974513,C,16208560435000
Raw,1699400666000,133090000000,,,-1383435750910264140,0.0,8.077155842497094,130.0,1.0,22,13,0.0,32995,9865933467777,68,30.99853515625,-129.28093503626457,0.7189924526337572,16,-17997.644298636176,340282346638528860000000000000000000000,1600875010,,,,0,,3,,27.398534774780273,55.87935447692871,2.0000000474974513,55.87935447692871,2.0000000474974513,C,16208560435000
Raw,1699400666000,133090000000,,,-1383435750910264140,0.0,8.077155842497094,130.0,1.0,22,12,0.0,32995,9865932890096,75,29.688434600830078,411.49665194045565,0.7778023970368455,16,54096.92195985997,340282346638528860000000000000000000000,1601437440,,,,0,,3,,26.08843421936035,55.87935447692871,2.0000000474974513,55.87935447692871,2.0000000474974513,C,16208560435000
Raw,1699400666000,133090000000,,,-1383435750910264140,0.0,8.077155842497094,130.0,1.0,22,1,0.0,32867,9865924136465,51,34.53398132324219,859.4726432411449,0.5583288176619954,16,114367.31473720148,340282346638528860000000000000000000000,1602562560,,,,0,,3,,30.93398094177246,55.87935447692871,2.0000000474974513,55.87935447692871,2.0000000474974513,C,16208560435000
Raw,1699400666000,133090000000,,,-1383435750910264140,0.0,8.077155842497094,130.0,1.0,22,21,0.0,32995,9865921342150,89,27.612613677978516,-139.01081176562474,0.8690724197784201,16,-19781.73485776561,340282346638528860000000000000000000000,1604249980,,,,0,,3,,24.01261329650879,55.87935447692871,2.0000000474974513,55.87935447692871,2.0000000474974513,C,16208560435000
Raw,1699400666000,133090000000,,,-1383435750910264140,0.0,8.077155842497094,130.0,1.0,22,3,0.0,32995,9865931755596,41,37.07577133178711,-438.62649182735186,0.15,16,-59327.327212668504,340282346638528860000000000000000000000,1604812540,,,,0,,3,,33.475772857666016,55.87935447692871,2.0000000474974513,55.87935447692871,2.0000000474974513,C,16208560435000
Raw,1699400666000,133090000000,,,-1383435750910264140,0.0,8.077155842497094,130.0,1.0,22,7,0.0,85026,258283919358802,15,40.67157745361328,371.38657665176015,0.15,16,49300.15060048223,340282346638528860000000000000000000000,1575420030,,,,0,,6,,37.07157897949219,-0.4074536263942718,1.5000000237487257,-0.4074536263942718,1.5000000237487257,C,16208560435000
Raw,1699400666000,133090000000,,,-1383435750910264140,0.0,8.077155842497094,130.0,1.0,22,19,0.0,85026,258283910308391,98,17.781925201416016,-450.69065896273105,1.3120405095902372,16,-58630.01970621697,340282346638528860000000000000000000000,1575420030,,,,0,,6,,14.181924819946289,-0.4074536263942718,1.5000000237487257,-0.4074536263942718,1.5000000237487257,C,16208560435000
Raw,1699400666000,133090000000,,,-1383435750910264140,0.0,8.077155842497094,130.0,1.0,22,27,0.0,85026,258283922517791,23,35.8143196105957,-3.58259019831641,0.501181724360352,16,-992.6314184649684,340282346638528860000000000000000000000,1575420030,,,,0,,6,,32.21432113647461,-0.4074536263942718,1.5000000237487257,-0.4074536263942718,1.5000000237487257,C,16208560435000
Raw,1699400666000,133090000000,,,-1383435750910264140,0.0,8.077155842497094,130.0,1.0,22,30,0.0,85026,258283915576778,39,29.1308536529541,451.53443833886627,0.8019202616029908,16,59921.28300791047,340282346638528860000000000000000000000,1575420030,,,,0,,6,,25.530853271484375,-0.4074536263942718,1.5000000237487257,-0.4074536263942718,1.5000000237487257,C,16208560435000
