MessageType,utcTimeMillis,TimeNanos,LeapSecond,TimeUncertaintyNanos,FullBiasNanos,BiasNanos,BiasUncertaintyNanos,DriftNanosPerSecond,DriftUncertaintyNanosPerSecond,HardwareClockDiscontinuityCount,Svid,TimeOffsetNanos,State,ReceivedSvTimeNanos,ReceivedSvTimeUncertaintyNanos,Cn0DbHz,PseudorangeRateMetersPerSecond,PseudorangeRateUncertaintyMetersPerSecond,AccumulatedDeltaRangeState,AccumulatedDeltaRangeMeters,AccumulatedDeltaRangeUncertaintyMeters,CarrierFrequencyHz,CarrierCycles,CarrierPhase,CarrierPhaseUncertainty,MultipathIndicator,SnrInDb,ConstellationType,AgcDb,BasebandCn0DbHz,FullInterSignalBiasNanos,FullInterSignalBiasUncertaintyNanos,SatelliteInterSignalBiasNanos,SatelliteInterSignalBiasUncertaintyNanos,CodeType,ChipsetElapsedRealtimeNanos,ArrivalTimeNanosSinceGpsEpoch,RawPseudorangeMeters,RawPseudorangeUncertaintyMeters,SignalType,ReceivedSvTimeNanosSinceGpsEpoch,SvPositionXEcefMeters,SvPositionYEcefMeters,SvPositionZEcefMeters,SvElevationDegrees,SvAzimuthDegrees,SvVelocityXEcefMetersPerSecond,SvVelocityYEcefMetersPerSecond,SvVelocityZEcefMetersPerSecond,SvClockBiasMeters,SvClockDriftMetersPerSecond,IsrbMeters,IonosphericDelayMeters,TroposphericDelayMeters,WlsPositionXEcefMeters,WlsPositionYEcefMeters,WlsPositionZEcefMeters
Raw,1694113198000,67624000000,,,-1.37814834837619E+018,0,5.44390033395133,63,1,10,2,0,16431,414015918240093,16,40.2702751159668,-557.190769291165,0.15,25,-37377.1623981773,0.00138150330167264,1575420000,,,,0,,1,,,,,,,,5825501164000,1.37814841600019E+018,24567440.9145622,4.796679328,GPS_L1_CA,1.37814841591824E+018,-14916644.0877723,8381795.84825092,20772371.2218102,16.6260782412044,313.031869416259,84.7385845911846,-2527.67074238015,1124.8841292681,-166876.027810173,0.00260926503688097,0,9.27741292913443,8.64467820152944,-2684512.90256834,-4281393.66645165,3878486.75192118
Raw,1694113198000,67624000000,,,-1.37814834837619E+018,0,5.44390033395133,63,1,10,8,0,16431,414015925479708,12,43.5152473449707,-40.7563383086669,0.15,25,-2943.45506169704,0.000950830930378288,1575420000,,,,0,,1,,,,,,,,5825501164000,1.37814841600019E+018,22397058.9387385,3.597509496,GPS_L1_CA,1.37814841592548E+018,-20987738.2918201,-1376793.80405617,16379998.3996276,36.7981010753389,287.733042178422,-1557.45013001588,-1387.8969133507,-2063.30778880803,-42304.1279866106,-0.000212722734431736,0,6.80540971091095,4.16469046755705,-2684512.90256834,-4281393.66645165,3878486.75192118
Raw,1694113198000,67624000000,,,-1.37814834837619E+018,0,5.44390033395133,63,1,10,10,0,16431,414015930592098,14,42.1110496520996,124.624947691912,0.15,25,8359.58776441443,0.00111766892950982,1575420000,,,,0,,1,,,,,,,,5825501164000,1.37814841600019E+018,20864402.9743839,4.197094412,GPS_L1_CA,1.37814841593059E+018,-5111739.85686175,-13974794.019969,22176382.207789,63.8000764993965,19.6345796646986,2582.2464236596,-994.434879257811,-63.0587176464758,-15721.2622902319,0.000103735985248932,0,4.82690880280461,2.78442534221817,-2684512.90256834,-4281393.66645165,3878486.75192118
Raw,1694113198000,67624000000,,,-1.37814834837619E+018,0,5.44390033395133,63,1,10,18,0,16431,414015921892640,21,36.9611434936523,595.323244122581,0.15,25,40015.8750428721,0.00202212785370648,1575420000,,,,0,,1,,,,,,,,5825501164000,1.37814841600019E+018,23472434.8714717,6.295641618,GPS_L1_CA,1.37814841592189E+018,4662547.02675914,-26046772.5072274,-304155.42128166,22.5281052812956,124.441893711914,243.997189023834,81.4670809232285,-3216.74700390179,-122784.858855823,-0.00418798287864774,0,10.145399859991,6.48712064289198,-2684512.90256834,-4281393.66645165,3878486.75192118
Raw,1694113198000,67624000000,,,-1.37814834837619E+018,0,5.44390033395133,63,1,10,21,0,16431,414015921792276,27,34.0791206359863,-478.801017041332,0.592302170383554,25,-29942.3200663849,0.00265664467588067,1575420000,,,,0,,1,,,,,,,,5825501164000,1.37814841600019E+018,23502523.2417264,8.094396366,GPS_L1_CA,1.37814841592179E+018,-15329996.9828425,4873323.73803395,21506733.0926437,25.0134136597958,313.115164140931,69.0919346551587,-2627.72750045727,750.276742576047,44763.8114027684,0.0009059679650818,0,8.07594668169546,5.88473675245885,-2684512.90256834,-4281393.66645165,3878486.75192118
Raw,1694113198000,67624000000,,,-1.37814834837619E+018,0,5.44390033395133,63,1,10,23,0,16431,414015925515276,17,39.8968048095703,428.886611897002,0.15,25,28815.6820101159,0.00144220003858209,1575420000,,,,0,,1,,,,,,,,5825501164000,1.37814841600019E+018,22386395.9205924,5.096471786,GPS_L1_CA,1.37814841592552E+018,8735732.50727114,-17141539.4033136,18238905.2484909,34.2223700609454,62.9993039447239,2188.64986470969,-775.65105490885,-1794.43943721689,19570.3064516125,0.00134515288300463,0,7.19850450379809,4.43405956691344,-2684512.90256834,-4281393.66645165,3878486.75192118
Raw,1694113198000,67624000000,,,-1.37814834837619E+018,0,5.44390033395133,63,1,10,24,0,16431,414015920725150,37,30.2391891479492,243.241447999732,0.768385054836184,25,16154.1884902948,0.00413361517712474,1575420000,,,,1,,1,,,,,,,,5825501164000,1.37814841600019E+018,23822439.5682621,11.092320946,GPS_L1_CA,1.37814841592073E+018,14512036.4767065,-11225369.1173601,18680721.7848379,15.8404142395209,53.1143431024319,52.1274202108878,2482.29831448221,1464.62346063765,-93804.4287385097,-0.00471074023516849,0,9.80263013596085,9.05163815655596,-2684512.90256834,-4281393.66645165,3878486.75192118
Raw,1694113198000,67624000000,,,-1.37814834837619E+018,0,5.44390033395133,63,1,10,27,0,16431,414015927417947,12,43.6588172912598,395.006366588742,0.15,25,26417.9334787084,0.000935243966523558,1575420000,,,,0,,1,,,,,,,,5825501164000,1.37814841600019E+018,21815989.5047371,3.597509496,GPS_L1_CA,1.37814841592742E+018,-22804233.6744453,-12220838.3746853,6640973.66916644,45.1888841024713,236.590740206163,-540.140945746412,-713.667787214743,-3011.19724276067,-10684.2380647532,-0.00134415497086593,0,6.23195489287217,3.51900257417526,-2684512.90256834,-4281393.66645165,3878486.75192118
Raw,1694113198000,67624000000,,,-1.37814834837619E+018,0,5.44390033395133,63,1,10,28,0,16431,414015916960601,20,37.4682502746582,-612.207079599764,0.15,25,-39462.9579643895,0.00190745037980378,1575420000,,,,0,,1,,,,,,,,5825501164000,1.37814841600019E+018,24951022.9662335,5.99584916,GPS_L1_CA,1.37814841591696E+018,-6555214.30977114,-22205195.4681396,-13039139.726762,7.60023168188812,165.379326027255,413.811009046779,-1614.82457410487,2545.95085304514,-2019.72991172107,-0.00142502181415694,0,15.3646969403531,17.992716286394,-2684512.90256834,-4281393.66645165,3878486.75192118
Raw,1694113198000,67624000000,,,-1.37814834837619E+018,0,5.44390033395133,63,1,10,32,0,16431,414015930510211,13,42.4702796936035,-249.768374753677,0.15,25,-16972.130044153,0.00107238732744008,1575420000,,,,0,,1,,,,,,,,5825501164000,1.37814841600019E+018,20888952.0793922,3.897301954,GPS_L1_CA,1.37814841593051E+018,-14858588.2197523,-20090152.1114678,9473949.45835777,67.4410194639895,193.947253000632,1066.81579322452,538.195754444162,2848.9764879279,-166129.923371057,-0.00125946759362705,0,4.90513588630814,2.70557360541048,-2684512.90256834,-4281393.66645165,3878486.75192118
Raw,1694113198000,67624000000,,,-1.37814834837619E+018,0,5.44390033395133,63,1,10,8,0,81921,414015925479633,6,33.5346221923828,-40.7159079946167,0.61070549869451,25,-1926.69689286564,0.0037228986620903,1176450000,,,,0,,1,,,,,,,,5825501164000,1.37814841600019E+018,22397081.4231729,1.798754748,GPS_L5_Q,1.37814841592548E+018,-20987738.2917096,-1376793.80395771,16379998.3997739,36.7981010752574,287.73304217908,-1557.45013002492,-1387.89691336835,-2063.30778878359,-42305.346147716,-0.000212722734431736,20.0264963738669,12.2039387591778,4.16469046756493,-2684512.90256834,-4281393.66645165,3878486.75192118
Raw,1694113198000,67624000000,,,-1.37814834837619E+018,0,5.44390033395133,63,1,10,10,0,81921,414015930592033,6,36.2007369995117,124.671078296815,0.15,25,9248.29321039594,0.00273889489471912,1176450000,,,,0,,1,,,,,,,,5825501164000,1.37814841600019E+018,20864422.4608937,1.798754748,GPS_L5_Q,1.37814841593059E+018,-5111739.85702485,-13974794.0199062,22176382.207793,63.8000764996139,19.6345796637289,2582.24642366372,-994.434879247803,-63.0587176171671,-15721.8159998253,0.000103735985248932,20.0264963738669,8.6559519452611,2.78442534221299,-2684512.90256834,-4281393.66645165,3878486.75192118
Raw,1694113198000,67624000000,,,-1.37814834837619E+018,0,5.44390033395133,63,1,10,18,0,81921,414015921892548,6,29.5023937225342,595.255215539362,0.79138505476876,25,40530.5854402112,0.00592233100906014,1176450000,,,,0,,1,,,,,,,,5825501164000,1.37814841600019E+018,23472462.4523778,1.798754748,GPS_L5_Q,1.37814841592189E+018,4662547.02673497,-26046772.5072355,-304155.420964333,22.5281052819103,124.441893711415,243.99718903011,81.4670808851263,-3216.74700390243,-122782.865501286,-0.00418798286409583,20.0264963738669,18.1934437214297,6.48712064272625,-2684512.90256834,-4281393.66645165,3878486.75192118
Raw,1694113198000,67624000000,,,-1.37814834837619E+018,0,5.44390033395133,63,1,10,23,0,81921,414015925515171,6,28.283712387085,428.892439997068,0.846839408252203,25,29524.8237031484,0.00681438622996211,1176450000,,,,0,,1,,,,,,,,5825501164000,1.37814841600019E+018,22386427.3988005,1.798754748,GPS_L5_Q,1.37814841592552E+018,8735732.50702678,-17141539.403227,18238905.2486913,34.2223700615421,62.9993039440268,2188.649864738,-775.651054903974,-1794.43943717332,19572.2998061485,0.00134515288300463,20.0264963738669,12.9088639556963,4.43405956684595,-2684512.90256834,-4281393.66645165,3878486.75192118
Raw,1694113198000,67624000000,,,-1.37814834837619E+018,0,5.44390033395133,63,1,10,24,0,81921,414015920725137,6,21.4527454376221,245.951872395937,1.15675617796146,16,16956.3842605964,3.40282346638529E+038,1176450000,,,,0,,1,,,,,,,,5825501164000,1.37814841600019E+018,23822443.465564,1.798754748,GPS_L5_Q,1.37814841592073E+018,14512036.476706,-11225369.1173878,18680721.7848216,15.8404142395446,53.1143431025084,52.1274202095736,2482.29831448018,1464.62346064228,-93804.982448103,-0.00471074023516849,20.0264963738669,17.5787649737606,9.05163815654308,-2684512.90256834,-4281393.66645165,3878486.75192118
Raw,1694113198000,67624000000,,,-1.37814834837619E+018,0,5.44390033395133,63,1,10,27,0,81921,414015927417867,6,31.6723308563232,394.920581045674,0.694799300453691,25,27103.6906809519,0.00461313081905246,1176450000,,,,0,,1,,,,,,,,5825501164000,1.37814841600019E+018,21816013.4881337,1.798754748,GPS_L5_Q,1.37814841592742E+018,-22804233.6744027,-12220838.3746289,6640973.66940399,45.1888841028839,236.590740206869,-540.140945766265,-713.667787235995,-3011.19724274971,-10684.5702905091,-0.00134415497086593,20.0264963738669,11.1755792954002,3.51900257415019,-2684512.90256834,-4281393.66645165,3878486.75192118
Raw,1694113198000,67624000000,,,-1.37814834837619E+018,0,5.44390033395133,63,1,10,28,0,81921,414015916960457,6,25.2863712310791,-612.183767199503,0.983685197469438,25,-40688.9604724663,0.00680422736331821,1176450000,,,,0,,1,,,,,,,,5825501164000,1.37814841600019E+018,24951066.1363475,1.798754748,GPS_L5_Q,1.37814841591696E+018,-6555214.30983403,-22205195.4678945,-13039139.7271484,7.60023168099207,165.379326027783,413.811009066666,-1614.82457414939,2545.95085300309,-2017.40433142873,-0.00142502181438431,20.0264963738669,27.5530538913845,17.9927162883039,-2684512.90256834,-4281393.66645165,3878486.75192118
Raw,1694113198000,67624000000,,,-1.37814834837619E+018,0,5.44390033395133,63,1,10,32,0,81921,414015930510123,6,29.4426574707031,-249.764080364155,0.795621464174167,25,-15792.8126761479,0.00596320163458586,1176450000,,,,0,,1,,,,,,,,5825501164000,1.37814841600019E+018,20888978.4611285,1.798754748,GPS_L5_Q,1.37814841593051E+018,-14858588.2198458,-20090152.111515,9473949.45810812,67.4410194632442,193.947253000572,1066.81579319737,538.195754430387,2848.97648794524,-166130.034112976,-0.00125946762273088,20.0264963738669,8.7962342467405,2.70557360542506,-2684512.90256834,-4281393.66645165,3878486.75192118
Raw,1694113198000,67624000000,,,-1.37814834837619E+018,0,5.44390033395133,63,1,10,2,0,32867,79197928057774,81,29.0390434265137,-506.159686541322,0.820075626729283,17,-34091.202516012,0.0983737061506549,1599750000,,,,0,,3,,,,,,,,5825501164000,1.37814841600019E+018,21624174.1957123,24.283189098,GLO_G1_CA,1.37814841592806E+018,-23877583.2785168,-8494951.87002641,3237825.57131284,31.6458782499769,238.65445515743,367.560826637937,302.907708467585,3540.30475500505,-6730.75838480843,0,13.0332797156967,7.72151124630086,4.75099948383998,-2684512.90256834,-4281393.66645165,3878486.75192118
Raw,1694113198000,67624000000,,,-1.37814834837619E+018,0,5.44390033395133,63,1,10,1,0,32995,79197935660549,55,33.932918548584,98.242357143664,0.601371232481623,17,6527.23360404124,0.0961913213070561,1602562600,,,,0,,3,,,,,,,,5825501164000,1.37814841600019E+018,19344919.5908413,16.48858519,GLO_G1_CA,1.37814841593566E+018,-12301660.1980577,-12275127.9469378,18663289.272602,72.2403011768367,318.660738025446,2457.3967328042,711.953104478155,2088.15351312968,19527.4916594113,0,13.0332797156967,4.47800324400921,2.62382441480764,-2684512.90256834,-4281393.66645165,3878486.75192118
Raw,1694113198000,67624000000,,,-1.37814834837619E+018,0,5.44390033395133,63,1,10,24,0,32995,79197935911564,47,35.6591300964355,-146.446078588973,0.523790541566841,25,-10110.5623345586,0.0021765164565295,1603125000,,,,0,,3,,,,,,,,5825501164000,1.37814841600019E+018,19269667.1869965,14.090245526,GLO_G1_CA,1.37814841593591E+018,-11995638.3674772,-13711065.9921217,17858160.6199264,77.1924556152816,317.599476745727,-692.950400949099,-2345.78773867987,-2270.80521863973,-7035.85904747008,-0.000545319304365009,13.0332797156967,4.41722899397988,2.56273837091809,-2684512.90256834,-4281393.66645165,3878486.75192118
Raw,1694113198000,67624000000,,,-1.37814834837619E+018,0,5.44390033395133,63,1,10,23,0,32867,79197931359051,104,26.035177230835,591.094770071622,0.95575003120544,21,39484.6951367168,0.100058537536513,1603687600,,,,0,,3,,,,,,,,5825501164000,1.37814841600019E+018,20634476.2493434,31.178415632,GLO_G1_CA,1.37814841593136E+018,-6872784.8995553,-24418629.4420992,2632984.85486459,44.7210600536894,150.772465337944,-319.353425129571,-297.842475076119,-3585.91776748329,-28611.9010391407,-0.000272659652182475,13.0332797156967,6.24651284942583,3.5477653309055,-2684512.90256834,-4281393.66645165,3878486.75192118
Raw,1694113198000,67624000000,,,-1.37814834837619E+018,0,5.44390033395133,63,1,10,17,0,32995,79197925255086,37,38.5926055908203,-724.390098728812,0.15,25,-49102.8590509818,0.00164573453366756,1604250000,,,,0,,3,,,,,,,,5825501164000,1.37814841600019E+018,22464398.9202394,11.092320946,GLO_G1_CA,1.37814841592526E+018,-9567768.50761577,5100125.08745845,23099878.1686421,21.8330534311749,328.765374776646,-743.129809757921,-3075.25652897258,366.700864627717,4626.01939715892,0.000817978956547514,13.0332797156967,8.03891251287812,6.68064155415405,-2684512.90256834,-4281393.66645165,3878486.75192118
Raw,1694113198000,67624000000,,,-1.37814834837619E+018,0,5.44390033395133,63,1,10,8,0,32995,79197927312441,60,32.8204383850098,649.96601070769,0.649896529359761,25,44053.0613497311,0.00301361223682761,1605375000,,,,0,,3,,,,,,,,5825501164000,1.37814841600019E+018,21847619.4078108,17.98754748,GLO_G1_CA,1.37814841592731E+018,7078615.60314392,-9153707.36635746,22781192.3618253,29.4165267953134,34.8350184531063,2997.66720843078,813.149017736175,-609.289419228317,-21710.5836995136,0,13.0332797156967,7.22734645920804,5.07273273147051,-2684512.90256834,-4281393.66645165,3878486.75192118
Raw,1694113198000,67624000000,,,-1.37814834837619E+018,0,5.44390033395133,63,1,10,195,0,16384,414015853748075,1000000000,15.4632434844971,40.8433380392484,299792458,16,2609.05996901889,3.40282346638529E+038,1575420000,,,,1,,4,,,,,,,,5825501164000,,,,,,,,,,,,,,,,,,,-2684512.90256834,-4281393.66645165,3878486.75192118
Raw,1694113198000,67624000000,,,-1.37814834837619E+018,0,5.44390033395133,63,1,10,195,0,16384,414015853748032,1000000000,10.7600002288818,40.2952154528345,299792458,16,6498.19945185662,3.40282346638529E+038,1176450000,,,,0,,4,,,,,,,,5825501164000,,,,,,,,,,,,,,,,,,,-2684512.90256834,-4281393.66645165,3878486.75192118
Raw,1694113198000,67624000000,,,-1.37814834837619E+018,0,5.44390033395133,63,1,10,7,0,85026,414015922352852,25,35.0167465209961,27.9623187985406,0.550958486438938,25,1814.32537099378,0.0023848011624068,1575420000,,,,0,,6,,,,,,,,5825501164000,1.37814841600019E+018,23334466.7847906,7.49481145,GAL_E1_C_P,1.37814841592235E+018,-8895496.66739283,-22233633.449718,17391975.4415506,79.3212842936584,98.2990595837733,1360.05529715052,1092.99901044323,2093.74894612948,-21926.4746395689,-0.000842453275254229,-0.691991456917218,4.60990073056848,2.54308961898803,-2684512.90256834,-4281393.66645165,3878486.75192118
Raw,1694113198000,67624000000,,,-1.37814834837619E+018,0,5.44390033395133,63,1,10,8,0,85026,414015913348006,27,33.957950592041,475.123928971999,0.598390548583728,25,31397.6089856918,0.00269396463409066,1575420000,,,,0,,6,,,,,,,,5825501164000,1.37814841600019E+018,26034051.701042,8.094396366,GAL_E1_C_P,1.37814841591335E+018,10842529.3871023,-12902788.7960049,24329339.0518821,28.9921520783942,44.8750767132373,1937.24181537787,1485.2123557105,-74.6410341339897,-42760.7657802835,-0.0017788224213291,-0.691991456917218,7.67148510071531,5.13986293260832,-2684512.90256834,-4281393.66645165,3878486.75192118
Raw,1694113198000,67624000000,,,-1.37814834837619E+018,0,5.44390033395133,63,1,10,13,0,85026,414015916859176,36,30.2872295379639,372.305678256811,0.763370739987564,25,24504.4054487561,0.00411081500351429,1575420000,,,,0,,6,,,,,,,,5825501164000,1.37814841600019E+018,24981429.4162862,10.792528488,GAL_E1_C_P,1.37814841591686E+018,88411.890959729,-29030338.5892044,5770114.06357178,41.6035287214527,123.924050500451,-93.5756075548299,-597.338525051958,-3004.1975128812,-5871.2826674531,-4.46451231255196E-05,-0.691991456917218,6.75639537230431,3.75891267951668,-2684512.90256834,-4281393.66645165,3878486.75192118
Raw,1694113198000,67624000000,,,-1.37814834837619E+018,0,5.44390033395133,63,1,10,26,0,85026,414015922575458,27,34.0587501525879,-94.9485433391583,0.59407858529521,25,-6529.20068991665,0.00266288220882416,1575420000,,,,0,,6,,,,,,,,5825501164000,1.37814841600019E+018,23267731.184885,8.094396366,GAL_E1_C_P,1.37814841592258E+018,-11876651.872096,-16606908.0098996,21428031.6118296,78.4195547266929,344.646098998858,206.780411767426,-2144.17728534795,-1548.10223979431,64682.2622979839,0.00331506248039659,-0.691991456917218,4.55688774530426,2.55094775460811,-2684512.90256834,-4281393.66645165,3878486.75192118
Raw,1694113198000,67624000000,,,-1.37814834837619E+018,0,5.44390033395133,63,1,10,33,0,85026,414015913622906,22,36.4635047912598,-439.820093537237,0.15,25,-29213.9191760957,0.00214136368595064,1575420000,,,,0,,6,,,,,,,,5825501164000,1.37814841600019E+018,25951638.7543378,6.595434076,GAL_E1_C_P,1.37814841591362E+018,-16310536.8349204,3906511.0661096,24390990.4063637,29.5032207288412,315.275031100289,356.148932372689,-2425.67570177575,625.324755140655,-224.317174247467,0.000122359547788165,-0.691991456917218,7.46465610446786,5.05932409243835,-2684512.90256834,-4281393.66645165,3878486.75192118
Raw,1694113198000,67624000000,,,-1.37814834837619E+018,0,5.44390033395133,63,1,10,7,0,84003,414015922352775,6,26.882116317749,27.7824571548556,0.91289626810805,25,1725.55022219423,0.00800767634063959,1176450000,,,,0,,6,,,,,,,,5825501164000,1.37814841600019E+018,23334489.8688098,1.798754748,GAL_E5A_Q,1.37814841592235E+018,-8895496.66748385,-22233633.4497912,17391975.4414104,79.3212842936884,98.2990595861872,1360.05529713386,1092.99901044154,2093.74894614738,-21929.4931934053,-0.000842453275254229,14.2470823115134,8.26679782578552,2.54308961898778,-2684512.90256834,-4281393.66645165,3878486.75192118
Raw,1694113198000,67624000000,,,-1.37814834837619E+018,0,5.44390033395133,63,1,10,8,0,84003,414015913347930,6,26.2551937103271,475.056616120367,0.939468535514923,25,31880.6795618215,0.00860701687633991,1176450000,,,,0,,6,,,,,,,,5825501164000,1.37814841600019E+018,26034074.4852689,1.798754748,GAL_E5A_Q,1.37814841591335E+018,10842529.3869408,-12902788.7961287,24329339.0518884,28.9921520788306,44.8750767133089,1937.2418153689,1485.21235572324,-74.6410341028007,-42758.5536961908,-0.0017830827346188,14.2470823115134,13.757045988026,5.13986293253821,-2684512.90256834,-4281393.66645165,3878486.75192118
Raw,1694113198000,67624000000,,,-1.37814834837619E+018,0,5.44390033395133,63,1,10,13,0,84003,414015916859120,6,24.0261154174805,372.385363040161,1.04033922679556,25,25235.9191870056,0.00786668062210083,1176450000,,,,0,,6,,,,,,,,5825501164000,1.37814841600019E+018,24981446.2046638,1.798754748,GAL_E5A_Q,1.37814841591686E+018,88411.8909639674,-29030338.5891769,5770114.06370973,41.6035287216827,123.924050500152,-93.5756075507902,-597.338525065989,-3004.19751287713,-5874.30424160964,-4.46451231255196E-05,14.2470823115134,12.1160428039835,3.75891267949976,-2684512.90256834,-4281393.66645165,3878486.75192118
Raw,1694113198000,67624000000,,,-1.37814834837619E+018,0,5.44390033395133,63,1,10,26,0,84003,414015922575400,6,28.8005294799805,-94.8857038099444,0.826667453403446,25,-5894.27689053096,0.00642075156792998,1176450000,,,,0,,6,,,,,,,,5825501164000,1.37814841600019E+018,23267748.5728476,1.798754748,GAL_E5A_Q,1.37814841592258E+018,-11876651.8721095,-16606908.0097595,21428031.6119307,78.4195547262815,344.646098998325,206.780411780053,-2144.17728535688,-1548.1022397728,64684.4569318075,0.00331080217438284,14.2470823115134,8.17173121656605,2.55094775461185,-2684512.90256834,-4281393.66645165,3878486.75192118
Raw,1694113198000,67624000000,,,-1.37814834837619E+018,0,5.44390033395133,63,1,10,33,0,84003,414015913622819,33,19.5806121826172,-439.696851374451,299.794911179966,16,-27496.4192107654,3.40282346638529E+038,1176450000,,,,0,,6,,,,,,,,5825501164000,,,,,,,,,,,,,,,,,,,-2684512.90256834,-4281393.66645165,3878486.75192118
Raw,1694113199000,68624000000,,,-1.37814834837619E+018,0,5.46576175222931,61,1,10,2,0,16431,414016918241959,16,40.1430625915527,-557.814341915707,0.15,25,-37934.7694906939,0.00140188541263342,1575420000,,,,0,,1,,,,,,,,5826501170000,1.37814841700019E+018,24566881.5018356,4.796679328,GPS_L1_CA,1.37814841691824E+018,-14916559.420517,8379268.10321727,20773495.8956317,16.6322046615958,313.033541590491,84.5956061823596,-2527.8098814696,1124.45931305453,-166876.025200841,0.00260939021245576,0,9.27674813822151,8.64165142117325,-2684513.95572915,-4281398.32255698,3878489.15059473
Raw,1694113199000,68624000000,,,-1.37814834837619E+018,0,5.46576175222931,61,1,10,8,0,16431,414016925479849,12,43.8578262329102,-41.2259988198583,0.15,25,-2984.57187694523,0.000914059288334101,1575420000,,,,0,,1,,,,,,,,5826501170000,1.37814841700019E+018,22397016.6680019,3.597509496,GPS_L1_CA,1.37814841692548E+018,-20989295.6784094,-1378181.57677218,16377934.9192302,36.7992203767596,287.723776797214,-1557.32259952656,-1387.64812682906,-2063.65241666823,-42304.1281992773,-0.000212610553717241,0,6.80553201793885,4.16458227011264,-2684513.95572915,-4281398.32255698,3878489.15059473
Raw,1694113199000,68624000000,,,-1.37814834837619E+018,0,5.46576175222931,61,1,10,10,0,16431,414016930591700,13,42.7271385192871,124.090083181085,0.15,25,8483.82821071565,0.0010411391267553,1575420000,,,,0,,1,,,,,,,,5826501170000,1.37814841700019E+018,20864522.2917822,3.897301954,GPS_L1_CA,1.37814841693059E+018,-5109157.64410943,-13975788.533712,22176318.9170638,63.7966259034711,19.6498963969363,2582.18112593876,-994.593394162503,-63.5227832452718,-15721.262186545,0.000103637998108752,0,4.8271450413509,2.78450762944485,-2684513.95572915,-4281398.32255698,3878489.15059473
Raw,1694113199000,68624000000,,,-1.37814834837619E+018,0,5.46576175222931,61,1,10,18,0,16431,414016921890670,22,36.4344635009766,594.778129312956,0.15,25,40610.7934391038,0.00214853533543646,1575420000,,,,0,,1,,,,,,,,5826501170000,1.37814841700019E+018,23473025.4626139,6.595434076,GPS_L1_CA,1.37814841692189E+018,4662790.99166264,-26046690.84719,-307372.158665422,22.5218818686553,124.446970489613,243.933587945663,81.8533169479129,-3216.74042596399,-122784.863043798,-0.00418798367900308,0,10.1471877452658,6.48879890240085,-2684513.95572915,-4281398.32255698,3878489.15059473
Raw,1694113199000,68624000000,,,-1.37814834837619E+018,0,5.46576175222931,61,1,10,21,0,16431,414016921793869,28,33.6195220947266,-479.333487259588,0.61296998503434,25,-30421.5094205469,0.00280100153759122,1575420000,,,,0,,1,,,,,,,,5826501170000,1.37814841700019E+018,23502045.6723408,8.394188824,GPS_L1_CA,1.37814841692179E+018,-15329927.9654932,4870695.96414954,21507483.1493195,25.0198334975041,313.116380372143,68.942541473912,-2627.81188586258,749.834217560901,44763.8123088938,0.000906279834453017,0,8.07526717879567,5.88333830926689,-2684513.95572915,-4281398.32255698,3878489.15059473
Raw,1694113199000,68624000000,,,-1.37814834837619E+018,0,5.46576175222931,61,1,10,23,0,16431,414016925513847,17,39.888557434082,428.362423715681,0.15,25,29244.1776063839,0.00144356989767402,1575420000,,,,0,,1,,,,,,,,5826501170000,1.37814841700019E+018,22386824.3240149,5.096471786,GPS_L1_CA,1.37814841692551E+018,8737921.02723249,-17142315.075088,18237110.6165124,34.2170256841374,63.0055442736086,2188.39630593809,-775.694702437155,-1794.82964258924,19570.307796741,0.00134510788120679,0,7.19940266839156,4.43466419639411,-2684513.95572915,-4281398.32255698,3878489.15059473
Raw,1694113199000,68624000000,,,-1.37814834837619E+018,0,5.46576175222931,61,1,10,24,0,16431,414016920724357,33,31.3524379730225,242.799994981621,0.718323384722603,25,16397.1060416596,0.00363636575639248,1575420000,,,,0,,1,,,,,,,,5826501170000,1.37814841700019E+018,23822677.3036813,9.893151114,GPS_L1_CA,1.37814841692072E+018,14512088.6625887,-11222886.7300584,18682186.1997175,15.8382707353286,53.1074839976378,52.2444311850679,2482.48021581934,1464.2086156454,-93804.4334492274,-0.00471070266212337,0,9.80293126911469,9.05280319592758,-2684513.95572915,-4281398.32255698,3878489.15059473
Raw,1694113199000,68624000000,,,-1.37814834837619E+018,0,5.46576175222931,61,1,10,27,0,16431,414016927416629,13,42.815486907959,394.47924731616,0.15,25,26812.5742900577,0.00103060284163803,1575420000,,,,0,,1,,,,,,,,5826501170000,1.37814841700019E+018,21816384.6311967,3.897301954,GPS_L1_CA,1.37814841692742E+018,-22804773.6888536,-12221551.9068326,6637962.40643856,45.1836347560953,236.581821294799,-539.889286846295,-713.398392736296,-3011.33614006823,-10684.2394088338,-0.00134400984461536,0,6.23268202501787,3.5193216957412,-2684513.95572915,-4281398.32255698,3878489.15059473
Raw,1694113199000,68624000000,,,-1.37814834837619E+018,0,5.46576175222931,61,1,10,28,0,16431,414016916962647,21,37.0445213317871,-612.789344287,0.15,25,-40075.5972788508,0.00200280919671059,1575420000,,,,0,,1,,,,,,,,5826501170000,1.37814841700019E+018,24950409.5908645,6.295641618,GPS_L1_CA,1.37814841691696E+018,-6554800.56345799,-22206810.1493431,-13036593.6321706,7.60613686390415,165.375864944671,413.67993007951,-1614.53121797918,2546.22790222761,-2019.73133674962,-0.00142502945368506,0,15.3625373816275,17.9801384632315,-2684513.95572915,-4281398.32255698,3878489.15059473
Raw,1694113199000,68624000000,,,-1.37814834837619E+018,0,5.46576175222931,61,1,10,32,0,16431,414016930511043,13,42.5587692260742,-250.256844520562,0.15,25,-17222.2633092922,0.00106151774525642,1575420000,,,,0,,1,,,,,,,,5826501170000,1.37814841700019E+018,20888702.6520671,3.897301954,GPS_L1_CA,1.37814841693051E+018,-14857521.2481567,-20089613.8366732,9476798.33824797,67.4495249390287,193.947993979301,1067.1256234148,538.352930049083,2848.77854203522,-166129.924630503,-0.00125942181330174,0,4.90496249585957,2.70540727153343,-2684513.95572915,-4281398.32255698,3878489.15059473
Raw,1694113199000,68624000000,,,-1.37814834837619E+018,0,5.46576175222931,61,1,10,8,0,81921,414016925479771,6,34.3089904785156,-41.3230997384918,0.57588294695369,25,-1967.81814944241,0.00340535771101713,1176450000,,,,0,,1,,,,,,,,5826501170000,1.37814841700019E+018,22397040.0518137,1.798754748,GPS_L5_Q,1.37814841692548E+018,-20989295.6782943,-1378181.57666968,16377934.9193827,36.799220376675,287.7237767979,-1557.32259953599,-1387.64812684746,-2063.65241664275,-42305.3463603826,-0.000212610560993198,21.5680194984619,12.2041580887313,4.16458227012082,-2684513.95572915,-4281398.32255698,3878489.15059473
Raw,1694113199000,68624000000,,,-1.37814834837619E+018,0,5.46576175222931,61,1,10,10,0,81921,414016930591619,6,37.3880996704102,124.055498008329,0.15,25,9372.5256779484,0.0025338651612401,1176450000,,,,0,,1,,,,,,,,5826501170000,1.37814841700019E+018,20864546.5749713,1.798754748,GPS_L5_Q,1.37814841693059E+018,-5109157.6443138,-13975788.5336333,22176318.9170688,63.7966259037435,19.6498963957216,2582.18112594393,-994.593394149955,-63.5227832085403,-15721.8158961383,0.000103637999927741,21.5680194984619,8.6563755848108,2.78450762943835,-2684513.95572915,-4281398.32255698,3878489.15059473
Raw,1694113199000,68624000000,,,-1.37814834837619E+018,0,5.46576175222931,61,1,10,18,0,81921,414016921890564,6,30.4691562652588,594.811461955435,0.747910551618489,25,41125.5080528246,0.00529851904138923,1176450000,,,,0,,1,,,,,,,,5826501170000,1.37814841700019E+018,23473057.2406145,1.798754748,GPS_L5_Q,1.37814841692189E+018,4662790.99163512,-26046690.8471992,-307372.158303056,22.5218818693572,124.446970489042,243.933587952825,81.8533169044024,-3216.74042596474,-122782.869689261,-0.00418798367900308,21.5680194984619,18.1966498828548,6.48879890221152,-2684513.95572915,-4281398.32255698,3878489.15059473
Raw,1694113199000,68624000000,,,-1.37814834837619E+018,0,5.46576175222931,61,1,10,23,0,81921,414016925513744,6,29.3360004425049,428.302506757114,0.799518979465984,25,29953.2905783179,0.00603687670081854,1176450000,,,,0,,1,,,,,,,,5826501170000,1.37814841700019E+018,22386855.202638,1.798754748,GPS_L5_Q,1.37814841692551E+018,8737921.02699261,-17142315.0750029,18237110.6167092,34.2170256847232,63.005544272924,2188.3963059659,-775.694702432363,-1794.82964254646,19572.3011512769,0.00134510788120679,21.5680194984619,12.9104746075428,4.43466419632783,-2684513.95572915,-4281398.32255698,3878489.15059473
Raw,1694113199000,68624000000,,,-1.37814834837619E+018,0,5.46576175222931,61,1,10,24,0,81921,414016920724320,6,22.8432788848877,243.510239293099,1.09422525474058,16,17201.5456159307,3.40282346638529E+038,1176450000,,,,0,,1,,,,,,,,5826501170000,1.37814841700019E+018,23822688.3960022,1.798754748,GPS_L5_Q,1.37814841692072E+018,14512088.6625869,-11222886.7301457,18682186.199666,15.8382707354038,53.107483997879,52.2444311809508,2482.48021581295,1464.20861565999,-93804.9871588206,-0.00471070266212337,21.5680194984619,17.5793049868732,9.05280319588672,-2684513.95572915,-4281398.32255698,3878489.15059473
Raw,1694113199000,68624000000,,,-1.37814834837619E+018,0,5.46576175222931,61,1,10,27,0,81921,414016927416551,6,32.2468376159668,394.582585324337,0.668964132736422,25,27498.3595366555,0.00431787827983499,1176450000,,,,0,,1,,,,,,,,5826501170000,1.37814841700019E+018,21816408.0150084,1.798754748,GPS_L5_Q,1.37814841692742E+018,-22804773.6888122,-12221551.9067777,6637962.40667011,45.1836347564974,236.581821295487,-539.889286865649,-713.398392757008,-3011.33614005755,-10684.5716345897,-0.00134400984279637,21.5680194984619,11.1768832398459,3.51932169571675,-2684513.95572915,-4281398.32255698,3878489.15059473
Raw,1694113199000,68624000000,,,-1.37814834837619E+018,0,5.46576175222931,61,1,10,28,0,81921,414016916962497,6,25.8094921112061,-612.956961808179,0.960161379469717,25,-41301.6142837358,0.00640652794390917,1176450000,,,,0,,1,,,,,,,,5826501170000,1.37814841700019E+018,24950454.5597332,1.798754748,GPS_L5_Q,1.37814841691696E+018,-6554800.56352329,-22206810.1490883,-13036593.6325723,7.60613686297254,165.37586494522,413.679930100183,-1614.53121802547,2546.22790218391,-2017.40575645727,-0.00142502945368506,21.5680194984619,27.5491812189967,17.9801384652145,-2684513.95572915,-4281398.32255698,3878489.15059473
Raw,1694113199000,68624000000,,,-1.37814834837619E+018,0,5.46576175222931,61,1,10,32,0,81921,414016930510960,6,29.690336227417,-250.301492538606,0.784483756726679,25,-16042.9516163046,0.00579556170850992,1176450000,,,,0,,1,,,,,,,,5826501170000,1.37814841700019E+018,20888727.5348411,1.798754748,GPS_L5_Q,1.37814841693051E+018,-14857521.2482449,-20089613.8367177,9476798.33801258,67.4495249383258,193.947993979245,1067.1256233892,538.352930036097,2848.77854205158,-166130.035372422,-0.00125942181330174,21.5680194984619,8.79592331080623,2.70540727154717,-2684513.95572915,-4281398.32255698,3878489.15059473
Raw,1694113199000,68624000000,,,-1.37814834837619E+018,0,5.46576175222931,61,1,10,2,0,32867,79198928059457,91,27.6459865570068,-506.523039610312,0.882720180327677,21,-34597.6159352998,0.0991867768353263,1599750000,,,,0,,3,,,,,,,,5826501170000,1.37814841700019E+018,21623669.6450055,27.281113678,GLO_G1_CA,1.37814841692806E+018,-23877215.4731151,-8494648.90968338,3241365.84329747,31.6523398023356,238.662420189911,368.048744273492,303.01193276453,3540.22731058932,-6730.75838480843,0,16.723343218206,7.7206362893098,4.75013609410864,-2684513.95572915,-4281398.32255698,3878489.15059473
Raw,1694113199000,68624000000,,,-1.37814834837619E+018,0,5.46576175222931,61,1,10,1,0,32995,79198935660246,56,33.7273406982422,97.740910481458,0.610615832544243,17,6625.09369976864,0.0962549325015474,1602562600,,,,0,,3,,,,,,,,5826501170000,1.37814841700019E+018,19345010.4279561,16.788377648,GLO_G1_CA,1.37814841693566E+018,-12299202.6350745,-12274416.0584009,18665377.2011741,72.237270435631,318.69119335072,2457.73073578741,711.824387303129,2087.7049065192,19527.4916594113,0,16.723343218206,4.47813742463244,2.62386873490176,-2684513.95572915,-4281398.32255698,3878489.15059473
Raw,1694113199000,68624000000,,,-1.37814834837619E+018,0,5.46576175222931,61,1,10,24,0,32995,79198935912015,48,35.5289726257324,-146.936542179564,0.5296437042199,25,-10257.3610559701,0.00220937677659094,1603125000,,,,0,,3,,,,,,,,5826501170000,1.37814841700019E+018,19269531.9805979,14.390037984,GLO_G1_CA,1.37814841693591E+018,-11996331.377154,-13713411.6022519,17855889.5993146,77.2009669263145,317.576680373288,-693.068316088667,-2345.43042204302,-2271.23396212246,-7035.85959278963,-0.000545319304365009,16.723343218206,4.41727354376145,2.56265217191636,-2684513.95572915,-4281398.32255698,3878489.15059473
Raw,1694113199000,68624000000,,,-1.37814834837619E+018,0,5.46576175222931,61,1,10,23,0,32867,79198931357072,95,27.1665897369385,590.519049216039,0.904871247510184,17,40075.3310517223,0.0992538347851745,1603687600,,,,0,,3,,,,,,,,5826501170000,1.37814841700019E+018,20635069.5386178,28.48028351,GLO_G1_CA,1.37814841693136E+018,-6873104.20975256,-24418927.0322157,2629398.91257853,44.7122164790834,150.77878617411,-319.268209893304,-297.338946644469,-3585.98101030619,-28611.9013117998,-0.000272659652182475,16.723343218206,6.24761911840189,3.5483162924006,-2684513.95572915,-4281398.32255698,3878489.15059473
Raw,1694113199000,68624000000,,,-1.37814834837619E+018,0,5.46576175222931,61,1,10,17,0,32995,79198925257497,38,38.3353233337402,-724.931532633133,0.15,25,-49827.6594942938,0.0016952115111053,1604250000,,,,0,,3,,,,,,,,5826501170000,1.37814841700019E+018,22463676.1206232,11.392113404,GLO_G1_CA,1.37814841692526E+018,-9568511.7741763,5097049.83014123,23100244.5933467,21.8409226161036,328.765538070725,-743.399734410825,-3075.24328822999,366.146782289825,4626.02021513985,0.000817978956547514,16.723343218206,8.03812663227808,6.67838212435035,-2684513.95572915,-4281398.32255698,3878489.15059473
Raw,1694113199000,68624000000,,,-1.37814834837619E+018,0,5.46576175222931,61,1,10,8,0,32995,79198927310263,63,32.1544799804687,649.329895739148,0.679843559068074,25,44702.6048743184,0.0032537579536438,1605375000,,,,0,,3,,,,,,,,5826501170000,1.37814841700019E+018,21848272.3557843,18.886924854,GLO_G1_CA,1.37814841692731E+018,7081613.25736691,-9152894.35272121,22780582.8015969,29.409019405365,34.8386577772132,2997.65430797407,812.881802714414,-609.83369162186,-21710.5836995136,0,16.723343218206,7.22843363675525,5.07390291249504,-2684513.95572915,-4281398.32255698,3878489.15059473
Raw,1694113199000,68624000000,,,-1.37814834837619E+018,0,5.46576175222931,61,1,10,195,0,16384,414016853747886,1000000000,15.5187549591064,41.2146451015291,299792458,16,2650.2066646673,3.40282346638529E+038,1575420000,,,,1,,4,,,,,,,,5826501170000,,,,,,,,,,,,,,,,,,,-2684513.95572915,-4281398.32255698,3878489.15059473
Raw,1694113199000,68624000000,,,-1.37814834837619E+018,0,5.46576175222931,61,1,10,195,0,16384,414016853747932,1000000000,10.7600002288818,40.120406533329,299792458,16,6536.57265658032,3.40282346638529E+038,1176450000,,,,0,,4,,,,,,,,5826501170000,,,,,,,,,,,,,,,,,,,-2684513.95572915,-4281398.32255698,3878489.15059473
Raw,1694113199000,68624000000,,,-1.37814834837619E+018,0,5.46576175222931,61,1,10,7,0,85026,414016922352757,25,34.6526985168457,27.3288707822218,0.567329315443231,25,1841.84149814364,0.00248687830753624,1575420000,,,,0,,6,,,,,,,,5826501170000,1.37814841700019E+018,23334495.2650741,7.49481145,GAL_E1_C_P,1.37814841692235E+018,-8894136.48779421,-22232540.4381947,17394069.0565761,79.3208505374288,98.2629671082866,1360.30415681992,1093.02423594228,2093.48149732042,-21926.4754820212,-0.000842451641801745,-0.636348174825816,4.60998694148144,2.54309323419119,-2684513.95572915,-4281398.32255698,3878489.15059473
Raw,1694113199000,68624000000,,,-1.37814834837619E+018,0,5.46576175222931,61,1,10,8,0,85026,414016913346429,25,34.8740844726562,474.561057202525,0.557192846723398,25,31872.3205669844,0.00242429389618337,1575420000,,,,0,,6,,,,,,,,5826501170000,1.37814841700019E+018,26034524.4737483,7.49481145,GAL_E1_C_P,1.37814841691335E+018,10844466.6796493,-12901303.6623955,24329264.2239395,28.986912595434,44.8742155188465,1937.34938179263,1485.05954222268,-75.0150870369365,-42760.7675591018,-0.00177881988201989,-0.636348174825816,7.6723244868485,5.14070470316156,-2684513.95572915,-4281398.32255698,3878489.15059473
Raw,1694113199000,68624000000,,,-1.37814834837619E+018,0,5.46576175222931,61,1,10,13,0,85026,414016916857939,34,31.0711994171143,371.635003677355,0.728116299617994,25,24876.2532046618,0.00375603325664997,1575420000,,,,0,,6,,,,,,,,5826501170000,1.37814841700019E+018,24981800.2595567,10.192943572,GAL_E1_C_P,1.37814841691686E+018,88318.2714717938,-29030935.7742055,5767109.82542359,41.5985316843142,123.930572142094,-93.6635922162756,-597.032951563034,-3004.28620826486,-5871.28271209831,-4.46454023403931E-05,-0.636348174825816,6.7571865565229,3.75928035771468,-2684513.95572915,-4281398.32255698,3878489.15059473
Raw,1694113199000,68624000000,,,-1.37814834837619E+018,0,5.46576175222931,61,1,10,26,0,85026,414016922575784,25,35.0805358886719,-95.4742481897944,0.548130041951332,25,-6624.51546461778,0.00236735120415688,1575420000,,,,0,,6,,,,,,,,5826501170000,1.37814841700019E+018,23267633.4525437,7.49481145,GAL_E1_C_P,1.37814841692258E+018,-11876445.1882659,-16609052.1194686,21426483.3443703,78.4258370409003,344.654194866692,206.58711671548,-2144.04044657443,-1548.43166529432,64682.2656130463,0.00331506015936611,-0.636348174825816,4.55695359299002,2.55089067734325,-2684513.95572915,-4281398.32255698,3878489.15059473
Raw,1694113199000,68624000000,,,-1.37814834837619E+018,0,5.46576175222931,61,1,10,33,0,85026,414016913624384,21,36.8265953063965,-440.36445853282,0.15,25,-29654.1277975021,0.00205369479954243,1575420000,,,,1,,6,,,,,,,,5826501170000,1.37814841700019E+018,25951195.6610849,6.295641618,GAL_E1_C_P,1.37814841691362E+018,-16310180.7804067,3904085.34123448,24391615.5446244,29.5084815187297,315.276750846045,355.959039857381,-2425.76686928907,624.949916824636,-224.317051889374,0.000122356276165192,-0.636348174825816,7.46417627511014,5.0585094640627,-2684513.95572915,-4281398.32255698,3878489.15059473
Raw,1694113199000,68624000000,,,-1.37814834837619E+018,0,5.46576175222931,61,1,10,7,0,84003,414016922352690,6,26.2475566864014,27.4113631079282,0.941431671697177,25,1753.08169845256,0.00861458666622639,1176450000,,,,0,,6,,,,,,,,5826501170000,1.37814841700019E+018,23334515.3511688,1.798754748,GAL_E5A_Q,1.37814841692235E+018,-8894136.48787163,-22232540.4382569,17394069.0564569,79.3208505374545,98.2629671103397,1360.30415680575,1093.02423594084,2093.48149733564,-21929.4940358577,-0.000842451649077702,17.4316208548681,8.26695242525231,2.54309323419097,-2684513.95572915,-4281398.32255698,3878489.15059473
Raw,1694113199000,68624000000,,,-1.37814834837619E+018,0,5.46576175222931,61,1,10,8,0,84003,414016913346347,6,25.8707103729248,474.577212286917,0.956758059797481,25,32355.3780946723,0.00899656675755978,1176450000,,,,0,,6,,,,,,,,5826501170000,1.37814841700019E+018,26034549.0567299,1.798754748,GAL_E5A_Q,1.37814841691335E+018,10844466.6794761,-12901303.6625282,24329264.2239462,28.9869125959019,44.8742155189233,1937.34938178302,1485.05954223634,-75.0150870035038,-42758.5554792694,-0.00178308018803364,17.4316208548681,13.7585512341962,5.14070470308638,-2684513.95572915,-4281398.32255698,3878489.15059473
Raw,1694113199000,68624000000,,,-1.37814834837619E+018,0,5.46576175222931,61,1,10,13,0,84003,414016916857877,6,24.1396236419678,371.410468453783,1.035234646691,25,25607.6630622728,0.00776454620063305,1176450000,,,,0,,6,,,,,,,,5826501170000,1.37814841700019E+018,24981818.8466891,1.798754748,GAL_E5A_Q,1.37814841691686E+018,88318.2714766776,-29030935.7741745,5767109.82557958,41.5985316845742,123.930572141756,-93.6635922117077,-597.0329515789,-3004.28620826026,-5874.30428625485,-4.46454032498878E-05,17.4316208548681,12.1174616110948,3.75928035769555,-2684513.95572915,-4281398.32255698,3878489.15059473
Raw,1694113199000,68624000000,,,-1.37814834837619E+018,0,5.46576175222931,61,1,10,26,0,84003,414016922575717,6,29.6337795257568,-95.456951343109,0.789197187388809,25,-5989.60091236757,0.00583342090249062,1176450000,,,,0,,6,,,,,,,,5826501170000,1.37814841700019E+018,23267653.5386384,1.798754748,GAL_E5A_Q,1.37814841692258E+018,-11876445.1882813,-16609052.1193093,21426483.3444854,78.4258370404321,344.654194866086,206.587116729849,-2144.04044658461,-1548.43166526984,64684.4602426095,0.00331079985335236,17.4316208548681,8.17184929926077,2.5508906773475,-2684513.95572915,-4281398.32255698,3878489.15059473
Raw,1694113199000,68624000000,,,-1.37814834837619E+018,0,5.46576175222931,61,1,10,33,0,84003,414016913624294,6,22.3866500854492,-440.1535222094,1.11348224207975,16,-27935.7723750784,3.40282346638529E+038,1176450000,,,,0,,6,,,,,,,,5826501170000,1.37814841700019E+018,25951222.6424061,1.798754748,GAL_E5A_Q,1.37814841691362E+018,-16310180.780441,3904085.34146851,24391615.5445641,29.5084815182196,315.27675084588,355.959039875708,-2425.76686928027,624.949916860803,-222.372693870098,0.000122356276193614,17.4316208548681,13.3852852391551,5.05850946414169,-2684513.95572915,-4281398.32255698,3878489.15059473
Raw,1694113200000,69624000000,,,-1.37814834837619E+018,0,5.44780753857863,59,1,10,2,0,16431,414017918243811,16,39.9741363525391,-557.771841092423,0.15,25,-38492.5111564445,0.00142941682133824,1575420000,,,,0,,1,,,,,,,,5827501088000,1.37814841800019E+018,24566326.2862034,4.796679328,GPS_L1_CA,1.37814841791824E+018,-14916474.896253,8376740.21910958,20774620.1446099,16.6383580168906,313.035204574051,84.4526050416454,-2527.94896080405,1124.03447547502,-166876.022591383,0.00260951535892673,0,9.27607650819992,8.63861353986104,-2684513.2710826,-4281398.51300618,3878489.72576337
Raw,1694113200000,69624000000,,,-1.37814834837619E+018,0,5.44780753857863,59,1,10,8,0,16431,414017925479991,12,44.0838737487793,-41.0592674425487,0.15,25,-3025.69278799829,0.000890578143298626,1575420000,,,,0,,1,,,,,,,,5827501088000,1.37814841800019E+018,22396974.0974729,3.597509496,GPS_L1_CA,1.37814841792548E+018,-20990852.9374401,-1379569.1007015,16375871.0942251,36.8003616353102,287.714493648151,-1557.19500974633,-1387.39933719417,-2063.99699995721,-42304.1284118318,-0.000212498380278703,0,6.80565006329624,4.16447195755176,-2684513.2710826,-4281398.51300618,3878489.72576337
Raw,1694113200000,69624000000,,,-1.37814834837619E+018,0,5.44780753857863,59,1,10,10,0,16431,414017930591277,13,42.5949058532715,124.224657760665,0.15,25,8607.98763844664,0.00105711037758738,1575420000,,,,0,,1,,,,,,,,5827501088000,1.37814841800019E+018,20864649.1039919,3.897301954,GPS_L1_CA,1.37814841793059E+018,-5106575.49675088,-13976783.2059321,22176255.1622747,63.7931925234154,19.665236713605,2582.11576512447,-994.75188315224,-63.9868488728468,-15721.262082956,0.000103540000054636,0,4.8273794561425,2.78458952093961,-2684513.2710826,-4281398.51300618,3878489.72576337
Raw,1694113200000,69624000000,,,-1.37814834837619E+018,0,5.44780753857863,59,1,10,18,0,16431,414017921888685,21,36.7764282226562,594.865721226219,0.15,25,41205.6372783455,0.00206559081561863,1575420000,,,,0,,1,,,,,,,,5827501088000,1.37814841800019E+018,23473620.5506431,6.295641618,GPS_L1_CA,1.37814841792189E+018,4663034.89298772,-26046608.8009146,-310588.889388392,22.5156539238058,124.45204462309,243.87003924616,82.2395609264295,-3216.73377881447,-122784.867231773,-0.00418798447935842,0,10.148974796184,6.49047932399155,-2684513.2710826,-4281398.51300618,3878489.72576337
Raw,1694113200000,69624000000,,,-1.37814834837619E+018,0,5.44780753857863,59,1,10,21,0,16431,414017921795454,26,34.31591796875,-479.279841473021,0.581654265113985,25,-30900.7941235144,0.00258519663475454,1575420000,,,,0,,1,,,,,,,,5827501088000,1.37814841800019E+018,23501570.5012949,7.794603908,GPS_L1_CA,1.3781484179218E+018,-15329859.0975459,4868068.105932,21508232.763458,25.0262805989436,313.117586533997,68.7931319554617,-2627.89620844392,749.391681308801,44763.813215331,0.000906591689272318,0,8.07458158764319,5.88193466607785,-2684513.2710826,-4281398.51300618,3878489.72576337
Raw,1694113200000,69624000000,,,-1.37814834837619E+018,0,5.44780753857863,59,1,10,23,0,16431,414017925512417,16,40.112434387207,428.388496794921,0.15,25,29672.5584572511,0.00140683748759329,1575420000,,,,0,,1,,,,,,,,5827501088000,1.37814841800019E+018,22387253.0272298,4.796679328,GPS_L1_CA,1.37814841792551E+018,8740109.29361244,-17143090.7904841,18235315.5943498,34.2116901748631,63.0117937594485,2188.14270537178,-775.738300008386,-1795.21981009974,19570.3091418244,0.00134506287940894,0,7.20029784709576,4.43526802498559,-2684513.2710826,-4281398.51300618,3878489.72576337
Raw,1694113200000,69624000000,,,-1.37814834837619E+018,0,5.44780753857863,59,1,10,24,0,16431,414017920723557,35,30.7594413757324,242.908854347755,0.744989578586808,25,16640.0043118619,0.00389329553581774,1575420000,,,,0,,1,,,,,,,,5827501088000,1.37814841800019E+018,23822917.1376477,10.49273603,GPS_L1_CA,1.37814841792072E+018,14512140.9654944,-11220404.1609027,18683650.1997261,15.8361387807919,53.1006278707373,52.3614681685743,2482.66205788891,1463.79373861529,-93804.4381599075,-0.00471066507452633,0,9.80322711314892,9.05396226404657,-2684513.2710826,-4281398.51300618,3878489.72576337
Raw,1694113200000,69624000000,,,-1.37814834837619E+018,0,5.44780753857863,59,1,10,27,0,16431,414017927415311,13,42.4302787780762,394.644683560122,0.15,25,27207.1823801365,0.00107733753975481,1575420000,,,,0,,1,,,,,,,,5827501088000,1.37814841800019E+018,21816779.7576564,3.897301954,GPS_L1_CA,1.37814841792742E+018,-22805313.4515806,-12222265.1695991,6634951.00484535,45.1783929393458,236.572876655052,-539.637582314015,-713.129024948453,-3011.47497377323,-10684.2407527693,-0.00134386472927872,0,6.23340716319057,3.51964044659979,-2684513.2710826,-4281398.51300618,3878489.72576337
Raw,1694113200000,69624000000,,,-1.37814834837619E+018,0,5.44780753857863,59,1,10,28,0,16431,414017916964702,21,36.9183769226074,-612.839718157741,0.15,25,-40688.4046725042,0.0020321081392467,1575420000,,,,0,,1,,,,,,,,5827501088000,1.37814841800019E+018,24949793.5173633,6.295641618,GPS_L1_CA,1.37814841791696E+018,-6554386.94820252,-22208424.5371817,-13034047.2605335,7.61203847677643,165.372395974166,413.548887345977,-1614.23781689507,2546.5048973796,-2019.73276178583,-0.00142503709412267,0,15.3603773538852,17.9675850666472,-2684513.2710826,-4281398.51300618,3878489.72576337
Raw,1694113200000,69624000000,,,-1.37814834837619E+018,0,5.44780753857863,59,1,10,32,0,16431,414017930511873,14,42.0382232666016,-250.165282001113,0.15,25,-17472.4342937066,0.00112707947846502,1575420000,,,,0,,1,,,,,,,,5827501088000,1.37814841800019E+018,20888453.824327,4.197094412,GPS_L1_CA,1.37814841793051E+018,-14856453.9667299,-20089075.4047311,9479647.02015678,67.4580219577354,193.948692874912,1067.43545947161,538.510051493931,2848.58053690875,-166129.925889903,-0.00125937603297643,0,4.90478833713431,2.70524118286176,-2684513.2710826,-4281398.51300618,3878489.72576337
Raw,1694113200000,69624000000,,,-1.37814834837619E+018,0,5.44780753857863,59,1,10,8,0,81921,414017925479909,6,34.2313270568848,-41.1050188801235,0.579375466805108,25,-2008.95249259849,0.00343594187870622,1176450000,,,,0,,1,,,,,,,,5827501088000,1.37814841800019E+018,22396998.6804545,1.798754748,GPS_L5_Q,1.37814841792548E+018,-20990852.9373188,-1379569.10059339,16375871.0943859,36.800361635221,287.714493648875,-1557.19500975628,-1387.39933721356,-2063.99699993036,-42305.3465729371,-0.00021249838755466,20.8477953627354,12.2043697759578,4.16447195756039,-2684513.2710826,-4281398.51300618,3878489.72576337
Raw,1694113200000,69624000000,,,-1.37814834837619E+018,0,5.44780753857863,59,1,10,10,0,81921,414017930591206,6,38.0105934143066,124.154873930935,0.15,25,9496.67115249312,0.00235862447880208,1176450000,,,,0,,1,,,,,,,,5827501088000,1.37814841800019E+018,20864670.3892564,1.798754748,GPS_L5_Q,1.37814841793059E+018,-5106575.49692947,-13976783.2058633,22176255.1622791,63.7931925236535,19.6652367125437,2582.11576512899,-994.751883141286,-63.9868488407555,-15721.8157925494,0.000103540000054636,20.8477953627354,8.65679595388645,2.78458952093393,-2684513.2710826,-4281398.51300618,3878489.72576337
Raw,1694113200000,69624000000,,,-1.37814834837619E+018,0,5.44780753857863,59,1,10,18,0,81921,414017921888578,6,30.1281471252441,594.994825571528,0.76324492779454,25,41720.3628936392,0.00551067758351564,1176450000,,,,0,,1,,,,,,,,5827501088000,1.37814841800019E+018,23473652.6284361,1.798754748,GPS_L5_Q,1.37814841792189E+018,4663034.89295992,-26046608.8009239,-310588.889022819,22.5156539245139,124.452044622515,243.87003925338,82.2395608825327,-3216.73377881523,-122782.873877237,-0.00418798449391034,20.8477953627354,18.1998545480945,6.49047932380042,-2684513.2710826,-4281398.51300618,3878489.72576337
Raw,1694113200000,69624000000,,,-1.37814834837619E+018,0,5.44780753857863,59,1,10,23,0,81921,414017925512321,6,29.8286323547363,428.38958743353,0.777365515860753,25,30381.7014807248,0.00570401595905423,1176450000,,,,0,,1,,,,,,,,5827501088000,1.37814841800019E+018,22387281.8073058,1.798754748,GPS_L5_Q,1.37814841792551E+018,8740109.29338781,-17143090.7904045,18235315.5945341,34.2116901754118,63.0117937588077,2188.14270539781,-775.738300003915,-1795.21981005969,19572.3024963604,0.00134506287940894,20.8477953627354,12.9120799048907,4.43526802492349,-2684513.2710826,-4281398.51300618,3878489.72576337
Raw,1694113200000,69624000000,,,-1.37814834837619E+018,0,5.44780753857863,59,1,10,24,0,81921,414017920723514,6,24.0606670379639,242.832100655665,1.0394805086527,25,17445.6883185793,0.00783545058220625,1176450000,,,,0,,1,,,,,,,,5827501088000,1.37814841800019E+018,23822930.0287234,1.798754748,GPS_L5_Q,1.37814841792072E+018,14512140.9654922,-11220404.1610049,18683650.1996658,15.8361387808801,53.1006278710197,52.3614681637642,2482.66205788143,1463.79373863236,-93804.9918695007,-0.00471066505997442,20.8477953627354,17.5798355151745,9.05396226399861,-2684513.2710826,-4281398.51300618,3878489.72576337
Raw,1694113200000,69624000000,,,-1.37814834837619E+018,0,5.44780753857863,59,1,10,27,0,81921,414017927415235,6,32.0642623901367,394.689706485188,0.677174143855142,25,27892.9613458976,0.00440960004925728,1176450000,,,,0,,1,,,,,,,,5827501088000,1.37814841800019E+018,21816802.5418832,1.798754748,GPS_L5_Q,1.37814841792742E+018,-22805313.4515402,-12222265.1695458,6634951.00507089,45.1783929397378,236.572876655722,-539.637582332866,-713.129024968626,-3011.47497376284,-10684.5729785252,-0.00134386472927872,20.8477953627354,11.1781836085592,3.51964044657595,-2684513.2710826,-4281398.51300618,3878489.72576337
Raw,1694113200000,69624000000,,,-1.37814834837619E+018,0,5.44780753857863,59,1,10,28,0,81921,414017916964540,6,25.6891040802002,-612.839649992828,0.965575430942204,25,-41914.4026107166,0.00649594143033028,1176450000,,,,0,,1,,,,,,,,5827501088000,1.37814841800019E+018,24949842.0837415,1.798754748,GPS_L5_Q,1.37814841791696E+018,-6554386.94827262,-22208424.5369077,-13034047.2609658,7.61203847577382,165.372395974756,413.548887368225,-1614.23781694488,2546.50489733259,-2017.40718149345,-0.00142503709412267,20.8477953627354,27.5453077055582,17.9675850687784,-2684513.2710826,-4281398.51300618,3878489.72576337
Raw,1694113200000,69624000000,,,-1.37814834837619E+018,0,5.44780753857863,59,1,10,32,0,81921,414017930511795,6,30.1283473968506,-250.093078316969,0.764787025817602,25,-16293.1116008534,0.0055105509236455,1176450000,,,,0,,1,,,,,,,,5827501088000,1.37814841800019E+018,20888477.2081387,1.798754748,GPS_L5_Q,1.37814841793051E+018,-14856453.9668128,-20089075.4047728,9479647.01993566,67.4580219570751,193.94869287486,1067.43545944756,538.510051481735,2848.58053692412,-166130.036631822,-0.00125937603297643,20.8477953627354,8.79561099714421,2.70524118287466,-2684513.2710826,-4281398.51300618,3878489.72576337
Raw,1694113200000,69624000000,,,-1.37814834837619E+018,0,5.44780753857863,59,1,10,2,0,32867,79199928061220,86,28.2841548919678,-506.5676535459,0.854022818502769,17,-35104.1064164376,0.0987980893588105,1599750000,,,,0,,3,,,,,,,,5827501088000,1.37814841800019E+018,21623141.110902,25.782151388,GLO_G1_CA,1.37814841792806E+018,-23876847.1797613,-8494345.84513021,3244906.03807837,31.6588121066989,238.670365631337,368.536669995966,303.116080169692,3540.14978157573,-6730.75838480843,0,17.6472620584197,7.71975820279874,4.74927164134441,-2684513.2710826,-4281398.51300618,3878489.72576337
Raw,1694113200000,69624000000,,,-1.37814834837619E+018,0,5.44780753857863,59,1,10,1,0,32995,79199935659928,57,33.386661529541,97.8742836544459,0.625935697049353,17,6722.92826929289,0.0963637202914883,1602562600,,,,0,,3,,,,,,,,5827501088000,1.37814841800019E+018,19345105.7619578,17.088170106,GLO_G1_CA,1.37814841793566E+018,-12296744.7381577,-12273704.2986227,18667464.6810833,72.2342601618195,318.721622396451,2458.06467397558,711.695608081268,2087.25624976878,19527.4916594113,0,17.6472620584197,4.47827011446931,2.62391276441858,-2684513.2710826,-4281398.51300618,3878489.72576337
Raw,1694113200000,69624000000,,,-1.37814834837619E+018,0,5.44780753857863,59,1,10,24,0,32995,79199935912498,51,34.6559600830078,-146.742766373004,0.568902234125218,25,-10404.1380592979,0.00244298321194947,1603125000,,,,0,,3,,,,,,,,5827501088000,1.37814841800019E+018,19269387.1808407,15.289415358,GLO_G1_CA,1.37814841793591E+018,-11997024.5047356,-13715756.8551096,17853618.1499136,77.2094989778549,317.553826626904,-693.18616604386,-2345.07304423507,-2271.66265126584,-7035.8601381092,-0.000545319304365009,17.6472620584197,4.41731682980698,2.56256582536844,-2684513.2710826,-4281398.51300618,3878489.72576337
Raw,1694113200000,69624000000,,,-1.37814834837619E+018,0,5.44780753857863,59,1,10,23,0,32867,79199931355119,98,26.6570148468018,590.448839355602,0.927785974734155,21,40665.8540897899,0.0996033210318796,1603687600,,,,0,,3,,,,,,,,5827501088000,1.37814841800019E+018,20635655.0332883,29.379660884,GLO_G1_CA,1.37814841793136E+018,-6873423.4347034,-24419224.118816,2625812.90699968,44.703363855577,150.785097641101,-319.182915262564,-296.835425131213,-3586.04416693227,-28611.901584459,-0.000272659652182475,17.6472620584197,6.24872525826351,3.54886807317293,-2684513.2710826,-4281398.51300618,3878489.72576337
Raw,1694113200000,69624000000,,,-1.37814834837619E+018,0,5.44780753857863,59,1,10,17,0,32995,79199925259894,37,38.6287803649902,-724.889202222132,0.15,25,-50552.5567356159,0.00163889455143362,1604250000,,,,0,,3,,,,,,,,5827501088000,1.37814841800019E+018,22462957.5181013,11.092320946,GLO_G1_CA,1.37814841792526E+018,-9569255.31064373,5093974.5861563,23100610.463958,21.8488203747648,328.765694007964,-743.669643140932,-3075.22995078288,365.592690920736,4626.02103312077,0.000817978956547514,17.6472620584197,8.03733451486555,6.67611614132688,-2684513.2710826,-4281398.51300618,3878489.72576337
Raw,1694113200000,69624000000,,,-1.37814834837619E+018,0,5.44780753857863,59,1,10,8,0,32995,79199927308077,64,31.9225177764893,649.45838660024,0.690274255244607,25,45352.0375354812,0.00334182241931558,1605375000,,,,0,,3,,,,,,,,5827501088000,1.37814841800019E+018,21848927.7020975,19.186717312,GLO_G1_CA,1.37814841792731E+018,7084610.89861811,-9152081.60631244,22779972.6971094,29.4015304409195,34.8423040231499,2997.64131279662,812.614574598098,-610.37794971384,-21710.5836995136,0,17.6472620584197,7.22951649469444,5.07507084371496,-2684513.2710826,-4281398.51300618,3878489.72576337
Raw,1694113200000,69624000000,,,-1.37814834837619E+018,0,5.44780753857863,59,1,10,195,0,16384,414017853747900,1000000000,15.2517528533936,40.4720309769678,299792458,16,2689.51376267972,3.40282346638529E+038,1575420000,,,,1,,4,,,,,,,,5827501088000,,,,,,,,,,,,,,,,,,,-2684513.2710826,-4281398.51300618,3878489.72576337
Raw,1694113200000,69624000000,,,-1.37814834837619E+018,0,5.44780753857863,59,1,10,195,0,16384,414017853747798,1000000000,10.7600002288818,40.4020383921911,299792458,16,6576.97834375597,3.40282346638529E+038,1176450000,,,,0,,4,,,,,,,,5827501088000,,,,,,,,,,,,,,,,,,,-2684513.2710826,-4281398.51300618,3878489.72576337
Raw,1694113200000,69624000000,,,-1.37814834837619E+018,0,5.44780753857863,59,1,10,7,0,85026,414017922352666,27,33.9117202758789,27.5473734109895,0.60065024207811,25,1869.32300816028,0.00270834192633629,1575420000,,,,0,,6,,,,,,,,5827501088000,1.37814841800019E+018,23334522.5461878,8.094396366,GAL_E1_C_P,1.37814841792235E+018,-8892776.0593355,-22231447.4014652,17396162.4041451,79.3204017123821,98.2269513310638,1360.55300647419,1093.04941412764,2093.21401634075,-21926.476324472,-0.000842450019263197,-0.560787196424422,4.61007214401201,2.54309697516226,-2684513.2710826,-4281398.51300618,3878489.72576337
Raw,1694113200000,69624000000,,,-1.37814834837619E+018,0,5.44780753857863,59,1,10,8,0,85026,414017913344842,27,33.8200912475586,474.658805687832,0.604589495065708,25,32346.9124458003,0.00273706391453743,1575420000,,,,0,,6,,,,,,,,5827501088000,1.37814841800019E+018,26035000.2443792,8.094396366,GAL_E1_C_P,1.37814841791334E+018,10846404.0797222,-12899818.6816294,24329189.0219458,28.981686290308,44.8733614986712,1937.45690645249,1484.90669810326,-75.3891387513868,-42760.7693379176,-0.00177881733543472,-0.560787196424422,7.67315984984808,5.1415446727642,-2684513.2710826,-4281398.51300618,3878489.72576337
Raw,1694113200000,69624000000,,,-1.37814834837619E+018,0,5.44780753857863,59,1,10,13,0,85026,414017916856712,35,30.7953453063965,371.879613467819,0.740521049013637,25,25248.054529172,0.00387723534367979,1575420000,,,,0,,6,,,,,,,,5827501088000,1.37814841800019E+018,24982168.1049027,10.49273603,GAL_E1_C_P,1.37814841791686E+018,88224.5640212423,-29031532.6536301,5764105.4985732,41.5935264187402,123.937094236988,-93.7515313695248,-596.727359229444,-3004.37485745931,-5871.2827567438,-4.46456824647612E-05,-0.560787196424422,6.75797724150457,3.75964874188837,-2684513.2710826,-4281398.51300618,3878489.72576337
