#
# Header Description:
#
# Version: Not Available Platform:  Manufacturer: null Model: null
#
#,
# Raw,utcTimeMillis,TimeNanos,LeapSecond,TimeUncertaintyNanos,FullBiasNanos,BiasNanos,BiasUncertaintyNanos,DriftNanosPerSecond,DriftUncertaintyNanosPerSecond,HardwareClockDiscontinuityCount,Svid,TimeOffsetNanos,State,ReceivedSvTimeNanos,ReceivedSvTimeUncertaintyNanos,Cn0DbHz,PseudorangeRateMetersPerSecond,PseudorangeRateUncertaintyMetersPerSecond,AccumulatedDeltaRangeState,AccumulatedDeltaRangeMeters,AccumulatedDeltaRangeUncertaintyMeters,CarrierFrequencyHz,CarrierCycles,CarrierPhase,CarrierPhaseUncertainty,MultipathIndicator,SnrInDb,ConstellationType,AgcDb,BasebandCn0DbHz,FullInterSignalBiasNanos,FullInterSignalBiasUncertaintyNanos,SatelliteInterSignalBiasNanos,SatelliteInterSignalBiasUncertaintyNanos,CodeType,ChipsetElapsedRealtimeNanos
#
# UncalAccel,utcTimeMillis,elapsedRealtimeNanos,UncalAccelXMps2,UncalAccelYMps2,UncalAccelZMps2,BiasXMps2,BiasYMps2,BiasZMps2
#
# Accel,utcTimeMillis,elapsedRealtimeNanos,AccelXMps2,AccelYMps2,AccelZMps2
#
# UncalGyro,utcTimeMillis,elapsedRealtimeNanos,UncalGyroXRadPerSec,UncalGyroYRadPerSec,UncalGyroZRadPerSec,DriftXRadPerSec,DriftYRadPerSec,DriftZRadPerSec
#
# Gyro,utcTimeMillis,elapsedRealtimeNanos,GyroXRadPerSec,GyroYRadPerSec,GyroZRadPerSec
#
# UncalMag,utcTimeMillis,elapsedRealtimeNanos,UncalMagXMicroT,UncalMagYMicroT,UncalMagZMicroT,BiasXMicroT,BiasYMicroT,BiasZMicroT
#
# Mag,utcTimeMillis,elapsedRealtimeNanos,MagXMicroT,MagYMicroT,MagZMicroT
#
# OrientationDeg,utcTimeMillis,elapsedRealtimeNanos,yawDeg,rollDeg,pitchDeg
#
# Fix,Provider,LatitudeDegrees,LongitudeDegrees,AltitudeMeters,SpeedMps,AccuracyMeters,BearingDegrees,UnixTimeMillis,SpeedAccuracyMps,BearingAccuracyDegrees,elapsedRealtimeNanos,VerticalAccuracyMeters,MockLocation,NumberOfUsedSignals,VerticalSpeedAccuracyMps,SolutionType
#
# Nav,Svid,Type,Status,MessageId,Sub-messageId,Data(Bytes)
#
# Status,UnixTimeMillis,SignalCount,SignalIndex,ConstellationType,Svid,CarrierFrequencyHz,Cn0DbHz,AzimuthDegrees,ElevationDegrees,UsedInFix,HasAlmanacData,HasEphemerisData,BasebandCn0DbHz
#
# Agc,utcTimeMillis,TimeNanos,LeapSecond,TimeUncertaintyNanos,FullBiasNanos,BiasNanos,BiasUncertaintyNanos,DriftNanosPerSecond,DriftUncertaintyNanosPerSecond,HardwareClockDiscontinuityCount,AgcDb,CarrierFrequencyHz,ConstellationType
#
Raw,1694113198000,67624000000,,,-1378148348376188193,0.0,5.44390033395133,63.0,1.0,10,2,0.0,16431,414015918240093,16,40.2702751159668,-557.1907692911655,0.15,25,-37377.162398177315,0.0013815033016726375,1575420000,,,,0,,1,,,,,,,,5825501164000
Mag,1694113198000,67624000000,0.,0.,0.
Raw,1694113198000,67624000000,,,-1378148348376188193,0.0,5.44390033395133,63.0,1.0,10,8,0.0,16431,414015925479708,12,43.5152473449707,-40.7563383086669,0.15,25,-2943.4550616970387,0.000950830930378288,1575420000,,,,0,,1,,,,,,,,5825501164000
Raw,1694113198000,67624000000,,,-1378148348376188193,0.0,5.44390033395133,63.0,1.0,10,10,0.0,16431,414015930592098,14,42.11104965209961,124.6249476919117,0.15,25,8359.58776441443,0.0011176689295098186,1575420000,,,,0,,1,,,,,,,,5825501164000
Raw,1694113198000,67624000000,,,-1378148348376188193,0.0,5.44390033395133,63.0,1.0,10,18,0.0,16431,414015921892640,21,36.961143493652344,595.3232441225814,0.15,25,40015.875042872125,0.002022127853706479,1575420000,,,,0,,1,,,,,,,,5825501164000
Raw,1694113198000,67624000000,,,-1378148348376188193,0.0,5.44390033395133,63.0,1.0,10,21,0.0,16431,414015921792276,27,34.07912063598633,-478.801017041332,0.592302170383554,25,-29942.320066384873,0.0026566446758806705,1575420000,,,,0,,1,,,,,,,,5825501164000
Raw,1694113198000,67624000000,,,-1378148348376188193,0.0,5.44390033395133,63.0,1.0,10,23,0.0,16431,414015925515276,17,39.89680480957031,428.88661189700224,0.15,25,28815.682010115946,0.0014422000385820866,1575420000,,,,0,,1,,,,,,,,5825501164000
Raw,1694113198000,67624000000,,,-1378148348376188193,0.0,5.44390033395133,63.0,1.0,10,24,0.0,16431,414015920725150,37,30.23918914794922,243.24144799973237,0.7683850548361844,25,16154.188490294755,0.004133615177124739,1575420000,,,,1,,1,,,,,,,,5825501164000
Raw,1694113198000,67624000000,,,-1378148348376188193,0.0,5.44390033395133,63.0,1.0,10,27,0.0,16431,414015927417947,12,43.658817291259766,395.0063665887417,0.15,25,26417.933478708415,0.0009352439665235579,1575420000,,,,0,,1,,,,,,,,5825501164000
Raw,1694113198000,67624000000,,,-1378148348376188193,0.0,5.44390033395133,63.0,1.0,10,28,0.0,16431,414015916960601,20,37.4682502746582,-612.2070795997643,0.15,25,-39462.95796438948,0.0019074503798037767,1575420000,,,,0,,1,,,,,,,,5825501164000
Raw,1694113198000,67624000000,,,-1378148348376188193,0.0,5.44390033395133,63.0,1.0,10,32,0.0,16431,414015930510211,13,42.470279693603516,-249.76837475367665,0.15,25,-16972.130044153033,0.001072387327440083,1575420000,,,,0,,1,,,,,,,,5825501164000
Raw,1694113198000,67624000000,,,-1378148348376188193,0.0,5.44390033395133,63.0,1.0,10,8,0.0,81921,414015925479633,6,33.53462219238281,-40.715907994616714,0.6107054986945095,25,-1926.6968928656388,0.0037228986620903015,1176450000,,,,0,,1,,,,,,,,5825501164000
Raw,1694113198000,67624000000,,,-1378148348376188193,0.0,5.44390033395133,63.0,1.0,10,10,0.0,81921,414015930592033,6,36.20073699951172,124.67107829681532,0.15,25,9248.29321039594,0.002738894894719124,1176450000,,,,0,,1,,,,,,,,5825501164000
Raw,1694113198000,67624000000,,,-1378148348376188193,0.0,5.44390033395133,63.0,1.0,10,18,0.0,81921,414015921892548,6,29.50239372253418,595.2552155393619,0.7913850547687602,25,40530.58544021118,0.005922331009060144,1176450000,,,,0,,1,,,,,,,,5825501164000
Raw,1694113198000,67624000000,,,-1378148348376188193,0.0,5.44390033395133,63.0,1.0,10,23,0.0,81921,414015925515171,6,28.28371238708496,428.89243999706764,0.8468394082522033,25,29524.82370314836,0.0068143862299621105,1176450000,,,,0,,1,,,,,,,,5825501164000
Raw,1694113198000,67624000000,,,-1378148348376188193,0.0,5.44390033395133,63.0,1.0,10,24,0.0,81921,414015920725137,6,21.45274543762207,245.95187239593713,1.1567561779614604,16,16956.384260596395,340282346638528860000000000000000000000,1176450000,,,,0,,1,,,,,,,,5825501164000
Raw,1694113198000,67624000000,,,-1378148348376188193,0.0,5.44390033395133,63.0,1.0,10,27,0.0,81921,414015927417867,6,31.672330856323242,394.92058104567377,0.6947993004536914,25,27103.690680951913,0.004613130819052458,1176450000,,,,0,,1,,,,,,,,5825501164000
Raw,1694113198000,67624000000,,,-1378148348376188193,0.0,5.44390033395133,63.0,1.0,10,28,0.0,81921,414015916960457,6,25.2863712310791,-612.1837671995027,0.9836851974694376,25,-40688.96047246626,0.006804227363318205,1176450000,,,,0,,1,,,,,,,,5825501164000
Raw,1694113198000,67624000000,,,-1378148348376188193,0.0,5.44390033395133,63.0,1.0,10,32,0.0,81921,414015930510123,6,29.442657470703125,-249.76408036415478,0.7956214641741668,25,-15792.81267614787,0.005963201634585857,1176450000,,,,0,,1,,,,,,,,5825501164000
Raw,1694113198000,67624000000,,,-1378148348376188193,0.0,5.44390033395133,63.0,1.0,10,2,0.0,32867,79197928057774,81,29.039043426513672,-506.15968654132234,0.8200756267292832,17,-34091.20251601196,0.09837370615065485,1599750000,,,,0,,3,,,,,,,,5825501164000
Raw,1694113198000,67624000000,,,-1378148348376188193,0.0,5.44390033395133,63.0,1.0,10,1,0.0,32995,79197935660549,55,33.932918548583984,98.24235714366398,0.6013712324816227,17,6527.233604041239,0.09619132130705604,1602562600,,,,0,,3,,,,,,,,5825501164000
Raw,1694113198000,67624000000,,,-1378148348376188193,0.0,5.44390033395133,63.0,1.0,10,24,0.0,32995,79197935911564,47,35.65913009643555,-146.44607858897257,0.5237905415668414,25,-10110.562334558594,0.002176516456529498,1603125000,,,,0,,3,,,,,,,,5825501164000
Raw,1694113198000,67624000000,,,-1378148348376188193,0.0,5.44390033395133,63.0,1.0,10,23,0.0,32867,79197931359051,104,26.03517723083496,591.0947700716224,0.9557500312054397,21,39484.695136716844,0.10005853753651299,1603687600,,,,0,,3,,,,,,,,5825501164000
Raw,1694113198000,67624000000,,,-1378148348376188193,0.0,5.44390033395133,63.0,1.0,10,17,0.0,32995,79197925255086,37,38.59260559082031,-724.3900987288121,0.15,25,-49102.85905098181,0.0016457345336675644,1604250000,,,,0,,3,,,,,,,,5825501164000
Raw,1694113198000,67624000000,,,-1378148348376188193,0.0,5.44390033395133,63.0,1.0,10,8,0.0,32995,79197927312441,60,32.820438385009766,649.9660107076902,0.6498965293597614,25,44053.06134973108,0.003013612236827612,1605375000,,,,0,,3,,,,,,,,5825501164000
Raw,1694113198000,67624000000,,,-1378148348376188193,0.0,5.44390033395133,63.0,1.0,10,195,0.0,16384,414015853748075,1000000000,15.46324348449707,40.84333803924844,299792458,16,2609.0599690188874,340282346638528860000000000000000000000,1575420000,,,,1,,4,,,,,,,,5825501164000
Raw,1694113198000,67624000000,,,-1378148348376188193,0.0,5.44390033395133,63.0,1.0,10,195,0.0,16384,414015853748032,1000000000,10.760000228881836,40.29521545283447,299792458,16,6498.199451856616,340282346638528860000000000000000000000,1176450000,,,,0,,4,,,,,,,,5825501164000
Raw,1694113198000,67624000000,,,-1378148348376188193,0.0,5.44390033395133,63.0,1.0,10,7,0.0,85026,414015922352852,25,35.016746520996094,27.96231879854058,0.5509584864389376,25,1814.325370993783,0.002384801162406802,1575420000,,,,0,,6,,,,,,,,5825501164000
Raw,1694113198000,67624000000,,,-1378148348376188193,0.0,5.44390033395133,63.0,1.0,10,8,0.0,85026,414015913348006,27,33.957950592041016,475.123928971999,0.5983905485837284,25,31397.60898569182,0.002693964634090662,1575420000,,,,0,,6,,,,,,,,5825501164000
Raw,1694113198000,67624000000,,,-1378148348376188193,0.0,5.44390033395133,63.0,1.0,10,13,0.0,85026,414015916859176,36,30.287229537963867,372.3056782568108,0.7633707399875638,25,24504.405448756144,0.00411081500351429,1575420000,,,,0,,6,,,,,,,,5825501164000
Raw,1694113198000,67624000000,,,-1378148348376188193,0.0,5.44390033395133,63.0,1.0,10,26,0.0,85026,414015922575458,27,34.05875015258789,-94.94854333915828,0.5940785852952097,25,-6529.200689916647,0.0026628822088241577,1575420000,,,,0,,6,,,,,,,,5825501164000
Raw,1694113198000,67624000000,,,-1378148348376188193,0.0,5.44390033395133,63.0,1.0,10,33,0.0,85026,414015913622906,22,36.463504791259766,-439.8200935372372,0.15,25,-29213.9191760957,0.002141363685950637,1575420000,,,,0,,6,,,,,,,,5825501164000
Raw,1694113198000,67624000000,,,-1378148348376188193,0.0,5.44390033395133,63.0,1.0,10,7,0.0,84003,414015922352775,6,26.882116317749023,27.782457154855578,0.9128962681080499,25,1725.5502221942295,0.008007676340639591,1176450000,,,,0,,6,,,,,,,,5825501164000
Raw,1694113198000,67624000000,,,-1378148348376188193,0.0,5.44390033395133,63.0,1.0,10,8,0.0,84003,414015913347930,6,26.25519371032715,475.05661612036647,0.9394685355149228,25,31880.679561821526,0.008607016876339912,1176450000,,,,0,,6,,,,,,,,5825501164000
Raw,1694113198000,67624000000,,,-1378148348376188193,0.0,5.44390033395133,63.0,1.0,10,13,0.0,84003,414015916859120,6,24.02611541748047,372.3853630401611,1.0403392267955645,25,25235.91918700558,0.00786668062210083,1176450000,,,,0,,6,,,,,,,,5825501164000
Raw,1694113198000,67624000000,,,-1378148348376188193,0.0,5.44390033395133,63.0,1.0,10,26,0.0,84003,414015922575400,6,28.80052947998047,-94.88570380994435,0.8266674534034459,25,-5894.276890530962,0.006420751567929983,1176450000,,,,0,,6,,,,,,,,5825501164000
Raw,1694113198000,67624000000,,,-1378148348376188193,0.0,5.44390033395133,63.0,1.0,10,33,0.0,84003,414015913622819,33,19.580612182617188,-439.6968513744507,299.79491117996645,16,-27496.419210765423,340282346638528860000000000000000000000,1176450000,,,,0,,6,,,,,,,,5825501164000
Raw,1694113199000,68624000000,,,-1378148348376188133,0.0,5.465761752229314,61.0,1.0,10,2,0.0,16431,414016918241959,16,40.143062591552734,-557.8143419157068,0.15,25,-37934.76949069389,0.001401885412633419,1575420000,,,,0,,1,,,,,,,,5826501170000
Raw,1694113199000,68624000000,,,-1378148348376188133,0.0,5.465761752229314,61.0,1.0,10,8,0.0,16431,414016925479849,12,43.857826232910156,-41.22599881985829,0.15,25,-2984.5718769452333,0.0009140592883341014,1575420000,,,,0,,1,,,,,,,,5826501170000
Raw,1694113199000,68624000000,,,-1378148348376188133,0.0,5.465761752229314,61.0,1.0,10,10,0.0,16431,414016930591700,13,42.72713851928711,124.0900831810851,0.15,25,8483.828210715646,0.0010411391267552972,1575420000,,,,0,,1,,,,,,,,5826501170000
Raw,1694113199000,68624000000,,,-1378148348376188133,0.0,5.465761752229314,61.0,1.0,10,18,0.0,16431,414016921890670,22,36.43446350097656,594.7781293129556,0.15,25,40610.7934391038,0.0021485353354364634,1575420000,,,,0,,1,,,,,,,,5826501170000
Raw,1694113199000,68624000000,,,-1378148348376188133,0.0,5.465761752229314,61.0,1.0,10,21,0.0,16431,414016921793869,28,33.61952209472656,-479.33348725958786,0.6129699850343395,25,-30421.50942054688,0.002801001537591219,1575420000,,,,0,,1,,,,,,,,5826501170000
Raw,1694113199000,68624000000,,,-1378148348376188133,0.0,5.465761752229314,61.0,1.0,10,23,0.0,16431,414016925513847,17,39.88855743408203,428.3624237156814,0.15,25,29244.17760638391,0.001443569897674024,1575420000,,,,0,,1,,,,,,,,5826501170000
Raw,1694113199000,68624000000,,,-1378148348376188133,0.0,5.465761752229314,61.0,1.0,10,24,0.0,16431,414016920724357,33,31.35243797302246,242.79999498162067,0.7183233847226034,25,16397.10604165958,0.003636365756392479,1575420000,,,,0,,1,,,,,,,,5826501170000
Raw,1694113199000,68624000000,,,-1378148348376188133,0.0,5.465761752229314,61.0,1.0,10,27,0.0,16431,414016927416629,13,42.815486907958984,394.4792473161599,0.15,25,26812.574290057688,0.0010306028416380286,1575420000,,,,0,,1,,,,,,,,5826501170000
Raw,1694113199000,68624000000,,,-1378148348376188133,0.0,5.465761752229314,61.0,1.0,10,28,0.0,16431,414016916962647,21,37.04452133178711,-612.789344287,0.15,25,-40075.59727885083,0.0020028091967105865,1575420000,,,,0,,1,,,,,,,,5826501170000
Raw,1694113199000,68624000000,,,-1378148348376188133,0.0,5.465761752229314,61.0,1.0,10,32,0.0,16431,414016930511043,13,42.55876922607422,-250.25684452056157,0.15,25,-17222.26330929219,0.001061517745256424,1575420000,,,,0,,1,,,,,,,,5826501170000
Raw,1694113199000,68624000000,,,-1378148348376188133,0.0,5.465761752229314,61.0,1.0,10,8,0.0,81921,414016925479771,6,34.308990478515625,-41.32309973849178,0.5758829469536901,25,-1967.8181494424093,0.003405357711017132,1176450000,,,,0,,1,,,,,,,,5826501170000
Raw,1694113199000,68624000000,,,-1378148348376188133,0.0,5.465761752229314,61.0,1.0,10,10,0.0,81921,414016930591619,6,37.388099670410156,124.05549800832858,0.15,25,9372.525677948403,0.002533865161240101,1176450000,,,,0,,1,,,,,,,,5826501170000
Raw,1694113199000,68624000000,,,-1378148348376188133,0.0,5.465761752229314,61.0,1.0,10,18,0.0,81921,414016921890564,6,30.46915626525879,594.8114619554349,0.7479105516184892,25,41125.50805282457,0.005298519041389227,1176450000,,,,0,,1,,,,,,,,5826501170000
Raw,1694113199000,68624000000,,,-1378148348376188133,0.0,5.465761752229314,61.0,1.0,10,23,0.0,81921,414016925513744,6,29.336000442504883,428.3025067571143,0.7995189794659843,25,29953.290578317916,0.006036876700818539,1176450000,,,,0,,1,,,,,,,,5826501170000
Raw,1694113199000,68624000000,,,-1378148348376188133,0.0,5.465761752229314,61.0,1.0,10,24,0.0,81921,414016920724320,6,22.843278884887695,243.51023929309952,1.094225254740575,16,17201.54561593073,340282346638528860000000000000000000000,1176450000,,,,0,,1,,,,,,,,5826501170000
Raw,1694113199000,68624000000,,,-1378148348376188133,0.0,5.465761752229314,61.0,1.0,10,27,0.0,81921,414016927416551,6,32.2468376159668,394.58258532433706,0.6689641327364222,25,27498.35953665554,0.004317878279834986,1176450000,,,,0,,1,,,,,,,,5826501170000
Raw,1694113199000,68624000000,,,-1378148348376188133,0.0,5.465761752229314,61.0,1.0,10,28,0.0,81921,414016916962497,6,25.809492111206055,-612.9569618081791,0.9601613794697172,25,-41301.61428373575,0.006406527943909168,1176450000,,,,0,,1,,,,,,,,5826501170000
Raw,1694113199000,68624000000,,,-1378148348376188133,0.0,5.465761752229314,61.0,1.0,10,32,0.0,81921,414016930510960,6,29.690336227416992,-250.30149253860645,0.7844837567266785,25,-16042.951616304554,0.005795561708509922,1176450000,,,,0,,1,,,,,,,,5826501170000
Raw,1694113199000,68624000000,,,-1378148348376188133,0.0,5.465761752229314,61.0,1.0,10,2,0.0,32867,79198928059457,91,27.645986557006836,-506.523039610312,0.8827201803276772,21,-34597.61593529983,0.09918677683532626,1599750000,,,,0,,3,,,,,,,,5826501170000
Raw,1694113199000,68624000000,,,-1378148348376188133,0.0,5.465761752229314,61.0,1.0,10,1,0.0,32995,79198935660246,56,33.72734069824219,97.740910481458,0.6106158325442435,17,6625.093699768637,0.09625493250154743,1602562600,,,,0,,3,,,,,,,,5826501170000
Raw,1694113199000,68624000000,,,-1378148348376188133,0.0,5.465761752229314,61.0,1.0,10,24,0.0,32995,79198935912015,48,35.52897262573242,-146.93654217956407,0.5296437042198998,25,-10257.361055970063,0.0022093767765909433,1603125000,,,,0,,3,,,,,,,,5826501170000
Raw,1694113199000,68624000000,,,-1378148348376188133,0.0,5.465761752229314,61.0,1.0,10,23,0.0,32867,79198931357072,95,27.166589736938477,590.5190492160391,0.9048712475101839,17,40075.33105172225,0.09925383478517451,1603687600,,,,0,,3,,,,,,,,5826501170000
Raw,1694113199000,68624000000,,,-1378148348376188133,0.0,5.465761752229314,61.0,1.0,10,17,0.0,32995,79198925257497,38,38.335323333740234,-724.9315326331334,0.15,25,-49827.65949429385,0.001695211511105299,1604250000,,,,0,,3,,,,,,,,5826501170000
Raw,1694113199000,68624000000,,,-1378148348376188133,0.0,5.465761752229314,61.0,1.0,10,8,0.0,32995,79198927310263,63,32.15447998046875,649.3298957391485,0.6798435590680736,25,44702.60487431842,0.003253757953643799,1605375000,,,,0,,3,,,,,,,,5826501170000
Raw,1694113199000,68624000000,,,-1378148348376188133,0.0,5.465761752229314,61.0,1.0,10,195,0.0,16384,414016853747886,1000000000,15.518754959106445,41.21464510152913,299792458,16,2650.2066646672965,340282346638528860000000000000000000000,1575420000,,,,1,,4,,,,,,,,5826501170000
Raw,1694113199000,68624000000,,,-1378148348376188133,0.0,5.465761752229314,61.0,1.0,10,195,0.0,16384,414016853747932,1000000000,10.760000228881836,40.120406533328975,299792458,16,6536.572656580324,340282346638528860000000000000000000000,1176450000,,,,0,,4,,,,,,,,5826501170000
Raw,1694113199000,68624000000,,,-1378148348376188133,0.0,5.465761752229314,61.0,1.0,10,7,0.0,85026,414016922352757,25,34.6526985168457,27.328870782221756,0.5673293154432311,25,1841.841498143642,0.0024868783075362444,1575420000,,,,0,,6,,,,,,,,5826501170000
Raw,1694113199000,68624000000,,,-1378148348376188133,0.0,5.465761752229314,61.0,1.0,10,8,0.0,85026,414016913346429,25,34.87408447265625,474.5610572025248,0.5571928467233982,25,31872.320566984425,0.0024242938961833715,1575420000,,,,0,,6,,,,,,,,5826501170000
Raw,1694113199000,68624000000,,,-1378148348376188133,0.0,5.465761752229314,61.0,1.0,10,13,0.0,85026,414016916857939,34,31.071199417114258,371.6350036773549,0.7281162996179944,25,24876.25320466179,0.003756033256649971,1575420000,,,,0,,6,,,,,,,,5826501170000
Raw,1694113199000,68624000000,,,-1378148348376188133,0.0,5.465761752229314,61.0,1.0,10,26,0.0,85026,414016922575784,25,35.080535888671875,-95.47424818979437,0.5481300419513317,25,-6624.515464617777,0.0023673512041568756,1575420000,,,,0,,6,,,,,,,,5826501170000
Raw,1694113199000,68624000000,,,-1378148348376188133,0.0,5.465761752229314,61.0,1.0,10,33,0.0,85026,414016913624384,21,36.826595306396484,-440.3644585328195,0.15,25,-29654.127797502082,0.002053694799542427,1575420000,,,,1,,6,,,,,,,,5826501170000
Raw,1694113199000,68624000000,,,-1378148348376188133,0.0,5.465761752229314,61.0,1.0,10,7,0.0,84003,414016922352690,6,26.247556686401367,27.411363107928153,0.9414316716971771,25,1753.0816984525648,0.008614586666226387,1176450000,,,,0,,6,,,,,,,,5826501170000
Raw,1694113199000,68624000000,,,-1378148348376188133,0.0,5.465761752229314,61.0,1.0,10,8,0.0,84003,414016913346347,6,25.870710372924805,474.5772122869166,0.9567580597974805,25,32355.37809467227,0.008996566757559776,1176450000,,,,0,,6,,,,,,,,5826501170000
Raw,1694113199000,68624000000,,,-1378148348376188133,0.0,5.465761752229314,61.0,1.0,10,13,0.0,84003,414016916857877,6,24.139623641967773,371.41046845378264,1.0352346466909967,25,25607.66306227276,0.007764546200633049,1176450000,,,,0,,6,,,,,,,,5826501170000
Raw,1694113199000,68624000000,,,-1378148348376188133,0.0,5.465761752229314,61.0,1.0,10,26,0.0,84003,414016922575717,6,29.633779525756836,-95.45695134310904,0.7891971873888086,25,-5989.600912367574,0.005833420902490616,1176450000,,,,0,,6,,,,,,,,5826501170000
Raw,1694113199000,68624000000,,,-1378148348376188133,0.0,5.465761752229314,61.0,1.0,10,33,0.0,84003,414016913624294,6,22.38665008544922,-440.15352220939985,1.1134822420797503,16,-27935.77237507836,340282346638528860000000000000000000000,1176450000,,,,0,,6,,,,,,,,5826501170000
Raw,1694113200000,69624000000,,,-1378148348376188074,0.0,5.447807538578626,59.0,1.0,10,2,0.0,16431,414017918243811,16,39.97413635253906,-557.7718410924228,0.15,25,-38492.51115644447,0.0014294168213382363,1575420000,,,,0,,1,,,,,,,,5827501088000
Raw,1694113200000,69624000000,,,-1378148348376188074,0.0,5.447807538578626,59.0,1.0,10,8,0.0,16431,414017925479991,12,44.0838737487793,-41.0592674425487,0.15,25,-3025.692787998295,0.000890578143298626,1575420000,,,,0,,1,,,,,,,,5827501088000
Raw,1694113200000,69624000000,,,-1378148348376188074,0.0,5.447807538578626,59.0,1.0,10,10,0.0,16431,414017930591277,13,42.594905853271484,124.22465776066542,0.15,25,8607.987638446635,0.001057110377587378,1575420000,,,,0,,1,,,,,,,,5827501088000
Raw,1694113200000,69624000000,,,-1378148348376188074,0.0,5.447807538578626,59.0,1.0,10,18,0.0,16431,414017921888685,21,36.77642822265625,594.8657212262192,0.15,25,41205.63727834547,0.0020655908156186342,1575420000,,,,0,,1,,,,,,,,5827501088000
Raw,1694113200000,69624000000,,,-1378148348376188074,0.0,5.447807538578626,59.0,1.0,10,21,0.0,16431,414017921795454,26,34.31591796875,-479.27984147302095,0.5816542651139853,25,-30900.794123514363,0.0025851966347545385,1575420000,,,,0,,1,,,,,,,,5827501088000
Raw,1694113200000,69624000000,,,-1378148348376188074,0.0,5.447807538578626,59.0,1.0,10,23,0.0,16431,414017925512417,16,40.11243438720703,428.38849679492137,0.15,25,29672.55845725108,0.0014068374875932932,1575420000,,,,0,,1,,,,,,,,5827501088000
Raw,1694113200000,69624000000,,,-1378148348376188074,0.0,5.447807538578626,59.0,1.0,10,24,0.0,16431,414017920723557,35,30.759441375732422,242.90885434775453,0.7449895785868077,25,16640.00431186193,0.0038932955358177423,1575420000,,,,0,,1,,,,,,,,5827501088000
Raw,1694113200000,69624000000,,,-1378148348376188074,0.0,5.447807538578626,59.0,1.0,10,27,0.0,16431,414017927415311,13,42.43027877807617,394.6446835601216,0.15,25,27207.18238013651,0.001077337539754808,1575420000,,,,0,,1,,,,,,,,5827501088000
Raw,1694113200000,69624000000,,,-1378148348376188074,0.0,5.447807538578626,59.0,1.0,10,28,0.0,16431,414017916964702,21,36.91837692260742,-612.8397181577407,0.15,25,-40688.404672504155,0.002032108139246702,1575420000,,,,0,,1,,,,,,,,5827501088000
Raw,1694113200000,69624000000,,,-1378148348376188074,0.0,5.447807538578626,59.0,1.0,10,32,0.0,16431,414017930511873,14,42.03822326660156,-250.16528200111304,0.15,25,-17472.43429370658,0.0011270794784650207,1575420000,,,,0,,1,,,,,,,,5827501088000
Raw,1694113200000,69624000000,,,-1378148348376188074,0.0,5.447807538578626,59.0,1.0,10,8,0.0,81921,414017925479909,6,34.231327056884766,-41.10501888012351,0.5793754668051077,25,-2008.9524925984879,0.003435941878706217,1176450000,,,,0,,1,,,,,,,,5827501088000
Raw,1694113200000,69624000000,,,-1378148348376188074,0.0,5.447807538578626,59.0,1.0,10,10,0.0,81921,414017930591206,6,38.01059341430664,124.15487393093497,0.15,25,9496.671152493123,0.002358624478802085,1176450000,,,,0,,1,,,,,,,,5827501088000
Raw,1694113200000,69624000000,,,-1378148348376188074,0.0,5.447807538578626,59.0,1.0,10,18,0.0,81921,414017921888578,6,30.12814712524414,594.9948255715276,0.7632449277945401,25,41720.3628936392,0.005510677583515644,1176450000,,,,0,,1,,,,,,,,5827501088000
Raw,1694113200000,69624000000,,,-1378148348376188074,0.0,5.447807538578626,59.0,1.0,10,23,0.0,81921,414017925512321,6,29.828632354736328,428.3895874335301,0.7773655158607533,25,30381.701480724787,0.005704015959054232,1176450000,,,,0,,1,,,,,,,,5827501088000
Raw,1694113200000,69624000000,,,-1378148348376188074,0.0,5.447807538578626,59.0,1.0,10,24,0.0,81921,414017920723514,6,24.060667037963867,242.83210065566516,1.0394805086527046,25,17445.688318579265,0.00783545058220625,1176450000,,,,0,,1,,,,,,,,5827501088000
Raw,1694113200000,69624000000,,,-1378148348376188074,0.0,5.447807538578626,59.0,1.0,10,27,0.0,81921,414017927415235,6,32.06426239013672,394.68970648518825,0.6771741438551415,25,27892.961345897576,0.0044096000492572784,1176450000,,,,0,,1,,,,,,,,5827501088000
Raw,1694113200000,69624000000,,,-1378148348376188074,0.0,5.447807538578626,59.0,1.0,10,28,0.0,81921,414017916964540,6,25.689104080200195,-612.8396499928276,0.965575430942204,25,-41914.40261071656,0.0064959414303302765,1176450000,,,,0,,1,,,,,,,,5827501088000
Raw,1694113200000,69624000000,,,-1378148348376188074,0.0,5.447807538578626,59.0,1.0,10,32,0.0,81921,414017930511795,6,30.128347396850586,-250.09307831696947,0.7647870258176015,25,-16293.111600853437,0.005510550923645496,1176450000,,,,0,,1,,,,,,,,5827501088000
Raw,1694113200000,69624000000,,,-1378148348376188074,0.0,5.447807538578626,59.0,1.0,10,2,0.0,32867,79199928061220,86,28.284154891967773,-506.5676535459004,0.8540228185027687,17,-35104.106416437644,0.09879808935881049,1599750000,,,,0,,3,,,,,,,,5827501088000
Raw,1694113200000,69624000000,,,-1378148348376188074,0.0,5.447807538578626,59.0,1.0,10,1,0.0,32995,79199935659928,57,33.386661529541016,97.87428365444589,0.625935697049353,17,6722.92826929289,0.09636372029148826,1602562600,,,,0,,3,,,,,,,,5827501088000
Raw,1694113200000,69624000000,,,-1378148348376188074,0.0,5.447807538578626,59.0,1.0,10,24,0.0,32995,79199935912498,51,34.65596008300781,-146.74276637300363,0.5689022341252183,25,-10404.13805929786,0.0024429832119494677,1603125000,,,,0,,3,,,,,,,,5827501088000
Raw,1694113200000,69624000000,,,-1378148348376188074,0.0,5.447807538578626,59.0,1.0,10,23,0.0,32867,79199931355119,98,26.657014846801758,590.4488393556021,0.9277859747341548,21,40665.85408978985,0.09960332103187956,1603687600,,,,0,,3,,,,,,,,5827501088000
Raw,1694113200000,69624000000,,,-1378148348376188074,0.0,5.447807538578626,59.0,1.0,10,17,0.0,32995,79199925259894,37,38.628780364990234,-724.8892022221321,0.15,25,-50552.556735615915,0.0016388945514336228,1604250000,,,,0,,3,,,,,,,,5827501088000
Raw,1694113200000,69624000000,,,-1378148348376188074,0.0,5.447807538578626,59.0,1.0,10,8,0.0,32995,79199927308077,64,31.922517776489258,649.4583866002395,0.6902742552446073,25,45352.03753548116,0.0033418224193155766,1605375000,,,,0,,3,,,,,,,,5827501088000
Raw,1694113200000,69624000000,,,-1378148348376188074,0.0,5.447807538578626,59.0,1.0,10,195,0.0,16384,414017853747900,1000000000,15.251752853393555,40.472030976967744,299792458,16,2689.513762679715,340282346638528860000000000000000000000,1575420000,,,,1,,4,,,,,,,,5827501088000
Raw,1694113200000,69624000000,,,-1378148348376188074,0.0,5.447807538578626,59.0,1.0,10,195,0.0,16384,414017853747798,1000000000,10.760000228881836,40.40203839219109,299792458,16,6576.978343755971,340282346638528860000000000000000000000,1176450000,,,,0,,4,,,,,,,,5827501088000
Raw,1694113200000,69624000000,,,-1378148348376188074,0.0,5.447807538578626,59.0,1.0,10,7,0.0,85026,414017922352666,27,33.911720275878906,27.547373410989493,0.6006502420781099,25,1869.3230081602808,0.0027083419263362885,1575420000,,,,0,,6,,,,,,,,5827501088000
Raw,1694113200000,69624000000,,,-1378148348376188074,0.0,5.447807538578626,59.0,1.0,10,8,0.0,85026,414017913344842,27,33.820091247558594,474.6588056878322,0.6045894950657082,25,32346.912445800255,0.00273706391453743,1575420000,,,,0,,6,,,,,,,,5827501088000
Raw,1694113200000,69624000000,,,-1378148348376188074,0.0,5.447807538578626,59.0,1.0,10,13,0.0,85026,414017916856712,35,30.795345306396484,371.8796134678191,0.7405210490136374,25,25248.05452917203,0.0038772353436797857,1575420000,,,,0,,6,,,,,,,,5827501088000
Raw,1694113200000,69624000000,,,-1378148348376188074,0.0,5.447807538578626,59.0,1.0,10,26,0.0,85026,414017922576107,24,35.53623962402344,-95.33182612459967,0.5276376654141515,25,-6719.934325888919,0.0022463505156338215,1575420000,,,,0,,6,,,,,,,,5827501088000
Raw,1694113200000,69624000000,,,-1378148348376188074,0.0,5.447807538578626,59.0,1.0,10,33,0.0,85026,414017913625843,21,36.78385543823242,-440.3780574329721,0.15,25,-30094.4619003377,0.0020638257265090942,1575420000,,,,0,,6,,,,,,,,5827501088000
Raw,1694113200000,69624000000,,,-1378148348376188074,0.0,5.447807538578626,59.0,1.0,10,7,0.0,84003,414017922352598,6,26.015457153320312,27.54284044427196,0.9518688914689046,25,1780.55001398331,0.008847885765135288,1176450000,,,,0,,6,,,,,,,,5827501088000
Raw,1694113200000,69624000000,,,-1378148348376188074,0.0,5.447807538578626,59.0,1.0,10,8,0.0,84003,414017913344768,6,25.106632232666016,474.3896906111281,0.9911175028468366,25,32829.96177881509,0.009823828935623169,1176450000,,,,0,,6,,,,,,,,5827501088000
Raw,1694113200000,69624000000,,,-1378148348376188074,0.0,5.447807538578626,59.0,1.0,10,13,0.0,84003,414017916856636,6,21.5743350982666,371.6282212685069,1.1505927118492592,16,25979.177332362135,340282346638528860000000000000000000000,1176450000,,,,0,,6,,,,,,,,5827501088000
Raw,1694113200000,69624000000,,,-1378148348376188074,0.0,5.447807538578626,59.0,1.0,10,26,0.0,84003,414017922576035,6,28.928178787231445,-95.46051295981567,0.8209272887385661,25,-6085.030405221405,0.0063270810060203075,1176450000,,,,0,,6,,,,,,,,5827501088000
Raw,1694113200000,69624000000,,,-1378148348376188074,0.0,5.447807538578626,59.0,1.0,10,33,0.0,84003,414017913625760,6,24.38054656982422,-440.39155408575516,1.0238192870439837,25,-28375.97356592244,0.007552139461040497,1176450000,,,,0,,6,,,,,,,,5827501088000
Raw,1694113201000,70624000000,,,-1378148348376188016,0.0,5.428070309911777,59.0,1.0,10,2,0.0,16431,414018918245679,16,40.03934860229492,-558.2990966948307,0.15,25,-39050.58624479755,0.0014187252381816506,1575420000,,,,0,,1,,,,,,,,5828501163000
Raw,1694113201000,70624000000,,,-1378148348376188016,0.0,5.428070309911777,59.0,1.0,10,8,0.0,16431,414018925480126,13,42.55392837524414,-41.54860631207495,0.15,25,-3067.055694736315,0.001062109600752592,1575420000,,,,0,,1,,,,,,,,5828501163000
Raw,1694113201000,70624000000,,,-1378148348376188016,0.0,5.428070309911777,59.0,1.0,10,10,0.0,16431,414018930590882,15,40.72713851928711,123.61867168368985,0.15,25,8731.813748948494,0.0013107164995744824,1575420000,,,,0,,1,,,,,,,,5828501163000
Raw,1694113201000,70624000000,,,-1378148348376188016,0.0,5.428070309911777,59.0,1.0,10,18,0.0,16431,414018921886699,20,37.7571907043457,594.3801143856822,0.15,25,41800.178172815286,0.0018450416391715407,1575420000,,,,0,,1,,,,,,,,5828501163000
Raw,1694113201000,70624000000,,,-1378148348376188016,0.0,5.428070309911777,59.0,1.0,10,21,0.0,16431,414018921797061,26,34.61779022216797,-479.7969064209285,0.5680795954578182,25,-31380.405653619724,0.0024968930520117283,1575420000,,,,0,,1,,,,,,,,5828501163000
Raw,1694113201000,70624000000,,,-1378148348376188016,0.0,5.428070309911777,59.0,1.0,10,23,0.0,16431,414018925510994,20,37.84877395629883,427.87944122429667,0.15,25,30100.631928017105,0.0018256899202242494,1575420000,,,,0,,1,,,,,,,,5828501163000
Raw,1694113201000,70624000000,,,-1378148348376188016,0.0,5.428070309911777,59.0,1.0,10,24,0.0,16431,414018920722737,42,28.67790985107422,242.64887336939853,0.8385935839272158,16,16882.62106156587,340282346638528860000000000000000000000,1575420000,,,,0,,1,,,,,,,,5828501163000
Raw,1694113201000,70624000000,,,-1378148348376188016,0.0,5.428070309911777,59.0,1.0,10,27,0.0,16431,414018927413990,14,41.694576263427734,394.18630860234634,0.15,25,27601.55091383161,0.0011725648073479533,1575420000,,,,0,,1,,,,,,,,5828501163000
Raw,1694113201000,70624000000,,,-1378148348376188016,0.0,5.428070309911777,59.0,1.0,10,28,0.0,16431,414018916966719,21,36.873348236083984,-613.3478194195827,0.15,25,-41301.5672401694,0.0020426707342267036,1575420000,,,,0,,1,,,,,,,,5828501163000
Raw,1694113201000,70624000000,,,-1378148348376188016,0.0,5.428070309911777,59.0,1.0,10,32,0.0,16431,414018930512703,14,41.6146354675293,-250.57600968466943,0.15,25,-17722.837095211144,0.0011834065662696958,1575420000,,,,0,,1,,,,,,,,5828501163000
Raw,1694113201000,70624000000,,,-1378148348376188016,0.0,5.428070309911777,59.0,1.0,10,8,0.0,81921,414018925480046,6,34.18815612792969,-41.52051810759309,0.5813168354809499,25,-2050.306952136693,0.0034530628472566605,1176450000,,,,0,,1,,,,,,,,5828501163000
Raw,1694113201000,70624000000,,,-1378148348376188016,0.0,5.428070309911777,59.0,1.0,10,10,0.0,81921,414018930590793,6,37.95171356201172,123.63508238650559,0.15,25,9620.519535003088,0.0023746672086417675,1176450000,,,,0,,1,,,,,,,,5828501163000
Raw,1694113201000,70624000000,,,-1378148348376188016,0.0,5.428070309911777,59.0,1.0,10,18,0.0,81921,414018921886594,6,29.715911865234375,594.3972919437697,0.7817823226434584,25,42314.91076536919,0.00577852176502347,1176450000,,,,0,,1,,,,,,,,5828501163000
Raw,1694113201000,70624000000,,,-1378148348376188016,0.0,5.428070309911777,59.0,1.0,10,23,0.0,81921,414018925510889,6,29.75955581665039,427.7948826496636,0.7804716125478839,25,30809.76267323479,0.0057495590299367905,1176450000,,,,0,,1,,,,,,,,5828501163000
Raw,1694113201000,70624000000,,,-1378148348376188016,0.0,5.428070309911777,59.0,1.0,10,24,0.0,81921,414018920722705,6,23.854087829589844,242.44589529957693,1.048770108208703,25,17688.38527339202,0.00802403874695301,1176450000,,,,0,,1,,,,,,,,5828501163000
Raw,1694113201000,70624000000,,,-1378148348376188016,0.0,5.428070309911777,59.0,1.0,10,27,0.0,81921,414018927413920,6,31.677013397216797,394.2165397412821,0.6945880824174671,25,28287.323513223586,0.004610645119100809,1176450000,,,,0,,1,,,,,,,,5828501163000
Raw,1694113201000,70624000000,,,-1378148348376188016,0.0,5.428070309911777,59.0,1.0,10,28,0.0,81921,414018916966580,6,26.421588897705078,-613.5458384919802,0.9326368002991425,25,-42527.59636697362,0.008443702012300491,1176450000,,,,0,,1,,,,,,,,5828501163000
Raw,1694113201000,70624000000,,,-1378148348376188016,0.0,5.428070309911777,59.0,1.0,10,32,0.0,81921,414018930512631,6,30.493757247924805,-250.6208792386817,0.7483550880338394,25,-16543.52696118168,0.005283534061163664,1176450000,,,,0,,1,,,,,,,,5828501163000
Raw,1694113201000,70624000000,,,-1378148348376188016,0.0,5.428070309911777,59.0,1.0,10,2,0.0,32867,79200928062900,69,31.110496520996094,-506.87374808793174,0.7269256769278245,17,-35610.851868809805,0.09738199615464002,1599750000,,,,0,,3,,,,,,,,5828501163000
Raw,1694113201000,70624000000,,,-1378148348376188016,0.0,5.428070309911777,59.0,1.0,10,1,0.0,32995,79200935659602,58,33.1558723449707,97.44524517112262,0.6363140713297404,17,6820.53299269784,0.09643988012635002,1602562600,,,,0,,3,,,,,,,,5828501163000
Raw,1694113201000,70624000000,,,-1378148348376188016,0.0,5.428070309911777,59.0,1.0,10,24,0.0,32995,79200935913004,58,33.28785705566406,-147.16743378127785,0.6304243965137859,25,-10551.132145405432,0.0028597337659448385,1603125000,,,,0,,3,,,,,,,,5828501163000
Raw,1694113201000,70624000000,,,-1378148348376188016,0.0,5.428070309911777,59.0,1.0,10,23,0.0,32867,79200931353110,110,25.28297996520996,590.2142157248991,0.9895744063143068,21,41256.073813095674,0.10065456302950897,1603687600,,,,0,,3,,,,,,,,5828501163000
Raw,1694113201000,70624000000,,,-1378148348376188016,0.0,5.428070309911777,59.0,1.0,10,17,0.0,32995,79200925262321,35,39.47799301147461,-725.3960083506263,0.15,25,-51277.74223476387,0.001486244727857411,1604250000,,,,0,,3,,,,,,,,5828501163000
Raw,1694113201000,70624000000,,,-1378148348376188016,0.0,5.428070309911777,59.0,1.0,10,8,0.0,32995,79200927305943,61,32.6579704284668,648.9384928084405,0.6572014914962852,25,46001.155921532045,0.003070512553676963,1605375000,,,,0,,3,,,,,,,,5828501163000
Raw,1694113201000,70624000000,,,-1378148348376188016,0.0,5.428070309911777,59.0,1.0,10,195,0.0,16384,414018853747770,1000000000,15.036788940429688,39.915076774007304,299792458,16,2729.060904689377,340282346638528860000000000000000000000,1575420000,,,,1,,4,,,,,,,,5828501163000
Raw,1694113201000,70624000000,,,-1378148348376188016,0.0,5.428070309911777,59.0,1.0,10,195,0.0,16384,414018853747667,1000000000,10.760000228881836,40.40203839219109,299792458,16,6616.76690646427,340282346638528860000000000000000000000,1176450000,,,,0,,4,,,,,,,,5828501163000
Raw,1694113201000,70624000000,,,-1378148348376188016,0.0,5.428070309911777,59.0,1.0,10,7,0.0,85026,414018922352570,29,32.862972259521484,27.11598323816615,0.6478111756185698,25,1896.5447690032236,0.0030559119768440723,1575420000,,,,0,,6,,,,,,,,5828501163000
Raw,1694113201000,70624000000,,,-1378148348376188016,0.0,5.428070309911777,59.0,1.0,10,8,0.0,85026,414018913343253,33,31.40701675415039,474.16140631733833,0.7131022452794196,25,32821.1961259872,0.0036135877016931772,1575420000,,,,0,,6,,,,,,,,5828501163000
Raw,1694113201000,70624000000,,,-1378148348376188016,0.0,5.428070309911777,59.0,1.0,10,13,0.0,85026,414018916855471,47,27.09813690185547,371.3281934037366,0.906780064777355,29,25619.487080943924,0.005934477783739567,1575420000,,,,0,,6,,,,,,,,5828501163000
Raw,1694113201000,70624000000,,,-1378148348376188016,0.0,5.428070309911777,59.0,1.0,10,26,0.0,85026,414018922576424,23,35.71820831298828,-95.85598022346397,0.5194547804693248,25,-6815.623043271658,0.002199779264628887,1575420000,,,,0,,6,,,,,,,,5828501163000
Raw,1694113201000,70624000000,,,-1378148348376188016,0.0,5.428070309911777,59.0,1.0,10,33,0.0,85026,414018913627321,20,37.4363899230957,-440.9055856950322,0.15,25,-30535.117642054716,0.0019144596299156547,1575420000,,,,0,,6,,,,,,,,5828501163000
Raw,1694113201000,70624000000,,,-1378148348376188016,0.0,5.428070309911777,59.0,1.0,10,7,0.0,84003,414018922352510,6,25.918542861938477,26.942094544986773,0.9562269858948653,25,1807.747927368051,0.008947161026299,1176450000,,,,0,,6,,,,,,,,5828501163000
Raw,1694113201000,70624000000,,,-1378148348376188016,0.0,5.428070309911777,59.0,1.0,10,8,0.0,84003,414018913343184,6,27.367761611938477,474.12858491170687,0.8894366875507993,25,33304.25538044001,0.007572237402200699,1176450000,,,,0,,6,,,,,,,,5828501163000
Raw,1694113201000,70624000000,,,-1378148348376188016,0.0,5.428070309911777,59.0,1.0,10,13,0.0,84003,414018916855396,6,25.24582862854004,371.09104767125086,0.9854895040789118,25,26350.713757478403,0.006836059037595987,1176450000,,,,0,,6,,,,,,,,5828501163000
Raw,1694113201000,70624000000,,,-1378148348376188016,0.0,5.428070309911777,59.0,1.0,10,26,0.0,84003,414018922576353,6,27.198999404907227,-96.11573966585257,0.8986866129972517,25,-6180.733903100522,0.007720801047980785,1176450000,,,,0,,6,,,,,,,,5828501163000
Raw,1694113201000,70624000000,,,-1378148348376188016,0.0,5.428070309911777,59.0,1.0,10,33,0.0,84003,414018913627227,6,22.230924606323242,-441.08363244790735,1.120485521222209,25,-28816.667410220845,0.009672775864601135,1176450000,,,,0,,6,,,,,,,,5828501163000
Raw,1694113202000,71624000000,,,-1378148348376187959,0.0,5.427790769421955,57.0,1.0,10,2,0.0,16431,414019918247541,17,39.31547927856445,-558.2052336095669,0.15,25,-39608.86853300963,0.0015420264098793268,1575420000,,,,0,,1,,,,,,,,5829501208000
Raw,1694113202000,71624000000,,,-1378148348376187959,0.0,5.427790769421955,57.0,1.0,10,8,0.0,16431,414019925480264,13,42.56393814086914,-41.32879576903815,0.15,25,-3108.507894481633,0.001060886075720191,1575420000,,,,0,,1,,,,,,,,5829501208000
Raw,1694113202000,71624000000,,,-1378148348376187959,0.0,5.427790769421955,57.0,1.0,10,10,0.0,16431,414019930590463,17,39.61029815673828,123.76518364366729,0.15,25,8855.480303591728,0.0014905646676197648,1575420000,,,,0,,1,,,,,,,,5829501208000
Raw,1694113202000,71624000000,,,-1378148348376187959,0.0,5.427790769421955,57.0,1.0,10,18,0.0,16431,414019921884701,19,38.11818313598633,594.455981933902,0.15,25,42394.55318825692,0.0017699317540973425,1575420000,,,,0,,1,,,,,,,,5829501208000
Raw,1694113202000,71624000000,,,-1378148348376187959,0.0,5.427790769421955,57.0,1.0,10,21,0.0,16431,414019921798660,25,34.782657623291016,-479.6837867477293,0.5606659954911279,25,-31860.212421689026,0.002449946478009224,1575420000,,,,0,,1,,,,,,,,5829501208000
Raw,1694113202000,71624000000,,,-1378148348376187959,0.0,5.427790769421955,57.0,1.0,10,23,0.0,16431,414019925509569,19,38.17615509033203,427.96952115688646,0.15,25,30528.498184799028,0.0017581582069396973,1575420000,,,,0,,1,,,,,,,,5829501208000
Raw,1694113202000,71624000000,,,-1378148348376187959,0.0,5.427790769421955,57.0,1.0,10,24,0.0,16431,414019920721942,52,26.027084350585938,241.66251003640014,0.9577981072598094,21,17125.181770748466,0.10186012290705716,1575420000,,,,0,,1,,,,,,,,5829501208000
Raw,1694113202000,71624000000,,,-1378148348376187959,0.0,5.427790769421955,57.0,1.0,10,27,0.0,16431,414019927412684,13,42.39159393310547,394.4009939959835,0.15,25,27995.797055092055,0.001082146423868835,1575420000,,,,0,,1,,,,,,,,5829501208000
Raw,1694113202000,71624000000,,,-1378148348376187959,0.0,5.427790769421955,57.0,1.0,10,28,0.0,16431,414019916968776,26,34.62973403930664,-613.3315961702779,0.5702715900102393,25,-41914.97181567068,0.002644716063514352,1575420000,,,,0,,1,,,,,,,,5829501208000
Raw,1694113202000,71624000000,,,-1378148348376187959,0.0,5.427790769421955,57.0,1.0,10,32,0.0,16431,414019930513544,14,41.61927032470703,-250.40932943104463,0.15,25,-17973.37195834693,0.0011827753623947501,1575420000,,,,0,,1,,,,,,,,5829501208000
Raw,1694113202000,71624000000,,,-1378148348376187959,0.0,5.427790769421955,57.0,1.0,10,8,0.0,81921,414019925480185,6,34.24116516113281,-41.283419238485095,0.5789330605432901,25,-2091.7583440369,0.00343205314129591,1176450000,,,,0,,1,,,,,,,,5829501208000
Raw,1694113202000,71624000000,,,-1378148348376187959,0.0,5.427790769421955,57.0,1.0,10,10,0.0,81921,414019930590380,6,37.59465408325195,123.7145967575733,0.15,25,9744.179323320199,0.0024743196554481983,1176450000,,,,0,,1,,,,,,,,5829501208000
Raw,1694113202000,71624000000,,,-1378148348376187959,0.0,5.427790769421955,57.0,1.0,10,18,0.0,81921,414019921884614,6,29.306785583496094,594.394769841987,0.8001799261667948,25,42909.263739739916,0.006057216785848141,1176450000,,,,0,,1,,,,,,,,5829501208000
Raw,1694113202000,71624000000,,,-1378148348376187959,0.0,5.427790769421955,57.0,1.0,10,23,0.0,81921,414019925509459,6,30.009645462036133,427.9667263954516,0.7692250675683354,25,31237.631182611825,0.005586375016719103,1176450000,,,,0,,1,,,,,,,,5829501208000
Raw,1694113202000,71624000000,,,-1378148348376187959,0.0,5.427790769421955,57.0,1.0,10,24,0.0,81921,414019920721898,6,20.993576049804688,242.60294725923404,1.177404022422877,16,17931.027362028373,340282346638528860000000000000000000000,1176450000,,,,0,,1,,,,,,,,5829501208000
Raw,1694113202000,71624000000,,,-1378148348376187959,0.0,5.427790769421955,57.0,1.0,10,27,0.0,81921,414019927412603,6,32.14533615112305,394.3736257833957,0.6735277869782861,25,28681.560764856178,0.004368632100522518,1176450000,,,,0,,1,,,,,,,,5829501208000
Raw,1694113202000,71624000000,,,-1378148348376187959,0.0,5.427790769421955,57.0,1.0,10,28,0.0,81921,414019916968629,6,24.728147506713867,-613.2767915801892,1.0087893231212117,25,-43140.96856998024,0.010261360555887222,1176450000,,,,0,,1,,,,,,,,5829501208000
Raw,1694113202000,71624000000,,,-1378148348376187959,0.0,5.427790769421955,57.0,1.0,10,32,0.0,81921,414019930513465,6,29.804489135742188,-250.5097022655043,0.7793508855205049,25,-16794.05790841,0.005719893146306276,1176450000,,,,0,,1,,,,,,,,5829501208000
Raw,1694113202000,71624000000,,,-1378148348376187959,0.0,5.427790769421955,57.0,1.0,10,2,0.0,32995,79201928064604,71,30.68521499633789,-506.7666950919936,0.7460504616133781,17,-36117.73871081122,0.09756677288175017,1599750000,,,,0,,3,,,,,,,,5829501208000
Raw,1694113202000,71624000000,,,-1378148348376187959,0.0,5.427790769421955,57.0,1.0,10,1,0.0,32995,79201935659287,60,32.80347442626953,97.63309915086222,0.6521608825649956,17,6918.024213929162,0.09656014390588591,1602562600,,,,0,,3,,,,,,,,5829501208000
Raw,1694113202000,71624000000,,,-1378148348376187959,0.0,5.427790769421955,57.0,1.0,10,24,0.0,32995,79201935913469,59,33.007171630859375,-146.90075560021512,0.6430465547043576,25,-10698.179080341557,0.0029536562506109476,1603125000,,,,0,,3,,,,,,,,5829501208000
Raw,1694113202000,71624000000,,,-1378148348376187959,0.0,5.427790769421955,57.0,1.0,10,23,0.0,32867,79201931351151,130,23.223514556884766,589.5245912996165,1.082185893243084,16,41846.03757888606,340282346638528860000000000000000000000,1603687600,,,,0,,3,,,,,,,,5829501208000
Raw,1694113202000,71624000000,,,-1378148348376187959,0.0,5.427790769421955,57.0,1.0,10,17,0.0,32995,79201925264736,36,39.066368103027344,-725.2911025494491,0.15,25,-52003.12051575455,0.001558373449370265,1604250000,,,,0,,3,,,,,,,,5829501208000
Raw,1694113202000,71624000000,,,-1378148348376187959,0.0,5.427790769421955,57.0,1.0,10,8,0.0,32995,79201927303718,54,34.12821578979492,649.0068622162253,0.5910857861490983,25,46650.07650857132,0.0025923794601112604,1605375000,,,,0,,3,,,,,,,,5829501208000
Raw,1694113202000,71624000000,,,-1378148348376187959,0.0,5.427790769421955,57.0,1.0,10,195,0.0,16384,414019853747639,1000000000,14.176591873168945,39.915076774007304,299792458,16,2768.709144910818,340282346638528860000000000000000000000,1575420000,,,,1,,4,,,,,,,,5829501208000
Raw,1694113202000,71624000000,,,-1378148348376187959,0.0,5.427790769421955,57.0,1.0,10,195,0.0,16384,414019853747535,1000000000,10.760000228881836,39.78050645473405,299792458,16,6656.5393761219175,340282346638528860000000000000000000000,1176450000,,,,1,,4,,,,,,,,5829501208000
Raw,1694113202000,71624000000,,,-1378148348376187959,0.0,5.427790769421955,57.0,1.0,10,7,0.0,85026,414019922352487,30,32.52336502075195,27.122458904905486,0.6630829119673005,25,1923.589945334645,0.003177761100232601,1575420000,,,,0,,6,,,,,,,,5829501208000
Raw,1694113202000,71624000000,,,-1378148348376187959,0.0,5.427790769421955,57.0,1.0,10,8,0.0,85026,414019913341679,36,30.546964645385742,474.24466975862356,0.7517775790878702,25,33295.32347274388,0.003989708609879017,1575420000,,,,0,,6,,,,,,,,5829501208000
Raw,1694113202000,71624000000,,,-1378148348376187959,0.0,5.427790769421955,57.0,1.0,10,13,0.0,85026,414019916854207,58,24.615257263183594,371.2621756854519,1.018432128759847,16,25990.868324153354,340282346638528860000000000000000000000,1575420000,,,,0,,6,,,,,,,,5829501208000
Raw,1694113202000,71624000000,,,-1378148348376187959,0.0,5.427790769421955,57.0,1.0,10,26,0.0,85026,414019922576746,21,36.948001861572266,-95.74280942657998,0.15,25,-6911.486712494754,0.0019093671580776572,1575420000,,,,0,,6,,,,,,,,5829501208000
Raw,1694113202000,71624000000,,,-1378148348376187959,0.0,5.427790769421955,57.0,1.0,10,33,0.0,85026,414019913628788,19,37.90764617919922,-440.74867006520117,0.15,25,-30975.97988481523,0.0018133575795218349,1575420000,,,,0,,6,,,,,,,,5829501208000
Raw,1694113202000,71624000000,,,-1378148348376187959,0.0,5.427790769421955,57.0,1.0,10,7,0.0,84003,414019922352420,6,25.991626739501953,27.219189176824287,0.9529405583977342,25,1834.8196626456183,0.008872193284332752,1176450000,,,,0,,6,,,,,,,,5829501208000
Raw,1694113202000,71624000000,,,-1378148348376187959,0.0,5.427790769421955,57.0,1.0,10,8,0.0,84003,414019913341605,6,26.711956024169922,474.2049636967745,0.9189273318647357,25,33778.36221910464,0.008166097104549408,1176450000,,,,0,,6,,,,,,,,5829501208000
Raw,1694113202000,71624000000,,,-1378148348376187959,0.0,5.427790769421955,57.0,1.0,10,13,0.0,84003,414019916854157,6,24.6281795501709,371.3471773320198,1.0132641765876822,25,26722.05424734138,0.007339869160205126,1176450000,,,,0,,6,,,,,,,,5829501208000
Raw,1694113202000,71624000000,,,-1378148348376187959,0.0,5.427790769421955,57.0,1.0,10,26,0.0,84003,414019922576678,6,26.902748107910156,-95.68437505487162,0.9120087928924989,25,-6276.564128329561,0.00798867829144001,1176450000,,,,0,,6,,,,,,,,5829501208000
Raw,1694113202000,71624000000,,,-1378148348376187959,0.0,5.427790769421955,57.0,1.0,10,33,0.0,84003,414019913628695,6,21.091875076293945,-440.8023499342246,1.171707592472715,25,-29257.514543735164,0.011028173379600048,1176450000,,,,0,,6,,,,,,,,5829501208000
