     3.03           OBSERVATION DATA    M                   RINEX VERSION / TYPE
GnssLogger          Google 14           20231107 234315 UTC PGM / RUN BY / DATE
Google GnssLogger                                           MARKER NAME
Unknown                                                     MARKER NUMBER
Unknown             Unknown                                 OBSERVER / AGENCY
Unknown             GnssLogger          v3.0.6.4            REC # / TYPE / VERS
Unknown             Unknown                                 ANT # / TYPE
        0.0000        0.0000        0.0000                  ANTENNA: DELTA H/E/N
G    8 C1C L1C D1C S1C C5Q L5Q D5Q S5Q                      SYS / # / OBS TYPES
R    4 C1C L1C D1C S1C                                      SYS / # / OBS TYPES
E    8 C1C L1C D1C S1C C5Q L5Q D5Q S5Q                      SYS / # / OBS TYPES
  2023    11    07    23    43   15.0000000     GPS         TIME OF FIRST OBS
 6 R01  1 R02 -4 R03  5 R12 -1 R13 -2 R21  4                GLONASS SLOT / FRQ #
G L1C                                                       SYS / PHASE SHIFT
G L5Q  0.00000                                              SYS / PHASE SHIFT
R L1C                                                       SYS / PHASE SHIFT
E L1C  0.00000                                              SYS / PHASE SHIFT
E L5Q  0.00000                                              SYS / PHASE SHIFT
 C1C    0.000 C1P    0.000 C2C    0.000 C2P    0.000        GLONASS COD/PHS/BIS
                                                            END OF HEADER
> 2023 11 07 23 43 15.0002755  0 19                      
G04  23440243.75725    150559.52625     -3537.65625        29.97225                                                                
G05  24248520.49923    -36865.24323      1154.22023        18.04423                                                                
G07  20928656.89226     -2313.66426        51.62926        39.16326                                                                
G08  21969142.67927     -9916.83327       212.34427        43.95227  21968977.79325     -7944.84425       158.14125        31.83125
G09  21068332.89724    105392.76224     -2413.23924        29.49124  21068169.21024     84218.04224     -1801.44524        26.72224
G14  22109629.32227   -109815.80827      2495.73527        43.14327  22109467.13425    -87781.82025      1863.59125        30.91025
G20  23247562.04826     35654.88326      -822.45926        37.91426                                                                
G22  23381007.16626   -131328.10226      2990.39926        40.95826                                                                
G27  23576171.45625     87887.52125     -2025.37525        32.55025  23576009.26825     70618.60925     -1512.81225        34.02825
G30  21623713.11524    -60596.02624      1377.49424        25.84024  21623535.03824    -48432.53324      1028.89524        28.50224
R02  19450202.20526     77193.43726     -1781.83026        39.39726
R13  20040358.64825    -32536.33125       735.67625        32.79625
R12  20165202.72126     94690.95926     -2166.93426        38.89226
R01  22749616.96824    203200.08424     -4580.72624        25.96124
R21  23676554.56223    -36165.17123       815.61823        22.34823
R03  20581345.83125   -105787.79225      2409.24125        31.75825
E07  24225409.19824     86587.65624     -1924.08024        26.82224  24225255.10524     65781.07524     -1436.43324        28.35924
E27  23311805.47325     -2005.32525        51.66325        33.95825                                                                
E30  25352017.86325    104594.58325     -2353.86825        31.88525                                                                
> 2023 11 07 23 43 16.0002754  0 19                      
G04  23440891.00924    154096.59224     -3537.71324        27.90924                                                                
G05  24248271.97123    -38021.22023      1153.88923        20.24423                                                                
G07  20928616.42026     -2363.82626        49.88026        37.31226                                                                
G08  21969071.02927    -10129.07627       211.80427        44.19127  21968907.34225     -8103.17725       158.59925        30.21125
G09  21068758.90225    107803.71225     -2411.50525        30.24525  21068593.71624     86018.19124     -1800.67124        26.10524
G14  22109123.87227   -112310.87027      2495.61427        42.70527  22108961.68424    -89645.07224      1863.15724        27.49424
G20  23247685.56226     36478.08426      -821.93726        37.72326                                                                
G22  23380409.97926   -134317.44326      2989.46226        40.99126                                                                
G27  23576522.51325     89913.01125     -2024.70525        33.38625  23576364.22325     72131.43825     -1513.46825        32.47025
G30  21623421.11724    -61973.58124      1377.88224        25.39424  21623242.74124    -49461.64024      1029.39424        29.23524
R02  19450501.69826     78975.22426     -1782.48726        38.07126
R13  20040198.55925    -33271.32525       736.08325        32.82525
R12  20165581.35926     96859.46826     -2168.11726        39.17926
R01  22750436.60024    207776.63324     -4576.46524        28.38824
R21  23676380.68323    -36984.67823       814.99023        22.89423
R03  20580864.66425   -108197.42825      2408.61625        31.72525
E07  24225745.26625     88510.70425     -1923.35125        29.77325  24225591.47224     67217.24024     -1435.45624        29.10524
E27  23311764.10225     -2057.44525        51.90125        32.76525                                                                
E30  25352435.77425    106947.03825     -2352.90625        32.80925                                                                
> 2023 11 07 23 43 17.0002752  0 19                      
G04  23441506.18324    157633.53424     -3537.06724        28.29124                                                                
G05  24247992.86422    -39173.01322      1154.14622        16.51022                                                                
G07  20928543.87126     -2413.28226        49.08926        38.55726                                                                
G08  21968969.39927    -10340.46627       211.45227        42.56727  21968806.61224     -8264.73524       158.08524        28.10424
G09  21069160.32425    110214.65225     -2410.85925        32.33725  21068993.04024     87819.43224     -1800.82824        27.13524
G14  22108589.64227   -114804.88327      2492.90227        42.26627  22108426.55524    -91507.88724      1862.37224        29.14124
G20  23247784.49426     37302.51526      -824.32426        38.24926                                                                
G22  23379783.11326   -137306.21326      2989.60326        40.46626                                                                
G27  23576848.08825     91938.74325     -2024.81125        33.66425  23576689.19825     73645.13925     -1513.14025        34.57725
G30  21623091.94524    -63350.24424      1376.03724        26.63224  21622920.16425    -50489.98725      1028.55925        29.79725
R02  19450782.30426     80757.95626     -1782.42926        38.86926
R13  20039998.59825    -34006.61125       735.57925        33.37125
R12  20165917.12626     99028.92826     -2168.86126        38.43826
R01  22751226.85325    212351.15125     -4575.91425        29.57025
R21  23676168.72924    -37803.74124       815.51024        24.00124
R03  20580346.62325   -110606.68825      2409.33125        31.23725
E07  24226051.05425     90434.31925     -1923.06725        29.66725  24225896.66125     68653.04725     -1435.59425        30.59125
E27  23311696.04925     -2110.11025        52.06325        34.32525  23311534.46123     -2146.88423        39.01523        22.00423
E30  25352822.20625    109299.88325     -2352.26725        32.73825                                                                
> 2023 11 07 23 43 18.0002751  0 19                      
G04  23442149.53825    161171.35125     -3537.46025        30.75925                                                                
G05  24247741.63823    -40323.43823      1153.92023        20.07523                                                                
G07  20928502.79926     -2462.73826        50.30326        37.06626                                                                
G08  21968899.84727    -10550.66127       210.17627        41.70127  21968735.26125     -8428.20125       157.70325        29.89025
G09  21069589.32725    112626.36925     -2411.24825        32.91225  21069421.74325     89620.81725     -1801.10625        30.70625
G14  22108083.89227   -117297.43027      2491.48427        42.04827  22107922.60425    -93370.13725      1862.47525        31.31625
G20  23247911.90526     38128.78026      -826.75526        37.96626                                                                
G22  23379181.13026   -140293.36126      2987.03026        40.27026                                                                
G27  23577205.74025     93965.96625     -2026.13825        33.77225  23577044.75225     75159.62825     -1514.18225        34.01725
G30  21622796.94924    -64726.83224      1376.23624        29.07424  21622627.56625    -51518.09225      1028.42825        29.75225
R02  19451092.58926     82541.20426     -1783.04726        37.79626
R13  20039834.61125    -34740.56225       734.65525        33.81025
R12  20166306.55626    101199.17526     -2170.59626        37.62126
R01  22752050.38324    216927.94824     -4577.43024        28.37324
R21  23675986.15623    -38619.44823       814.88923        22.33823
R03  20579862.45825   -113015.25825      2408.96125        31.07225
E07  24226388.62025     92357.90225     -1923.26825        30.33425  24226232.42825     70089.94025     -1436.27025        31.76325
E27  23311657.37525     -2161.99625        51.93725        34.95225  23311493.38924     -2185.21724        38.53824        26.36124
E30  25353240.11725    111652.50025     -2352.05825        33.15225                                                                
> 2023 11 07 23 43 19.0002750  0 20                      
G04  23442793.79225    164709.23325     -3537.65025        30.20825                                                                
G05  24247494.00923    -41473.75123      1151.53023        18.23023                                                                
G07  20928462.32725     -2512.48725        50.86525        35.42025                                                                
G08  21968828.49727    -10760.08227       209.34527        43.70627  21968664.21024     -8591.34124       156.76024        28.96424
G09  21070017.43025    115039.35325     -2413.32625        33.30925  21069851.04625     91422.09725     -1801.55425        31.82825
G14  22107578.74227   -119790.41727      2492.88327        41.73227  22107418.05325    -95232.52025      1862.23525        31.51525
G20  23248038.11826     38955.65526      -826.95726        38.49526                                                                
G22  23378584.84226   -143280.41626      2986.89426        39.75326                                                                
G27  23577559.49525     95994.21325     -2028.51725        33.96325  23577400.00625     76674.28625     -1514.92425        32.54325
G30  21622502.55324    -66103.57724      1377.72124        28.29124  21622336.16825    -52546.09925      1027.65925        30.51925
R02  19451393.28126     84325.71226     -1785.50426        36.90326
R13  20039672.12425    -35472.86425       731.65925        34.05625
R12  20166688.79226    103369.23626     -2168.65726        38.84326
R01  22752863.12124    221506.26024     -4578.00124        28.84524
R21  23675792.19023    -39433.80123       814.29223        22.49823
R03  20579375.89525   -115422.30925      2406.98725        30.04725
E07  24226725.28725     94281.99225     -1923.80125        31.23125  24226568.19625     71526.56125     -1436.60725        33.07425
E19  27009725.05622   -106366.67722      2377.59722        16.28122                                                                
E27  23311618.40225     -2213.35425        51.61125        34.78225  23311454.41624     -2223.79824        38.18824        24.43524
E30  25353655.03025    114005.46425     -2352.38325        32.79125                                                                
> 2023 11 07 23 43 20.0002748  0 19                      
G04  23443401.47124    168247.30224     -3537.92324        28.02824                                                                
G07  20928390.07725     -2561.08425        48.94325        35.40025                                                                
G08  21968729.86527    -10968.59227       208.16627        44.47427  21968564.37925     -8749.87925       155.55825        31.16725
G09  21070416.15425    117453.26825     -2414.84225        32.73425  21070250.96925     93224.46025     -1802.10925        30.95825
G14  22107043.61227   -122283.24327      2493.84827        42.09227  22106882.02425    -97094.05925      1861.50625        31.08725
G20  23248132.85326     39782.33126      -826.56926        37.81926                                                                
G22  23377953.18026   -146266.90926      2985.81426        39.38226                                                                
G27  23577885.37026     98024.17426     -2030.55926        35.50726  23577726.77925     78189.84725     -1515.44925        33.78125
G30  21622182.67424    -67480.52024      1378.87324        28.17524  21622014.19125    -53573.36125      1027.35125        32.36225
R02  19451659.79626     86112.50126     -1787.78026        37.58726
R13  20039476.05925    -36204.37825       730.96825        33.91625
R12  20167042.84726    105539.59726     -2169.12526        40.39926
R01  22753672.56024    226085.24124     -4578.68424        29.13024
R21  23675580.23723    -40247.23023       814.76923        19.04023
R03  20578868.04625   -117827.77225      2404.35025        30.01325
E07  24227032.27525     96207.16425     -1924.81725        29.95925  24226873.68425     72964.22225     -1437.31325        32.47925
E19  27009201.61922   -108744.32622      2377.47022        15.90422                                                                
E27  23311550.35025     -2263.52925        50.76525        34.40025  23311384.26424     -2261.41124        37.63824        25.14024
E30  25354045.06025    116359.44825     -2353.35625        32.67125                                                                
> 2023 11 07 23 43 21.0002747  0 19                      
G04  23444036.73124    171786.57124     -3540.06924        27.16624                                                                
G07  20928353.20325     -2608.20225        45.82925        35.01325                                                                
G08  21968659.11427    -11176.02227       206.92427        44.49027  21968494.52825     -8905.14225       155.00825        31.72525
G09  21070843.65825    119868.48025     -2416.14425        33.08925  21070680.57125     95027.40625     -1803.09625        31.42325
G14  22106539.06127   -124775.44327      2492.25527        41.71627  22106377.77325    -98955.12725      1861.17525        31.12725
G20  23248259.36526     40610.84326      -829.32826        37.88226                                                                
G22  23377353.89526   -149252.68126      2984.85026        38.78126                                                                
G27  23578241.52326    100055.05326     -2030.76426        36.30626  23578082.33325     79706.06625     -1516.32225        34.53525
G30  21621887.97824    -68855.63924      1374.30324        27.83124  21621722.79325    -54600.37625      1026.78325        33.71425
R02  19451971.88026     87899.38126     -1787.56626        38.08426
R13  20039308.17625    -36935.32425       730.46125        33.47025
R12  20167413.99026    107710.71726     -2170.59726        40.28126
R01  22754501.78624    230664.02824     -4580.09824        28.44924
R21  23675394.06623    -41059.77123       813.91823        19.46923
R03  20578388.07824   -120231.36624      2401.57524        28.70624
E07  24227370.44025     98133.10625     -1926.01225        30.80325  24227210.05125     74402.37625     -1438.24525        32.91325
E19  27008723.45022   -111121.86822      2377.56822        15.25122                                                                
E27  23311511.07725     -2312.74825        49.61125        33.90525  23311344.39224     -2298.63824        37.53924        25.27124
E30  25354464.46925    118714.21825     -2354.58125        33.68225                                                                
> 2023 11 07 23 43 22.0002746  0 19                      
G04  23444680.38624    175325.69524     -3539.58424        27.89624                                                                
G07  20928310.03225     -2653.92325        43.63625        33.45225                                                                
G08  21968590.16227    -11382.53227       205.39127        43.20827  21968424.07625     -9059.61025       154.52525        33.65025
G09  21071268.16525    122283.78125     -2415.37325        32.92325  21071109.57425     96830.60825     -1802.90325        34.01225
G14  22106035.11027   -127266.82627      2490.50327        42.10827  22105874.12225   -100815.59225      1860.88525        31.87225
G20  23248389.77526     41439.84826      -829.65226        38.13926                                                                
G22  23376756.70826   -152238.61826      2986.38026        39.47126                                                                
G27  23578598.87626    102085.96826     -2030.92226        35.83426  23578438.18725     81222.76325     -1516.74725        31.72125
G30  21621598.97824    -70229.72024      1372.89524        28.95924  21621430.49525    -55627.26425      1026.79025        32.84825
R02  19452288.16126     89687.54926     -1789.50926        36.28126
R13  20039138.49325    -37666.03225       730.30725        33.34325
R12  20167788.43126    109883.34126     -2173.80526        39.49526
R01  22755340.00624    235243.75724     -4579.10124        27.79824
R21  23675200.10023    -41871.53023       813.22223        19.76323
R03  20577918.30424   -122635.27424      2403.28124        28.46424
E07  24227707.10725    100059.80525     -1927.09425        32.36325  24227545.81925     75840.54825     -1437.85625        34.09625
E19  27008239.58522   -113499.42922      2377.53022        15.75722                                                                
E27  23311471.50425     -2361.42725        48.51625        33.46625  23311304.52025     -2335.05325        36.74425        29.82125
E30  25354883.57925    121069.28725     -2355.54725        33.06125                                                                
> 2023 11 07 23 43 23.0002745  0 20                      
G04  23445329.13624    178865.51124     -3540.88124        27.01824                                                                
G05  24246490.30422    -46089.49322      1151.46322        15.51122                                                                
G07  20928274.05725     -2700.18625        44.42125        33.20325                                                                
G08  21968520.61027    -11588.65727       206.22827        42.96927  21968353.62526     -9214.28926       155.09426        36.77126
G09  21071700.16625    124698.78625     -2415.01525        31.90725  21071538.87725     98634.25725     -1803.10525        33.95525
G14  22105530.56027   -129758.29027      2491.33827        41.89827  22105370.77025   -102676.19325      1861.05725        32.69625
G20  23248517.78626     42268.80026      -828.82526        38.03926                                                                
G22  23376155.92426   -155224.53126      2985.74026        38.97326                                                                
G27  23578952.03126    104116.90426     -2030.68526        35.52126  23578794.34024     82739.42124     -1516.33924        28.33724
G30  21621312.97624    -71603.78024      1372.13424        28.85924  21621138.19725    -56654.31025      1027.22125        31.85625
R02  19452587.05426     91476.14426     -1788.94926        36.22426
R13  20038969.11025    -38396.52725       730.14625        33.37025
R12  20168163.77126    112055.92526     -2173.49326        39.15226
R01  22756165.33524    239822.33224     -4579.20224        27.97124
R21  23675020.52423    -42682.64223       812.63523        18.49423
R03  20577437.73624   -125039.85424      2405.18024        29.43724
E07  24228046.17325    101986.34125     -1927.50125        32.11625  24227882.78625     77279.06025     -1438.12425        34.59125
E19  27007730.83722   -115876.98922      2377.56122        15.71622                                                                
E27  23311431.93125     -2409.94325        47.78025        32.93525  23311264.94725     -2371.56325        37.00125        31.28625
E30  25355301.79025    123424.24625     -2355.96625        32.19325                                                                
> 2023 11 07 23 43 24.0002743  0 20                      
G04  23445932.91824    182404.72324     -3540.01624        28.41424                                                                
G05  24246188.71322    -47241.14222      1151.46322        16.19422                                                                
G07  20928204.20625     -2747.56425        47.01325        32.08925                                                                
G08  21968421.67827    -11794.90927       206.59727        42.73227  21968254.99426     -9368.12526       154.73426        37.53426
G09  21072097.69025    127113.84125     -2414.90225        32.50525  21071938.50125    100437.80025     -1803.35725        34.17925
G14  22104994.53127   -132250.28727      2493.25027        41.98627  22104836.54025   -104536.73325      1860.54525        31.16325
G20  23248608.02426     43097.25726      -826.86226        37.80126                                                                
G22  23375531.75626   -158210.51326      2986.11526        39.13226                                                                
G27  23579275.80725    106148.63425     -2031.90725        35.01425  23579120.21524     84256.76524     -1517.22124        27.69724
G30  21620993.39825    -72978.76025      1375.08025        30.50925  21620816.52025    -57681.24225      1027.27125        30.96825
R02  19452865.26226     93264.17326     -1786.95126        36.33726
R13  20038772.74625    -39126.55125       730.17525        33.09725
R12  20168501.33726    114228.05026     -2172.72326        37.68926
R01  22756946.89324    244401.83824     -4579.80824        28.15124
R21  23674819.96323    -43489.58223       810.75923        23.02423
R03  20576931.98624   -127444.49524      2405.83224        28.64824
E07  24228352.86025    103913.22525     -1927.52325        31.31525  24228188.87425     78717.35725     -1438.36725        33.85725
E19  27007239.77722   -118254.60322      2377.53022        15.42822                                                                
E27  23311362.38025     -2458.11425        47.49925        32.73925  23311195.09525     -2408.17225        37.27825        30.94825
E30  25355691.52025    125779.43225     -2355.98925        31.44925                                                                
> 2023 11 07 23 43 25.0002742  0 20                      
G04  23446578.37225    185944.19325     -3539.77825        30.68525                                                                
G05  24245924.89522    -48392.52522      1151.46322        15.33422                                                                
G07  20928164.03425     -2796.23025        49.33325        32.61225                                                                
G08  21968352.12627    -12000.16627       205.09527        42.45327  21968185.74126     -9521.94026       153.55026        36.61726
G09  21072525.79425    129529.49925     -2415.79225        31.51625  21072368.70325    102241.41025     -1804.09325        34.15025
G14  22104493.27827   -134741.39527      2490.36327        41.75827  22104332.88925   -106396.88825      1860.65725        31.56325
G20  23248737.53426     43925.92526      -828.38026        37.48926                                                                
G22  23374929.17326   -161196.77326      2987.28426        38.86726                                                                
G27  23579632.56025    108180.83925     -2031.97725        35.07325  23579476.96824     85774.63424     -1519.44024        25.49224
G30  21620704.69825    -74354.38525      1376.79825        30.91325  21620525.12225    -58707.81925      1027.10625        31.37425
R02  19453162.35626     95052.79326     -1786.66926        37.42026
R13  20038604.86325    -39856.35925       729.81225        32.87025
R12  20168884.77226    116400.03626     -2171.41626        38.68126
R01  22757792.60824    248981.61624     -4580.35624        27.21824
R21  23674633.79223    -44300.48423       810.14623        23.13423
R03  20576459.81324   -129847.84824      2403.41124        28.76024
E07  24228692.82525    105839.96425     -1927.00125        32.02225  24228524.94125     80156.27925     -1438.59425        33.41525
E19  27006755.91222   -120632.14722      2377.56722        14.88022                                                                
E27  23311322.80725     -2506.31625        47.62725        32.25125  23311155.82325     -2444.90525        36.47125        31.36025
E30  25356110.93025    128134.14025     -2355.41825        31.34425                                                                
> 2023 11 07 23 43 26.0002741  0 18                      
G04  23447225.32425    189484.51225     -3540.68825        31.30425                                                                
G07  20928123.56225     -2843.91625        49.21725        34.33525                                                                
G08  21968281.97527    -12204.67127       204.74927        43.66727  21968116.78926     -9674.51526       152.97326        35.92426
G09  21072956.89625    131945.94725     -2416.33425        30.81425  21072798.30525    104046.30625     -1804.81725        32.22925
G14  22103987.52827   -137231.46327      2489.82927        41.55127  22103828.33825   -108258.42125      1859.98825        29.58525
G20  23248870.04226     44756.77926      -831.47626        37.61726                                                                
G22  23374334.68526   -164181.82926      2983.97126        38.57026                                                                
G27  23579992.31125    110213.77525     -2033.14225        35.32725  23579831.62223     87297.48823     -1518.06623        21.40923
G30  21620421.39425    -75730.26125      1377.30625        31.03425  21620232.52425    -59734.65225      1026.65125        30.45225
R02  19453462.14826     96842.79426     -1789.65326        37.08726
R13  20038440.57625    -40585.08025       728.69525        32.06725
R12  20169259.81226    118572.52126     -2172.15226        40.35826
R01  22758616.13824    253562.83124     -4581.17624        27.45924
R21  23674459.01324    -45110.77724       808.44924        24.32324
R03  20575968.15424   -132249.70024      2402.12624        27.89224
E07  24229031.89025    107768.13025     -1926.94125        31.34325  24228861.60825     81595.66525     -1438.88625        31.48125
E27  23311281.73525     -2553.86025        47.66225        32.05925  23311117.14924     -2480.64724        36.29624        28.57224
E30  25356526.44225    130489.43425     -2355.09225        31.52525                                                                
> 2023 11 07 23 43 27.0002739  0 18                      
G04  23447838.99925    193025.39025     -3541.44525        31.19525                                                                
G07  20928055.80826     -2891.12126        48.02626        36.32626                                                                
G08  21968182.44427    -12408.50227       203.79727        44.98927  21968018.15726     -9826.47026       152.57126        36.35526
G09  21073357.11825    134363.38425     -2417.92725        31.62925  21073198.22825    105851.32125     -1804.67425        32.74425
G14  22103451.19927   -139721.49227      2489.81727        41.82727  22103292.60925   -110117.73525      1860.14625        32.25025
G20  23248969.87326     45588.24726      -832.23626        37.97626                                                                
G22  23373704.52126   -167165.38326      2982.32626        38.37926                                                                
G27  23580319.08525    112247.84525     -2034.29125        35.46725                                                                
G30  21620100.61625    -77105.67625      1376.16425        29.61825  21619910.54725    -60761.10225      1026.40625        32.16825
R02  19453741.25526     98634.92426     -1792.16826        38.10226
R13  20038253.50625    -41313.60225       728.52625        31.36625
R12  20169606.67226    120746.05726     -2173.96226        40.20626
R01  22759414.48524    258142.89524     -4581.65624        28.35524
R21  23674254.25523    -45921.68023       808.09723        22.59423
R03  20575453.11025   -134651.50025      2401.86925        29.54525
E07  24229337.67925    109695.74025     -1927.01925        31.67125  24229167.69625     83035.22425     -1439.04425        32.21725
E27  23311213.38325     -2601.70425        47.67525        34.20925  23311048.79724     -2520.21624        34.81624        24.82424
E30  25356912.57525    132844.25425     -2354.73225        29.92425                                                                
> 2023 11 07 23 43 28.0002738  0 18                      
G04  23448480.55525    196565.56925     -3540.34725        31.41325                                                                
G07  20928015.63626     -2937.80026        46.41926        36.15226                                                                
G08  21968112.59227    -12611.80027       202.99627        44.25227  21967949.20525     -9978.85425       152.13525        33.91525
G09  21073792.41725    136780.62125     -2417.55125        32.41725  21073628.43125    107658.98625     -1804.73025        31.94225
G14  22102948.74727   -142211.07527      2489.09327        42.20327  22102788.65825   -111977.63725      1859.68125        31.61525
G20  23249092.18826     46420.33126      -833.51026        37.67226                                                                
G22  23373104.33726   -170150.40226      2986.38826        38.08826                                                                
G27  23580677.03726    114281.79326     -2033.76626        35.75426                                                                
G30  21619807.11925    -78480.13525      1374.06925        29.88825  21619618.84925    -61787.38425      1026.91225        30.79125
R02  19454044.64526    100427.18426     -1791.29226        37.16926
R13  20038085.92225    -42041.62425       727.91725        31.20125
R12  20169987.40826    122920.16826     -2175.65626        38.55826
R01  22760246.40924    262725.97724     -4580.43824        26.66624
R21  23674077.97723    -46731.84123       806.49123        23.36023
R03  20574965.04824   -137052.74224      2401.03924        28.55624
E07  24229673.44625    111622.92525     -1927.30925        32.09125  24229504.06325     84474.76125     -1439.19725        31.02425
E27  23311172.01125     -2649.70625        47.74125        34.56525  23311010.42323     -2567.05023        35.36023        21.40023
E30  25357333.18425    135198.83925     -2354.54625        29.55125                                                                
> 2023 11 07 23 43 29.0002737  0 19                      
G04  23449124.20925    200105.62725     -3539.55325        31.72925                                                                
G05  24244911.89724    -52990.00924      1146.76324        25.32824                                                                
G07  20927976.66326     -2984.45126        45.78726        36.72926                                                                
G08  21968044.23927    -12814.86727       203.32027        43.54827  21967879.95325    -10131.10425       151.85125        31.77825
G09  21074229.21525    139198.52125     -2418.36325        32.80825  21074058.03325    109470.66625     -1805.35125        31.00725
G14  22102444.19627   -144700.47127      2488.94927        41.71627  22102284.70725   -113837.48625      1859.69425        32.39325
G20  23249220.20026     47252.62826      -832.75826        37.48526                                                                
G22  23372510.44826   -173135.73626      2986.19726        38.92926                                                                
G27  23581036.48826    116316.16426     -2034.67826        35.65126                                                                
G30  21619512.42325    -79854.47325      1373.67425        30.05325  21619327.45125    -62815.27325      1026.86525        30.16625
R02  19454340.24126    102219.51726     -1791.61426        37.34926
R13  20037926.43225    -42770.10325       728.19025        31.72325
R12  20170365.14726    125094.27826     -2175.37926        38.07026
R01  22761036.36224    267306.92524     -4578.21824        25.87324
R21  23673899.00123    -47542.46223       806.88223        23.19523
R03  20574475.48724   -139452.94424      2399.19524        28.94924
E07  24230007.41525    113550.73225     -1927.68525        31.54925  24229840.43125     85914.06725     -1439.41125        30.81925
E27  23311133.63826     -2696.91326        47.56526        35.57726                                                                
E30  25357752.59325    137552.99125     -2354.52725        29.54325                                                                
> 2023 11 07 23 43 30.0002736  0 19                      
G04  23449767.86425    203645.37625     -3538.06525        31.87125                                                                
G05  24244658.27224    -54136.83524      1145.81124        26.48224                                                                
G07  20927939.78926     -3031.20526        46.34026        36.94226                                                                
G08  21967974.38827    -13017.40627       202.81627        44.67027  21967811.00125    -10281.94425       151.09625        31.94225
G09  21074661.81525    141616.83125     -2418.91025        32.46525  21074487.63625    111276.69925     -1805.82025        31.42125
G14  22101939.64627   -147189.97027      2488.74327        41.88527  22101780.45625   -115696.42525      1859.54325        33.22225
G20  23249351.80926     48085.01226      -831.91326        38.44626                                                                
G22  23371906.96526   -176120.12626      2983.72826        38.16526                                                                
G27  23581392.94125    118351.05125     -2034.85825        34.80825                                                                
G30  21619216.82824    -81228.27424      1373.06324        28.04224  21619035.15325    -63841.41125      1026.47725        30.43025
R02  19454657.12126    104013.09526     -1793.73926        38.18626
R13  20037758.24925    -43498.13025       728.71725        31.89825
R12  20170747.38226    127266.90726     -2171.00926        39.56426
R01  22761875.18224    271886.36324     -4579.84724        25.97424
R21  23673714.32923    -48353.94223       807.88323        21.54123
R03  20574003.61425   -141852.67125      2399.54925        30.61425
E07  24230344.98125    115478.25425     -1928.16225        31.51925  24230176.79825     87353.96525     -1439.47325        31.15525
E27  23311088.07026     -2743.56826        47.12426        36.02926                                                                
E30  25358172.30324    139907.46724     -2354.73324        27.92724                                                                
> 2023 11 07 23 43 31.0002734  0 20                      
G04  23450387.23525    207185.68325     -3539.63925        31.34725                                                                
G05  24244385.76124    -55283.46724      1146.77924        26.31824                                                                
G07  20927870.53726     -3077.75426        46.20226        37.60926                                                                
G08  21967877.25527    -13218.96927       202.21827        43.60527  21967713.26924    -10436.50624       148.49324        28.44524
G09  21075061.43925    144036.13925     -2419.28725        32.72425  21074883.06225    113083.24825     -1806.05125        31.91225
G14  22101409.01326   -149678.25026      2488.20526        41.34226  22101245.62625   -117553.14125      1858.19225        33.12825
G20  23249447.14326     48918.20226      -832.58426        38.44426                                                                
G22  23371283.09726   -179103.26826      2982.35426        38.75326                                                                
G27  23581721.21425    120387.26125     -2036.34325        34.70025  23581558.12724     94888.18724     -1519.89424        28.70724
G30  21618889.75424    -82602.39724      1373.65824        28.39824  21618713.77625    -64867.02225      1026.10325        29.95525
R02  19454933.53026    105808.42126     -1795.86126        38.33026
R13  20037551.09225    -44225.34225       727.67625        32.27225
R12  20171090.34526    129440.46426     -2172.78526        38.60226
R01  22762678.32624    276467.83124     -4581.98724        26.87124
R21  23673514.06723    -49166.53523       806.23823        21.63623
R03  20573538.03625   -144251.31425      2398.13225        31.61525
E07  24230650.77024    117409.44824     -1928.71224        29.21324  24230483.48525     88794.53325     -1440.03625        32.10325
E19  27003770.57922   -134897.45022      2377.49322        12.68522                                                                
E27  23311023.01525     -2790.42725        46.70825        35.17325                                                                
E30  25358562.33324    142262.40224     -2355.04224        28.10524                                                                
> 2023 11 07 23 43 32.0002733  0 20                      
G04  23451027.89124    210726.43324     -3540.80224        28.92524                                                                
G05  24244133.93524    -56429.27724      1144.06024        26.83324                                                                
G07  20927835.16126     -3123.79026        45.09926        39.69926                                                                
G08  21967811.90026    -13420.66026       202.45426        38.27226  21967647.01425    -10586.66725       150.28925        33.02625
G09  21075497.63725    146455.24825     -2419.09525        31.82925  21075314.16424    114889.78224     -1806.51524        28.20824
G14  22100894.26926   -152167.35826      2489.48126        35.97226  22100741.97525   -119411.22225      1858.43825        32.64125
G20  23249577.55226     49751.30326      -832.05926        37.90326                                                                
G22  23370685.91127   -182086.34827      2983.20327        42.48427                                                                
G27  23582075.56925    122423.93925     -2037.70725        33.01425  23581915.18026     96408.41726     -1519.92326        35.68426
G30  21618584.56524    -83976.12124      1373.74324        26.25324  21618421.47824    -65893.50424      1025.82324        28.83724
R02  19455254.00826    107603.99626     -1794.64726        37.91826
R13  20037389.50425    -44951.99825       726.26125        32.82825
R12  20171460.28926    131615.16926     -2175.69026        36.65926
R01  22763495.56025    281049.75225     -4581.98125        31.38225
R21  23673340.78724    -49969.73724       804.51924        27.31724
R03  20573046.07725   -146649.44725      2398.37325        30.93725
E07  24230986.83725    119340.31925     -1929.33725        32.42125  24230820.15225     90234.92225     -1440.40325        30.73325
E19  27003304.40122   -137275.02522      2377.53622        14.39722                                                                
E27  23310984.94125     -2836.44525        46.07125        35.13625  23310820.65524     -2691.73424        34.68324        27.63724
E30  25358975.44725    144618.04125     -2355.57025        30.67125                                                                
> 2023 11 07 23 43 33.0002732  0 19                      
G04  23451671.84524    214264.80124     -3539.57524        29.28124  23451499.16524    162637.65424     -2643.99424        24.87424
G05  24243882.70923    -57578.11123      1150.49623        22.54523                                                                
G07  20927799.78626     -3170.01026        45.40326        36.79726                                                                
G08  21967735.75327    -13624.07027       204.18827        43.41727  21967573.26526    -10738.12926       150.89226        35.54826
G09  21075925.14125    148877.67525     -2418.44125        34.15425  21075743.16725    116697.54125     -1807.50525        33.32325
G14  22100403.50926   -154658.20026      2491.26326        39.73226  22100238.92325   -121271.72425      1860.64525        30.70925
G20  23249705.56425     50583.21125      -832.38325        34.56525                                                                
G22  23370082.72826   -185071.93126      2985.87026        40.46826                                                                
G27  23582434.72026    124459.90126     -2035.97126        40.42426  23582272.53225     97928.53725     -1520.41025        34.08225
G30  21618296.46524    -85352.18124      1376.10224        28.60024  21618130.68024    -66918.29824      1025.36224        25.90624
R02  19455552.90126    109399.43426     -1795.58826        38.53726
R13  20037224.61825    -45679.97225       727.00825        33.20925
R12  20171856.61426    133790.18426     -2175.39826        37.24726
R01  22764318.49025    285632.21425     -4583.58725        30.59525
R21  23673162.41124    -50771.17124       803.50724        24.99624
R03  20572579.30024   -149048.66724      2399.36124        28.31624
E07  24231321.70525    121264.66225     -1930.06525        31.86925  24231156.51925     91676.54825     -1440.91325        30.52825
E27  23310945.66825     -2882.24925        45.57425        34.32625  23310781.68224     -2726.53924        34.82724        27.40924
E30  25359389.16025    146972.89225     -2355.07525        32.48825  25359233.86823    112251.57123     -1757.32523        22.48023
> 2023 11 07 23 43 34.0002730  0 20                      
G04  23452284.32125    217801.97725     -3539.86425        30.81825                                                                
G05  24243599.70523    -58730.18023      1151.14523        21.57023                                                                
G07  20927730.53425     -3215.53125        45.47025        33.94025                                                                
G08  21967637.42126    -13826.21226       200.50126        40.85226  21967477.63225    -10889.25025       150.84325        31.65425
G09  21076302.28026    151298.29726     -2419.58926        36.89326  21076144.88925    118505.58525     -1808.23825        34.77925
G14  22099864.78227   -157149.70327      2491.53627        42.12827  22099705.29225   -123133.01925      1861.25725        30.21125
G20  23249802.99625     51415.84425      -830.14125        33.52425                                                                
G22  23369454.36327   -188060.71027      2989.99627        42.73527                                                                
G27  23582758.19626    126496.22126     -2036.52726        39.87526  23582598.40726     99449.30026     -1521.04726        36.88426
G30  21617969.69124    -86729.84524      1378.65524        28.91024  21617809.90224    -67945.40624      1027.67124        23.75124
R02  19455822.41426    111194.89126     -1795.93126        39.86026
R13  20037028.25425    -46408.62825       728.16125        31.07825
R12  20172193.88125    135966.18925     -2175.50525        34.71225
R01  22765122.83325    290214.48925     -4583.36525        32.33825
R21  23672950.45723    -51570.50023       799.66123        23.06523
R03  20572066.05524   -151447.90224      2400.14424        27.71824
E07  24231628.39325    123182.33525     -1930.46425        34.00025  24231462.90725     93118.30925     -1441.68225        31.71025
E19  27002313.88722   -142030.00222      2377.57222        16.42122                                                                
E27  23310875.21725     -2928.06725        45.47825        35.40925  23310711.53024     -2761.85224        35.29424        28.34724
E30  25359775.89225    149327.28125     -2354.35125        32.54925  25359620.00023    114009.29323     -1757.21523        21.79723
> 2023 11 07 23 43 35.0002729  0 20                      
G04  23452918.38225    221340.13125     -3542.02825        33.71625                                                                
G05  24243351.47723    -59882.15623      1150.14423        19.90823                                                                
G07  20927689.76225     -3260.90825        44.68425        30.36525                                                                
G08  21967571.76727    -14027.28327       200.93927        41.80427  21967408.67925    -11036.89325       149.43325        33.68925
G09  21076738.77726    153718.67826     -2420.64826        39.39826  21076574.79125    120312.43125     -1806.72925        33.86025
G14  22099359.03227   -159642.92227      2493.16427        43.96427  22099201.04125   -124989.88425      1860.23825        29.71125
G20  23249936.10426     52246.11126      -830.03726        36.05626                                                                
G22  23368853.87927   -191049.88027      2991.24627        42.65327                                                                
G27  23583119.44626    128535.54326     -2039.39926        37.40826  23582956.05925    100972.12225     -1524.37825        35.19825
G30  21617683.98924    -88107.00224      1379.08724        28.93724  21617517.00423    -68973.13323      1027.48823        21.82123
R02  19456126.40426    112990.76926     -1796.71126        41.13326
R13  20036859.17124    -47135.51224       727.22724        29.24624
R12  20172569.52125    138140.65125     -2174.82625        31.85525
R01  22765961.35324    294797.54924     -4582.53824        28.70424
R21  23672772.38123    -52365.40223       800.70823        22.92423
R03  20571598.67924   -153842.41824      2396.45924        25.58824
E07  24231958.76426    125111.35526     -1928.34926        37.51526  24231801.37325     94558.43625     -1439.88725        32.83825
E19  27001833.02022   -144407.69822      2377.57122        16.48922                                                                
E27  23310836.24426     -2974.37926        46.95226        36.62726  23310672.85724     -2796.72024        35.23624        28.34724
E30  25360191.10525    151682.44725     -2354.28925        31.99525  25360026.21925    115768.98825     -1761.53525        32.76725
> 2023 11 07 23 43 36.0002728  0 19                      
G04  23453557.54025    224882.26525     -3542.75825        33.11325  23453394.45324    170566.76224     -2645.35624        23.91724
G05  24243103.24923    -61034.41323      1149.30223        21.49923                                                                
G07  20927661.28225     -3306.11125        45.27625        30.63625                                                                
G08  21967506.11226    -14227.89726       203.37026        37.38526  21967340.32725    -11182.69625       146.57225        31.74525
G09  21077168.08027    156138.26027     -2418.83427        41.98027  21077004.99325    122119.11225     -1806.07825        34.19125
G14  22098857.18026   -162135.77926      2492.84126        41.27026  22098695.29225   -126848.91425      1862.89125        30.75025
G20  23250063.81625     53077.52825      -830.63325        33.79125                                                                
G22  23368255.49327   -194040.08627      2990.23027        42.78927                                                                
G27  23583478.59725    130577.98225     -2042.68525        35.28825  23583315.51025    102497.54925     -1525.00925        35.08525
G30  21617398.88624    -89482.70524      1376.08424        28.77024  21617224.10724    -69999.43024      1027.56524        24.15824
R02  19456433.69126    114786.61126     -1794.97926        38.51126
R13  20036681.69424    -47861.40124       724.83024        26.18724
R12  20172944.26125    140316.22825     -2176.83825        33.20525
R01  22766771.39226    299382.00926     -4578.45926        36.11026
R21  23672591.00624    -53165.57624       800.18424        24.24924
R03  20571125.00623   -156234.48323      2395.08123        22.83223
E07  24232299.32826    127039.84726     -1928.73926        39.97526  24232138.34025     95998.68825     -1439.81625        32.82525
E27  23310793.97326     -3020.49426        46.30526        35.98526  23310632.68524     -2830.79424        35.04224        28.55624
E30  25360611.71425    154039.50625     -2355.48225        32.38825  25360448.02725    117530.91225     -1760.57725        34.16025
> 2023 11 07 23 43 37.0002727  0 19                      
G04  23454197.89725    228423.51925     -3541.92625        33.12125  23454041.40523    173214.43023     -2645.56423        23.19123
G05  24242855.62023    -62184.62423      1146.14523        23.27623                                                                
G07  20927619.91025     -3348.31725        45.85325        29.81825                                                                
G08  21967437.75925    -14426.13825       200.76925        35.07125  21967273.77324    -11331.02224       146.16924        28.11024
G09  21077597.98327    158558.74227     -2420.57627        42.09327  21077434.89525    123926.21825     -1807.62225        32.97525
G14  22098351.13026   -164632.53826      2492.85126        40.49926  22098190.14125   -128709.27625      1860.08125        32.26325
G20  23250183.73325     53911.99725      -834.57725        34.98025                                                                
G22  23367655.90827   -197028.61527      2988.80027        45.69927                                                                
G27  23583839.84725    132621.46425     -2045.81525        31.02425  23583675.26125    104025.60425     -1528.88425        31.38825
G30  21617107.18824    -90857.87624      1375.25324        29.01624  21616931.51024    -71027.87624      1024.23324        25.01424
R02  19456757.16726    116578.24226     -1797.32026        40.15226
R13  20036529.99925    -48585.99425       722.35925        30.06125
R12  20173326.79625    142496.27525     -2179.55525        31.59225
R01  22767592.82327    303959.33127     -4577.00727        41.71627
R21  23672415.32823    -53964.59623       798.58423        23.03023
R03  20570727.78124   -158630.59024      2398.78924        27.80324
E07  24232637.19426    128968.36626     -1929.07426        40.25826  24232474.70725     97439.01225     -1440.67325        31.64825
E27  23310758.89726     -3065.09326        44.46126        36.49726  23310594.61125     -2864.70625        32.16425        29.82025
E30  25361047.91225    156395.53925     -2356.70825        29.61125  25360867.13725    119297.53025     -1765.30025        32.24925
> 2023 11 07 23 43 38.0002725  0 19                      
G04  23454811.57225    231965.02725     -3541.95625        33.40825                                                                
G05  24242579.51123    -63327.92623      1146.47123        20.10523                                                                
G07  20927548.26025     -3391.77525        43.82125        32.73025                                                                
G08  21967340.62725    -14621.71725       199.23425        31.31725  21967176.34024    -11475.96524       145.00324        25.97224
G09  21077997.60626    160979.20026     -2420.24126        37.57926  21077835.71824    125732.46624     -1807.71424        28.34524
G14  22097810.90427   -167123.37127      2491.15627        45.22727  22097655.31226   -130569.87826      1860.66326        35.62826
G20  23250285.96226     54748.93126      -838.18826        36.80726                                                                
G22  23367027.24427   -200015.88927      2987.55927        42.93427                                                                
G27  23584168.72025    134664.21425     -2044.71825        29.57525  23584005.03324    105553.86424     -1526.32224        26.71724
G30  21616779.81525    -92231.42025      1372.36225        34.24325  21616609.83225    -72053.23425      1025.13825        29.94225
R02  19457015.28927    118376.88027     -1799.02827        43.35427
R13  20036341.42924    -49309.55524       720.63624        28.26024
R12  20173663.46325    144676.86225     -2180.94925        31.21925
R01  22768383.07627    308536.78227     -4577.34627        43.98027
R21  23672206.07323    -54763.98823       798.75923        23.10023
R03  20570163.87224   -161030.05124      2400.33924        27.97624
E07  24232933.68926    130896.90926     -1928.32726        36.36926  24232781.09524     98878.93424     -1441.05224        26.57324
E27  23310689.64526     -3109.59326        44.37826        37.27726  23310525.65925     -2892.29425        33.72125        30.51425
E30  25361421.75324    158750.37124     -2357.87824        28.88324  25361256.86725    121068.44825     -1762.03725        30.82025
> 2023 11 07 23 43 39.0002724  0 19                      
G04  23455458.82425    235503.30825     -3540.40325        30.73025  23455322.11825    178507.50125     -2646.47925        31.09625
G05  24242332.48223    -64471.54823      1146.78923        21.51223                                                                
G07  20927510.18625     -3437.60825        43.49125        31.63825                                                                
G08  21967270.77525    -14818.78225       197.98425        30.94025  21967107.68824    -11622.11424       146.19724        23.92024
G09  21078433.80426    163398.40626     -2420.44026        37.13726  21078271.01724    127536.99324     -1807.09024        23.66624
G14  22097318.34527   -169614.60927      2491.88527        44.66527  22097151.66025   -132429.87125      1859.97525        35.43125
G20  23250415.17325     55587.19125      -837.97625        35.03725                                                                
G22  23366427.35926   -203003.73426      2987.87026        41.11926                                                                
G27  23584528.17124    136709.73524     -2044.28024        28.65924  23584363.88524    107080.95824     -1527.42324        24.49924
G30  21616486.61826    -93603.21426      1371.56226        37.94426  21616318.13426    -73077.73226      1025.04926        36.87826
R02  19457328.87226    120176.53326     -1799.96826        40.23026
R13  20036160.05524    -50032.46824       721.22024        29.23624
R12  20174034.90625    146857.81525     -2177.82525        30.34225
R01  22769207.20627    313113.29927     -4576.24327        43.66427
R21  23672027.39623    -55564.78223       798.44723        21.02423
R03  20569684.50424   -163429.36824      2399.29724        27.91724
E07  24233275.75225    132825.37425     -1929.19725        34.48325  24233119.26124    100318.89124     -1440.10624        23.82824
E27  23310649.17326     -3155.66726        44.71426        37.52226  23310486.68624     -2912.43424        32.91624        26.43924
E30  25361839.66425    161109.18925     -2359.68025        30.64225  25361675.07825    122845.00525     -1763.02325        31.94325
> 2023 11 07 23 43 40.0002723  0 19                      
G04  23456104.87624    239039.89424     -3542.01924        29.27124  23455960.97625    181154.84525     -2647.02425        30.41925
G05  24242085.45323    -65614.02123      1145.68023        22.81923                                                                
G07  20927469.11525     -3485.08825        44.66125        30.86325                                                                
G08  21967197.32626    -15017.58526       193.53126        35.58326  21967027.34324    -11767.68924       144.78324        28.91724
G09  21078865.20525    165818.17825     -2419.49025        33.82025  21078697.62124    129342.81024     -1808.59024        24.90324
G14  22096802.70227   -172105.06727      2490.24127        45.84327  22096647.70926   -134290.28726      1859.86826        36.38926
G20  23250543.48425     56427.15825      -837.29225        35.36325                                                                
G22  23365832.57127   -205990.81027      2987.80327        42.42427                                                                
G27  23584885.22425    138755.53025     -2045.56425        35.20825  23584722.13726    108608.55126     -1526.55726        36.91026
G30  21616190.42326    -94974.15026      1369.78126        39.18026  21616027.03627    -74102.31027      1024.52127        44.30127
R02  19457636.75826    121975.86026     -1800.24426        39.85326
R13  20036009.25925    -50757.19425       724.25925        30.38325
R12  20174437.22824    149040.04124     -2178.66024        29.17824
R01  22770031.03627    317690.46627     -4576.85727        43.67027
R21  23671852.91724    -56366.04624       797.45324        24.96024
R03  20569185.64924   -165826.36824      2396.16224        29.46324
E07  24233625.01125    134752.12025     -1929.37425        32.00025                                                                
E27  23310610.20026     -3199.70926        44.11226        37.83326  23310447.71324     -2945.39424        32.45324        26.63424
E30  25362255.47625    163470.01525     -2360.92725        34.07725  25362092.98825    124607.43525     -1762.07925        32.63725
> 2023 11 07 23 43 41.0002722  0 19                      
G04  23456746.73225    242582.50025     -3541.36125        30.26525  23456606.42924    183801.55224     -2645.91124        27.10724
G05  24241836.02623    -66753.84623      1145.22923        22.96823                                                                
G07  20927425.94425     -3527.72425        42.95625        29.61325                                                                
G08  21967128.67326    -15209.15226       190.28226        40.00326  21966961.38926    -11910.66226       144.41426        37.77926
G09  21079291.21025    168241.06525     -2422.38525        34.59925  21079128.42324    131153.87324     -1808.31724        25.93924
G14  22096302.04827   -174595.00727      2490.34727        45.78127  22096143.45826   -136149.23226      1859.80126        36.74526
G20  23250678.09025     57264.58125      -837.33125        35.07925                                                                
