     3.03           OBSERVATION DATA    M                   RINEX VERSION / TYPE
GnssLogger          Google 14           20231107 234315 UTC PGM / RUN BY / DATE
Google GnssLogger                                           MARKER NAME
Unknown                                                     MARKER NUMBER
Unknown             Unknown                                 OBSERVER / AGENCY
Unknown             GnssLogger          v3.0.6.4            REC # / TYPE / VERS
Unknown             Unknown                                 ANT # / TYPE
        0.0000        0.0000        0.0000                  ANTENNA: DELTA H/E/N
G    8 C1C L1C D1C S1C C5Q L5Q D5Q S5Q                      SYS / # / OBS TYPES
R    4 C1C L1C D1C S1C                                      SYS / # / OBS TYPES
E    8 C1C L1C D1C S1C C5Q L5Q D5Q S5Q                      SYS / # / OBS TYPES
  2023    11    07    23    43   15.0000000     GPS         TIME OF FIRST OBS
 6 R01  1 R02 -4 R03  5 R12 -1 R13 -2 R21  4                GLONASS SLOT / FRQ #
G L1C                                                       SYS / PHASE SHIFT
G L5Q  0.00000                                              SYS / PHASE SHIFT
R L1C                                                       SYS / PHASE SHIFT
E L1C  0.00000                                              SYS / PHASE SHIFT
E L5Q  0.00000                                              SYS / PHASE SHIFT
 C1C    0.000 C1P    0.000 C2C    0.000 C2P    0.000        GLONASS COD/PHS/BIS
                                                            END OF HEADER
> 2023 11 07 23 43 15.0002755  0 19                      
G04  23440243.75725    150559.52625     -3537.65625        29.97225                                                                
G05  24248520.49923    -36865.24323      1154.22023        18.04423                                                                
G07  20928656.89226     -2313.66426        51.62926        39.16326                                                                
G08  21969142.67927     -9916.83327       212.34427        43.95227  21968977.79325     -7944.84425       158.14125        31.83125
G09  21068332.89724    105392.76224     -2413.23924        29.49124  21068169.21024     84218.04224     -1801.44524        26.72224
G14  22109629.32227   -109815.80827      2495.73527        43.14327  22109467.13425    -87781.82025      1863.59125        30.91025
G20  23247562.04826     35654.88326      -822.45926        37.91426                                                                
G22  23381007.16626   -131328.10226      2990.39926        40.95826                                                                
G27  23576171.45625     87887.52125     -2025.37525        32.55025  23576009.26825     70618.60925     -1512.81225        34.02825
G30  21623713.11524    -60596.02624      1377.49424        25.84024  21623535.03824    -48432.53324      1028.89524        28.50224
R02  19450202.20526     77193.43726     -1781.83026        39.39726
R13  20040358.64825    -32536.33125       735.67625        32.79625
R12  20165202.72126     94690.95926     -2166.93426        38.89226
R01  22749616.96824    203200.08424     -4580.72624        25.96124
R21  23676554.56223    -36165.17123       815.61823        22.34823
R03  20581345.83125   -105787.79225      2409.24125        31.75825
E07  24225409.19824     86587.65624     -1924.08024        26.82224  24225255.10524     65781.07524     -1436.43324        28.35924
E27  23311805.47325     -2005.32525        51.66325        33.95825                                                                
E30  25352017.86325    104594.58325     -2353.86825        31.88525                                                                
> 2023 11 07 23 43 27.0002739  0 18                      
G04  23447838.99925    193025.39025     -3541.44525        31.19525                                                                
G07  20928055.80826     -2891.12126        48.02626        36.32626                                                                
G08  21968182.44427    -12408.50227       203.79727        44.98927  21968018.15726     -9826.47026       152.57126        36.35526
G09  21073357.11825    134363.38425     -2417.92725        31.62925  21073198.22825    105851.32125     -1804.67425        32.74425
G14  22103451.19927   -139721.49227      2489.81727        41.82727  22103292.60925   -110117.73525      1860.14625        32.25025
G20  23248969.87326     45588.24726      -832.23626        37.97626                                                                
G22  23373704.52126   -167165.38326      2982.32626        38.37926                                                                
G27  23580319.08525    112247.84525     -2034.29125        35.46725                                                                
G30  21620100.61625    -77105.67625      1376.16425        29.61825  21619910.54725    -60761.10225      1026.40625        32.16825
R02  19453741.25526     98634.92426     -1792.16826        38.10226
R13  20038253.50625    -41313.60225       728.52625        31.36625
R12  20169606.67226    120746.05726     -2173.96226        40.20626
R01  22759414.48524    258142.89524     -4581.65624        28.35524
R21  23674254.25523    -45921.68023       808.09723        22.59423
R03  20575453.11025   -134651.50025      2401.86925        29.54525
E07  24229337.67925    109695.74025     -1927.01925        31.67125  24229167.69625     83035.22425     -1439.04425        32.21725
E27  23311213.38325     -2601.70425        47.67525        34.20925  23311048.79724     -2520.21624        34.81624        24.82424
E30  25356912.57525    132844.25425     -2354.73225        29.92425                                                                
> 2023 11 07 23 43 39.0002724  0 19                      
G04  23455458.82425    235503.30825     -3540.40325        30.73025  23455322.11825    178507.50125     -2646.47925        31.09625
G05  24242332.48223    -64471.54823      1146.78923        21.51223                                                                
G07  20927510.18625     -3437.60825        43.49125        31.63825                                                                
G08  21967270.77525    -14818.78225       197.98425        30.94025  21967107.68824    -11622.11424       146.19724        23.92024
G09  21078433.80426    163398.40626     -2420.44026        37.13726  21078271.01724    127536.99324     -1807.09024        23.66624
G14  22097318.34527   -169614.60927      2491.88527        44.66527  22097151.66025   -132429.87125      1859.97525        35.43125
G20  23250415.17325     55587.19125      -837.97625        35.03725                                                                
G22  23366427.35926   -203003.73426      2987.87026        41.11926                                                                
G27  23584528.17124    136709.73524     -2044.28024        28.65924  23584363.88524    107080.95824     -1527.42324        24.49924
G30  21616486.61826    -93603.21426      1371.56226        37.94426  21616318.13426    -73077.73226      1025.04926        36.87826
R02  19457328.87226    120176.53326     -1799.96826        40.23026
R13  20036160.05524    -50032.46824       721.22024        29.23624
R12  20174034.90625    146857.81525     -2177.82525        30.34225
R01  22769207.20627    313113.29927     -4576.24327        43.66427
R21  23672027.39623    -55564.78223       798.44723        21.02423
R03  20569684.50424   -163429.36824      2399.29724        27.91724
E07  24233275.75225    132825.37425     -1929.19725        34.48325  24233119.26124    100318.89124     -1440.10624        23.82824
E27  23310649.17326     -3155.66726        44.71426        37.52226  23310486.68624     -2912.43424        32.91624        26.43924
E30  25361839.66425    161109.18925     -2359.68025        30.64225  25361675.07825    122845.00525     -1763.02325        31.94325
> 2023 11 07 23 43 51.0002709  0 20                      
G04  23463091.84026    278038.55926     -3551.68526        37.19226  23462935.94725    210278.05125     -2651.16725        33.57725
G05  24239273.10023    -78162.41923      1138.99523        20.77923                                                                
G07  20926952.57225     -3955.49825        44.87825        34.13825                                                                
G08  21966384.58824    -17111.80324       188.99624        25.41724  21966217.00424    -13327.98824       141.04324        23.88724
G09  21083513.48726    192503.65526     -2429.69326        38.14226  21083351.89925    149272.30925     -1815.77125        33.61325
G14  22091174.39826   -199476.60526      2483.99526        38.29126  22091018.50624   -154732.31924      1853.93824        25.76124
G20  23251882.65726     65644.29326      -837.98226        35.77026                                                                
G22  23359159.19127   -238799.94127      2982.16627        47.15627                                                                
G27  23588775.03123    161239.08523     -2034.98023        21.91623                                                                
G30  21612895.40426   -110077.53426      1373.25926        39.38826  21612730.51825    -85376.14425      1026.58925        33.61625
R02  19460934.47526    141837.29926     -1813.15526        40.89526
R13  20034089.68825    -58708.02725       722.86225        30.52225
R12  20178485.62525    173008.53325     -2179.14425        33.60225
R01  22779045.19526    368106.66526     -4584.17726        35.62726
R21  23669840.71023    -65041.12423       785.91923        19.95723
R03  20563817.26626   -192120.84126      2390.64826        40.41826
E07  24237239.60826    156023.18726     -1938.05626        36.00026  24237078.62025    117611.10825     -1447.85225        31.66725
E19  26993991.34924   -182436.95524      2377.43024        27.11724                                                                
E27  23310099.65426     -3679.47326        42.29526        35.58226  23309938.96525     -3283.60925        28.61725        29.50525
E30  25366782.04224    189439.14624     -2358.34524        26.23724  25366610.26125    143973.16825     -1764.35925        34.65425
> 2023 11 07 23 44 03.0002694  0 20                      
G04  23470748.53926    320629.21026     -3548.97726        36.28726  23470591.44825    242097.69225     -2649.92025        33.37425
G05  24236199.02925    -91782.62125      1135.01125        31.10125                                                                
G07  20926404.25225     -4482.00525        41.60425        31.12925                                                                
G08  21965527.48224    -19303.20824       178.59124        28.13224  21965354.20225    -14949.18525       132.98025        30.82425
G09  21088614.75626    221695.69226     -2434.18726        39.20426  21088454.36725    171070.00125     -1817.17725        33.58025
G14  22085050.53826   -229289.48426      2484.11926        40.47526  22084891.64824   -176999.35824      1854.78124        26.56024
G20  23253346.24326     75740.80426      -844.77826        37.06526                                                                
G22  23351898.81727   -274572.60627      2981.72327        42.70727                                                                
G27  23592995.50924    185869.27024     -2052.92124        29.08724  23592826.72624    143829.65424     -1536.39724        25.11724
G30  21609304.79026   -126569.40626      1371.11926        37.81426  21609139.60425    -97679.21425      1023.52325        33.40325
R02  19464561.66426    163624.05626     -1818.46926        39.16326
R13  20032012.12725    -67331.20725       715.68725        30.97425
R12  20182950.73425    199167.91525     -2182.66425        34.91325
R01  22788919.45926    423149.44626     -4586.96726        36.73626
R21  23667641.43324    -74490.60924       782.70824        25.32824
R03  20558010.58527   -220741.59627      2379.61627        43.30527
E07  24241208.86026    179269.25526     -1939.38626        36.82726  24241052.66825    134960.08725     -1447.80825        30.95025
E19  26988098.02924   -210969.84224      2375.52724        26.66924  26987937.93925   -155800.05825      1773.43825        30.97925
E27  23309560.02726     -4143.32126        37.86226        36.11726  23309398.43924     -3628.06624        26.54024        28.81924
E30  25371722.92224    217762.19024     -2362.40724        28.97124  25371555.03825    165151.75125     -1765.81225        34.99425
> 2023 11 07 23 44 15.0002678  0 20                      
G04  23478373.76026    363220.55326     -3556.13026        37.80626  23478215.76924    273915.48024     -2653.01424        29.29924
G05  24233140.84625   -105273.68625      1117.11225        33.48025                                                                
G07  20925838.84325     -4936.49525        36.97825        30.91825                                                                
G08  21964658.38325    -21416.45525       165.92825        30.56625  21964477.30925    -16503.53125       125.78225        32.71725
G09  21093701.03526    250925.69226     -2442.45526        37.43426  21093536.74824    192919.63724     -1821.75424        28.82024
G14  22078903.29326   -259048.14326      2477.25326        38.12026  22078742.90425   -199213.95925      1848.43725        34.81825
G20  23254807.73226     85966.45226      -856.20426        39.12326                                                                
G22  23344610.26325   -310304.56925      2972.86325        33.82425                                                                
G27  23597230.97724    210577.12824     -2068.07324        29.17224  23597060.39524    162319.95224     -1544.83324        28.36024
G30  21605687.19425   -142983.63425      1364.72025        35.27925  21605532.80126   -109925.42326      1020.90926        39.18326
R02  19468185.85526    185532.14326     -1830.17226        39.14626
R13  20029954.05125    -75865.99625       710.11425        30.39325
R12  20187387.96225    225371.64225     -2184.36425        31.89625
R01  22798701.38726    478192.30926     -4589.16126        36.65926
R21  23665439.45724    -83814.26324       773.49624        27.04324
R03  20552208.40227   -249218.68527      2368.60727        42.25027
E07  24245165.22125    202565.99325     -1945.45525        33.65825  24245001.83424    152348.30624     -1450.48224        25.50924
E19  26982199.91225   -239448.52225      2375.78025        29.60725  26982039.52325   -177043.67525      1771.32625        32.05925
E27  23309001.51426     -4534.85226        29.05826        35.55026  23308839.92625     -3919.20725        22.50325        29.77625
E30  25376664.40124    246160.38024     -2362.78824        29.36624  25376477.63025    186410.42825     -1769.20125        30.22725
> 2023 11 07 23 44 27.0002663  0 20                      
G04  23486031.35926    405854.27526     -3555.81126        40.38426  23485877.26525    305757.64525     -2655.07525        34.99525
G05  24230151.01623   -118640.74823      1114.34723        21.06123                                                                
G07  20925307.91125     -5349.58025        32.75725        31.92625                                                                
G08  21963818.66526    -23387.28326       156.80826        38.60626  21963652.88025    -17969.48825       118.39325        32.59125
G09  21098826.58627    280250.69727     -2447.21827        43.66827  21098665.89825    214808.22325     -1826.22225        31.77125
G14  22072800.41826   -288731.73726      2470.44026        35.58126  22072640.62925   -221384.01525      1844.06925        29.80425
G20  23256327.67923     96270.63423      -860.47123        21.47923                                                                
G22  23337364.57925   -345967.31725      2969.81825        35.01625                                                                
G27  23601519.20825    235407.07525     -2070.04625        29.74825  23601348.32724    180892.61424     -1551.95524        27.64624
G30  21602131.95526   -159341.43326      1358.70526        39.45826  21601967.36926   -122143.25426      1016.10826        40.80426
R02  19471865.20827    207579.29327     -1844.10627        42.08427
R13  20027911.56525    -84312.55425       697.66225        31.85125
R12  20191886.04825    251639.82625     -2189.94525        30.44325
R01  22808550.46925    533275.14925     -4590.22025        33.85825
R21  23663255.16925    -93035.68025       761.42425        30.51125
R03  20546464.97825   -277577.34825      2356.53225        35.18225
E07  24249151.56226    225915.01826     -1948.41526        40.80426  24248991.17324    169783.25924     -1454.37124        27.28124
E19  26976344.36524   -267902.99024      2368.38824        23.84124  26976180.07924   -198263.60324      1766.85824        28.40624
E27  23308482.57326     -4875.78426        23.04526        38.05526  23308325.78224     -4180.87224        17.95724        29.39524
E30  25381608.27824    274578.39924     -2365.78124        29.38424  25381438.89524    207690.09924     -1772.42024        28.30124
> 2023 11 07 23 44 39.0002647  0 19                      
G04  23493673.66825    448547.55825     -3557.85025        29.64425  23493514.47824    337622.26324     -2655.76124        26.60024
G05  24227168.98023   -131948.04723      1106.79423        20.24023                                                                
G07  20924754.49425     -5730.55825        29.80325        29.98525                                                                
G08  21962982.84325    -25250.44625       151.03225        33.57125  21962817.35824    -19352.94624       114.84124        28.53024
G09  21103935.64926    309647.88826     -2454.54226        38.03326  21103772.26225    236775.81225     -1828.92625        31.05025
G14  22066678.95626   -318348.26226      2465.28426        41.15026  22066519.16725   -243517.33525      1841.91825        30.59925
G20  23257855.42223    106669.27923      -871.04523        21.92523                                                                
G22  23330101.80726   -381590.89626      2967.35926        37.51426                                                                
G27  23605798.44624    260330.77524     -2084.18624        26.56924  23605623.06723    199539.88323     -1552.31923        21.32723
G30  21598541.64126   -175669.49226      1358.34926        38.27226  21598378.55426   -134305.27826      1013.53526        39.47026
R02  19475536.46726    229757.33626     -1852.61726        41.19926
R13  20025844.19725    -92647.18425       692.38325        30.65625
R12  20196324.77525    277990.92125     -2197.72625        29.61225
R01  22818376.76626    588385.68026     -4592.49726        37.33826
R21  23661079.57524   -102107.70124       751.93924        26.92424
R03  20540753.33224   -305849.60424      2351.17424        28.40424
E07  24253124.71126    249314.56726     -1952.26226        36.80126  24252960.42524    187259.43624     -1456.79224        27.72124
E27  23307956.43825     -5107.65625        19.22125        35.18625  23307792.75125     -4388.57925        14.54325        30.63725
E30  25386545.26024    303004.56524     -2366.69824        26.60824                                                                
> 2023 11 07 23 44 51.0002632  0 20                      
G04  23501342.05927    491247.07627     -3557.71227        41.84627  23501186.46725    369506.02125     -2658.00825        32.83525
G05  24224213.32623   -145169.83723      1102.17323        23.25323                                                                
G07  20924241.54925     -6078.95925        30.21025        32.11025                                                                
G08  21962188.99326    -27027.92826       145.26226        37.07026  21962028.60425    -20669.20325       108.25125        31.62225
G09  21109089.38227    339098.16727     -2456.28027        44.90727  21108924.49625    258768.02825     -1834.05725        33.59725
G14  22060597.66627   -347917.68427      2462.86327        42.65127  22060437.27725   -265598.91325      1839.16425        32.64925
G20  23259380.16625    117170.43425      -878.65025        30.46325                                                                
G22  23322884.60324   -417162.98524      2962.77224        28.92324                                                                
G27  23610100.76724    285323.26924     -2083.41424        26.77524  23609938.28023    218213.18923     -1560.87223        22.00023
G30  21594989.10025   -191970.94425      1359.62525        35.11325  21594825.41326   -146470.75126      1013.57226        38.64426
R02  19479259.88927    252053.11127     -1861.53127        44.58027
R13  20023853.87424   -100930.74824       688.06824        27.10324
R12  20200811.46925    304357.59125     -2204.79725        30.32025
R01  22828230.04526    643513.39326     -4595.37826        40.83526
R21  23658963.64024   -111055.03924       742.89124        27.50824
R03  20535014.40525   -334007.46125      2342.13725        34.94225
E07  24257125.44126    272749.44126     -1954.62626        40.99126  24256966.55125    204753.46725     -1459.55225        31.17725
E19  26964627.27723   -324681.69923      2368.38423        17.82523                                                                
E27  23307462.67926     -5331.61026        15.48026        38.54226  23307299.29224     -4530.72024        12.47724        29.17224
E30  25391514.92024    331462.85424     -2368.69824        27.53624  25391343.73924    250285.80224     -1773.02624        24.62524
> 2023 11 07 23 45 03.0002616  0 20                      
G04  23508993.36326    533982.67126     -3561.12426        35.67026  23508835.67223    401421.86823     -2659.71623        21.17223
G05  24221251.37724   -158342.75624      1092.57624        26.15024                                                                
G07  20923702.22225     -6389.42625        27.37825        32.43425                                                                
G08  21961392.44425    -28711.75725       135.43125        34.93325  21961227.85825    -21931.79425       101.65925        31.57925
G09  21114221.52926    368625.06226     -2463.65126        41.11726  21114058.74125    280814.13925     -1838.65225        32.02425
G14  22054498.08927   -377441.39227      2459.40927        44.57627  22054334.70226   -287649.40026      1836.02726        35.59726
G20  23260922.29924    127756.79424      -885.87524        28.81024                                                                
G22  23315632.32426   -452710.21126      2960.94126        41.09626                                                                
G27  23614413.28225    310382.29525     -2092.34225        29.52425                                                                
G30  21591409.87826   -208250.61226      1357.04326        39.03726  21591246.79127   -158613.97727      1013.04927        42.18527
R02  19482981.51327    274470.91427     -1873.50627        43.39627
R13  20021831.77425   -109159.83525       682.99425        29.94325
R12  20205290.66825    330776.46925     -2203.81425        32.57725
R01  22838075.23026    698668.25826     -4597.22826        38.98326
R21  23656862.09524   -119899.68824       732.91324        27.53224
R03  20529291.06826   -362048.84826      2332.90026        37.73326
E07  24261114.48026    296232.26526     -1958.87726        37.91026  24260951.39325    222290.87125     -1462.98425        30.76825
E19  26958724.66323   -353102.15223      2366.64023        18.39123                                                                
E27  23306948.53526     -5520.99226        12.09826        36.33126  23306785.44825     -4650.58525         9.26225        31.09325
E30  25396457.89824    359893.18824     -2371.31724        27.01024  25396288.81524    271539.63024     -1771.50024        24.72624
> 2023 11 07 23 45 15.0002601  0 20                      
G04  23516674.64526    576751.68726     -3566.99526        40.77926  23516520.25225    433355.14325     -2663.04625        33.77725
G05  24218319.70624   -171363.33424      1079.80424        27.50324                                                                
G07  20923197.07225     -6687.25525        22.96725        30.96025                                                                
G08  21960636.66826    -30295.92326       124.45426        37.52926  21960474.48025    -23088.94725        93.67025        30.80825
G09  21119399.54427    398220.09727     -2468.75227        42.62427  21119237.95625    302918.06425     -1845.45225        31.65625
G14  22048432.68827   -406912.73927      2453.81427        47.22427  22048272.59826   -309667.75026      1832.22226        40.30626
G20  23262494.71025    138438.30525      -893.83325        32.05925                                                                
G22  23308420.81626   -488215.29626      2956.94026        39.38226                                                                
G27  23618774.36324    335545.26824     -2099.67824        25.24524  23618586.39324    255755.20424     -1570.47124        26.14324
G30  21587867.83026   -224497.37126      1353.96026        39.22526  21587703.24427   -170745.58327      1008.76627        41.86527
R02  19486744.20827    297006.78227     -1884.49127        44.16827
R13  20019851.34525   -117324.86525       677.76325        30.27525
R12  20209776.46325    357219.48325     -2206.16825        31.52225
R01  22847932.40626    753858.53026     -4600.56926        39.17326
R21  23654816.61124   -128631.58224       726.31824        24.27524
R03  20523599.20826   -389985.91126      2324.01626        37.03126
E07  24265134.99726    319753.88026     -1963.42026        40.69026  24264975.80724    239862.19424     -1466.25824        26.80224
E19  26952890.70223   -381533.65923      2363.20523        19.76623  26952728.81424   -283002.88724      1761.75324        25.69324
E27  23306476.66226     -5625.68826         5.30526        36.60726  23306310.27725     -4722.58925         3.23125        30.58625
E30  25401426.95824    388401.98424     -2369.19724        29.25924  25401260.57325    292816.12425     -1777.33925        29.65225
> 2023 11 07 23 45 27.0002585  0 20                      
G04  23524337.04027    619565.27727     -3570.65627        42.27127  23524182.34725    465322.38325     -2667.02225        31.31525
G05  24215388.33525   -184291.95425      1069.48025        29.78625                                                                
G07  20922674.53425     -6931.84625        21.90125        30.38725                                                                
G08  21959876.09427    -31767.31127       117.46527        42.13727  21959711.20826    -24181.35426        88.81526        37.22026
G09  21124565.26827    427900.29327     -2477.64627        44.00227  21124401.28126    325094.25226     -1850.08226        39.64126
G14  22042357.39427   -436303.05427      2443.20927        44.64427  22042196.10525   -331615.58825      1824.86625        35.34125
G20  23264072.51825    149225.94425      -905.00025        31.00925                                                                
G22  23301192.82026   -523647.04726      2944.04526        37.78526                                                                
G27  23623091.97425    360802.53025     -2114.86125        31.43825  23622921.09225    274651.87625     -1577.39025        30.72725
G30  21584317.98824   -240692.78224      1348.00124        29.27124  21584138.71227   -182831.76727      1005.80527        41.67527
R02  19490510.50027    319688.90027     -1895.73327        41.89427
R13  20017856.82624   -125383.50424       667.39124        28.05824
R12  20214302.43025    383732.84925     -2211.37025        32.33725
R01  22857792.57926    809101.77226     -4606.40626        36.54226
R21  23652675.49325   -137236.89925       709.53725        33.76125
R03  20517949.61925   -417812.92725      2313.71425        32.63525
E07  24269141.72327    343389.01327     -1969.76427        41.92127  24268980.13526    257479.07326     -1470.57926        36.37226
E19  26947032.15823   -409912.64423      2359.59723        20.49023  26946863.07525   -304104.24725      1759.63325        32.21225
E27  23305986.20125     -5658.76225        -0.10825        33.60625  23305823.11425     -4743.91325         0.05325        35.17125
E30  25406387.02424    416917.07324     -2382.10024        27.70924  25406219.14024    314194.54024     -1778.19924        25.95724
> 2023 11 07 23 45 39.0002569  0 20                      
G04  23532018.02325    662442.12625     -3577.21725        33.24825  23531858.23424    497347.95924     -2670.87324        28.46724
G05  24212450.07025   -197102.18625      1065.00525        31.71925                                                                
G07  20922147.79825     -7147.34225        15.40225        33.62925                                                                
G08  21959143.40125    -33118.48725       107.54925        32.77725  21958973.11925    -25180.06825        78.92025        32.19425
G09  21129746.88126    457674.47126     -2485.84926        40.85826  21129582.29526    347318.66926     -1855.29926        37.04426
G14  22036288.39526   -465627.82126      2443.44526        40.18826  22036132.20326   -353512.10526      1824.73126        37.06526
G20  23265656.02126    160112.36126      -906.73126        41.36526                                                                
G22  23293977.41526   -559022.15726      2946.78026        39.16726                                                                
G27  23627451.25625    386180.23325     -2118.53925        34.81225  23627277.37626    293666.42026     -1586.59126        36.40426
G30  21580747.45927   -256846.81227      1346.37427        43.87827  21580583.77326   -194890.26526      1006.54626        37.05326
R02  19494309.17127    342509.09727     -1905.82127        43.49427
R13  20015898.88225   -133356.84725       662.34625        31.11125
R12  20218786.12625    410297.02925     -2217.24125        32.38325
R01  22867638.96327    864391.82727     -4610.42827        41.79327
R21  23650609.92325   -145725.71925       696.84725        35.14325
R03  20512274.24827   -445524.04727      2305.05027        43.53227
E07  24273162.53926    367052.77026     -1974.92526        38.66126  24272999.45225    275149.44725     -1474.52725        34.89825
E19  26941162.82125   -438202.32325      2357.86625        31.24625  26941002.73224   -325245.28724      1764.85224        24.74524
E27  23305513.72926     -5619.42226        -5.07726        37.18826  23305347.34425     -4675.05925        -3.53325        33.40525
E30  25411344.99225    445439.36925     -2385.91925        31.89925  25411176.80826    335550.68126     -1782.12526        40.63526
> 2023 11 07 23 45 51.0002553  0 20                      
G04  23539700.50425    705367.76325     -3579.02725        33.57925  23539544.61225    529404.53325     -2673.92825        31.82225
G05  24209562.46925   -209804.24725      1056.74025        30.03025                                                                
G07  20921636.05325     -7295.99225        12.05525        34.28525                                                                
G08  21958420.00226    -34348.65326        99.17526        41.04926  21958257.81426    -26089.56326        73.11826        36.34426
G09  21134944.98227    487534.91727     -2491.60727        42.14727  21134780.69626    369615.53826     -1861.39726        38.77226
G14  22030234.98626   -494891.58526      2432.49126        38.78026  22030079.09425   -375366.27225      1817.26625        34.84725
G20  23267261.11025    171088.28625      -920.39725        33.28925                                                                
G22  23286768.00627   -594351.35527      2939.15427        47.17827                                                                
G27  23631835.12124    411650.23624     -2123.31424        26.31224  23631659.74224    312740.45124     -1590.71624        28.20124
G30  21577197.61726   -272963.59026      1342.70926        36.96326  21577033.03126   -206919.02326      1001.48626        39.11926
R02  19498121.93127    365463.38227     -1920.22127        43.66727
R13  20013924.44825   -141258.17925       656.70125        31.21925
R12  20223297.10325    436935.17925     -2217.64225        29.72825
R01  22877523.12025    919737.57025     -4615.27925        30.09825
R21  23648563.54024   -154072.58824       687.82324        27.94824
R03  20506646.54426   -473122.17926      2297.77826        37.48026
E07  24277192.05026    390780.46926     -1980.61826        39.66826  24277030.76126    292870.08926     -1479.01326        37.53626
E19  26935312.67124   -466453.09224      2355.17924        24.87324  26935145.98625   -346338.63325      1757.15125        30.46725
E27  23305046.35226     -5514.86626       -11.53226        36.13026  23304884.16425     -4563.11125        -8.71825        31.19525
E30  25416309.55525    474103.00325     -2387.49025        32.31125  25416148.86625    356934.65925     -1781.69725        30.47625
> 2023 11 07 23 46 03.0002537  0 20                      
G04  23547404.57125    748358.06625     -3583.00325        35.13725  23547241.48425    561507.93625     -2675.57925        31.54125
G05  24206679.66425   -222424.53125      1045.60425        30.27425                                                                
G07  20921130.00325     -7414.23825         6.19625        34.26125                                                                
G08  21957725.68325    -35461.01525        85.00025        32.36325  21957563.79525    -26925.62225        66.71425        32.70925
G09  21140162.57027    517495.13527     -2499.57027        43.85327  21139999.48326    391985.85726     -1865.87526        40.65026
G14  22024204.36127   -524061.18627      2428.44127        43.79027  22024043.07225   -397153.83625      1813.93325        34.94925
G20  23268888.68426    182173.56126      -927.56726        36.01626                                                                
G22  23279585.27825   -629596.52725      2938.10525        34.77925                                                                
G27  23636226.18125    437240.97425     -2136.16225        32.19125  23636052.90125    331861.72425     -1597.79925        32.73525
G30  21573654.07027   -289042.21827      1337.64927        43.36327  21573492.18227   -218927.20427       999.20227        42.87227
R02  19501969.16827    388575.14827     -1931.25427        42.50427
R13  20011963.20625   -149068.72725       647.17625        30.10525
R12  20227787.99425    463601.54325     -2225.19425        31.95825
R01  22887400.98226    975137.89826     -4620.37826        36.05026
R21  23646695.53325   -162295.41725       681.56625        30.11725
R03  20501018.54026   -500615.91626      2284.97326        40.02126
E07  24281238.64826    414611.36226     -1985.61526        41.23726  24281078.55926    310645.53626     -1482.81126        38.60326
E19  26929468.51723   -494676.31423      2352.95223        21.93323  26929294.63724   -367429.08124      1755.21824        26.74124
E27  23304598.76226     -5336.58826       -17.77226        37.12926  23304433.57625     -4417.77725       -12.92525        32.80425
E30  25421302.29924    502735.40324     -2388.81624        28.06024  25421124.22225    378376.15425     -1785.70225        33.87325
> 2023 11 07 23 46 15.0002521  0 20                      
G04  23555100.54326    791387.11026     -3583.38726        37.32726  23554946.45025    593636.84125     -2677.05525        31.78325
G05  24203818.74525   -234928.99425      1036.54225        31.58225                                                                
G07  20920637.74425     -7507.04125         7.29625        34.33525                                                                
G08  21957055.04726    -36471.94826        79.80626        39.05526  21956889.86125    -27687.74625        60.45525        35.19025
G09  21145392.74927    547515.61527     -2502.45227        44.18127  21145227.86326    414404.85226     -1868.92326        39.25626
G14  22018171.63726   -553198.67926      2426.68626        39.80026  22018016.94426   -418913.26226      1812.31626        39.10926
G20  23270533.34526    193338.23626      -933.67826        36.44826                                                                
G22  23272395.05626   -664820.22626      2933.36126        39.54626                                                                
G27  23640645.42224    462907.68924     -2140.44524        28.33724  23640470.04324    351070.79224     -1605.33024        25.30224
G30  21570121.01626   -305089.78526      1336.11826        36.85226  21569954.93126   -230908.47626       997.27526        39.32526
R02  19505837.98927    411798.04727     -1939.25527        44.66727
R13  20010038.23924   -156815.66324       645.35924        29.10224
R12  20232338.24425    490304.65625     -2230.99025        32.12625
R01  22897289.63626   1030558.73326     -4617.18626        36.88526
R21  23644677.63024   -170419.03524       671.36024        28.55324
R03  20495431.90826   -527990.60526      2278.38026        38.09726
E07  24285293.64126    438460.39726     -1988.20926        40.93126  24285132.35326    328476.47126     -1484.44626        36.02226
E19  26923609.37324   -522924.01124      2347.89724        29.09224  26923445.98625   -388484.14925      1753.17025        33.68525
E27  23304157.46725     -5107.52625       -21.10625        35.16625  23303995.58025     -4246.83925       -14.98825        33.41425
E30  25426271.05925    531425.26025     -2392.02425        30.00225  25426107.97225    399830.98325     -1787.73525        30.28925
> 2023 11 07 23 46 27.0002505  0 20                      
G04  23562812.10526    834447.56026     -3592.45626        37.65826  23562658.61125    625792.09725     -2681.36825        30.82925
G05  24200982.10925   -247341.98025      1033.25825        30.03125                                                                
G07  20920142.48725     -7533.19325         4.77125        33.93925                                                                
G08  21956404.49726    -37373.25026        69.15626        37.42926  21956237.21325    -28359.58425        52.53425        34.02125
G09  21150635.82027    577611.81427     -2511.69327        42.94227  21150471.83326    436876.17826     -1874.09926        38.68726
G14  22012155.10226   -582275.85326      2422.12626        41.47126  22011999.21026   -440623.14726      1807.68126        37.12426
G20  23272187.60025    204593.40225      -939.84325        34.70625                                                                
G22  23265216.82626   -699987.47026      2931.79626        38.41226                                                                
G27  23645077.25425    488667.74025     -2152.37325        31.79225  23644902.77424    370364.80224     -1610.16324        27.85824
G30  21566588.26226   -321111.46026      1331.84026        39.65826  21566426.07426   -242858.82826       995.59726        40.71526
R02  19509737.39027    435147.94627     -1950.18927        42.90227
R13  20008120.46625   -164483.31125       635.80825        29.86225
R12  20236874.10425    517086.35625     -2232.71325        32.49325
R01  22907166.59926   1086009.78826     -4623.23226        39.42626
R21  23642692.10526   -178473.78526       668.59326        37.36826
R03  20489851.27126   -555258.29726      2269.10726        40.61726
E07  24289359.42626    462358.21126     -1994.37026        41.14626  24289196.93926    346320.54526     -1488.25026        36.57126
E19  26917756.82525   -551111.42425      2345.73425        30.84025  26917605.13025   -409506.48425      1751.77125        34.47425
E27  23303729.66426     -4818.76326       -26.93426        37.14026  23303567.17626     -4004.24926       -20.02026        36.29026
E30  25431260.80424    560154.59424     -2395.51624        28.19224  25431097.41825    421308.21025     -1789.96025        32.29425
> 2023 11 07 23 46 39.0002489  0 20                      
G04  23570530.56125    877545.22225     -3596.62425        33.94025  23570376.16825    657983.68525     -2682.97025        30.50525
G05  24198147.27125   -259646.84325      1020.54625        33.12525                                                                
G07  20919662.51925     -7536.36925        -0.37225        35.05825                                                                
G08  21955769.83725    -38167.10125        63.67625        33.49725  21955603.15226    -28936.82526        46.93226        37.63026
G09  21155893.58026    607783.91326     -2519.38526        41.47626  21155729.59326    459410.60826     -1879.01426        38.95326
G14  22006151.45827   -611291.56427      2414.97827        41.97827  22005993.46825   -462295.43925      1805.26625        33.41025
G20  23273863.44025    215933.73625      -949.85325        31.09925                                                                
G22  23258054.48426   -735107.67226      2924.95826        40.29926                                                                
G27  23649542.66225    514518.03625     -2158.83225        30.85825  23649356.19124    389719.31524     -1614.06024        27.56924
G30  21563064.20126   -337086.51326      1332.65226        40.00426  21562905.01126   -254781.36126       994.36026        38.69026
R02  19513655.37727    458628.42527     -1962.49927        41.84727
R13  20006223.97925   -172083.54525       627.48125        31.70625
R12  20241409.66425    543910.21425     -2239.74525        33.00725
R01  22917054.05426   1141497.31326     -4627.38926        35.77526
R21  23640750.04926   -186414.38026       655.26426        37.92526
R03  20484294.31827   -582409.39627      2259.18927        42.34227
E07  24293431.50726    486312.20626     -1997.79526        37.89326  24293271.11826    364207.05526     -1491.32426        36.67726
E19  26911931.85725   -579274.85125      2342.47825        31.71825  26911768.47025   -430523.53425      1751.02825        32.07325
E27  23303316.55026     -4480.22526       -30.93126        36.51726  23303150.46525     -3745.15725       -22.96425        29.93925
E30  25436264.04124    588903.32024     -2397.54024        29.40724  25436092.85925    442805.19725     -1792.39525        33.65625
> 2023 11 07 23 46 51.0002473  0 20                      
G04  23578264.60726    920702.63726     -3596.90326        39.64226  23578107.51624    690226.31924     -2684.66024        27.58724
G05  24195343.61225   -271865.34025      1013.41425        34.13825                                                                
G07  20919187.94825     -7521.99425        -1.75325        34.73025                                                                
G08  21955158.26025    -38861.12025        56.19525        34.28525  21954988.87725    -29448.12025        39.75525        32.30625
G09  21161169.02826    638050.70926     -2523.39326        40.19626  21161005.04126    482021.13326     -1883.59626        38.70726
G14  22000163.70427   -640220.21827      2412.30227        41.92727  22000004.81426   -483901.14926      1800.20126        38.02426
G20  23275554.26925    227370.25825      -953.67525        31.42625                                                                
G22  23250902.63526   -770143.38926      2919.29426        38.73826                                                                
G27  23653990.08325    540494.70225     -2166.37825        30.14025  23653818.30224    409114.95024     -1621.77824        29.08624
G30  21559552.43226   -353029.03726      1326.15826        39.55626  21559387.24726   -266682.29526       990.83726        41.26026
R02  19517591.35327    482255.54727     -1974.20127        41.88727
R13  20004334.98725   -179600.04825       622.53625        29.80625
R12  20245972.50525    570773.32525     -2242.25725        34.43825
R01  22926978.68325   1197047.90425     -4628.95925        32.41025
R21  23638791.80525   -194192.30525       644.76025        34.49925
R03  20478761.64826   -609460.59026      2249.57126        40.25926
E07  24297516.77926    510316.21926     -2001.66326        37.61226  24297359.38826    382149.52226     -1494.22926        36.09226
E19  26906095.19824   -607395.74624      2341.67524        26.73224  26905934.20924   -451524.97024      1747.88824        29.11724
E27  23302910.03126     -4118.54026       -36.64826        36.31226  23302746.94425     -3416.01425       -27.14125        34.34525
E30  25441269.37625    617696.91225     -2397.69425        29.51825  25441088.00125    464303.31125     -1793.21825        32.75925
> 2023 11 07 23 47 03.0002457  0 20                      
G04  23585995.35526    963880.45426     -3597.08026        35.55626  23585841.26225    722478.06625     -2687.98025        31.97725
G05  24192560.03925   -283993.91025      1007.59825        32.67525                                                                
G07  20918716.67425     -7475.64425        -5.54925        32.42525                                                                
G08  21954558.97525    -39456.72325        45.54625        32.25825  21954395.88825    -29880.02325        32.70825        33.70625
G09  21166455.56826    668372.84226     -2529.70726        39.36926  21166292.48126    504664.25526     -1890.02826        39.79026
G14  21994179.54626   -669120.75726      2407.01726        39.62926  21994020.35726   -505480.77926      1795.51126        37.55226
G20  23277265.48426    238875.83926      -966.39826        35.79826                                                                
G22  23243753.48427   -805159.07027      2916.21227        44.50727                                                                
G27  23658489.36925    566540.40325     -2174.39225        31.97225  23658306.49524    428615.99024     -1628.53924        26.86724
G30  21556043.96126   -368932.27726      1318.38626        35.70326  21555878.77626   -278562.18226       986.50326        36.65926
R02  19521548.61326    505987.78426     -1982.60426        37.35326
R13  20002451.09124   -187042.95824       618.37024        29.10124
R12  20250522.15525    597693.99125     -2245.27825        33.81625
R01  22936904.81125   1252601.63125     -4630.63625        29.99425
R21  23636882.42725   -201886.10725       634.42225        33.06825
R03  20473249.36426   -636394.61026      2238.29726        39.26926
E07  24301614.64226    534390.47226     -2006.96326        38.22226  24301455.15326    400116.61226     -1498.76126        37.44726
E19  26900270.83024   -635454.46324      2339.34324        25.61724  26900103.84624   -472447.50024      1744.44224        25.61524
E27  23302514.00526     -3647.97126       -42.42226        36.40326  23302351.81826     -3071.75226       -32.24826        36.50626
E30  25446287.00225    646478.12425     -2401.59225        29.53225  25446095.13525    485848.01325     -1796.90725        31.81225
> 2023 11 07 23 47 15.0002440  0 20                      
G04  23593698.52226   1007069.57526     -3604.23926        38.56826  23593550.12523    754736.73823     -2693.00323        23.37323
G05  24189788.75824   -296019.53324       996.74724        25.64224                                                                
G07  20918215.12126     -7376.12626       -10.88226        38.08926                                                                
G08  21953942.60227    -39985.19327        38.05527        41.97527  21953781.31325    -30269.87425        28.96025        34.76925
G09  21171724.72026    698754.48026     -2538.04026        40.25226  21171561.33325    527356.87525     -1895.68725        30.23825
G14  21988194.19025   -697921.41425      2393.89425        35.46825  21988026.60626   -526976.92626      1790.07926        36.70326
G20  23278985.09424    250494.15324      -972.58524        28.07324                                                                
G22  23236601.93525   -840085.84525      2905.69425        30.36325                                                                
G27  23662951.77926    592687.57026     -2182.24726        37.09426  23662767.40725    448149.72825     -1628.56625        33.13225
G30  21552533.69125   -384820.36225      1323.23225        30.86625  21552348.42026   -290392.07426       987.17626        40.26926
R02  19525519.36426    529863.09726     -1997.43726        39.09626
R13  20000561.79924   -194429.20524       613.98924        23.87524
R12  20255057.11626    624661.85626     -2248.74926        40.68426
R01  22946788.66925   1308199.67825     -4639.61125        31.34925
R21  23634936.17425   -209430.05225       624.53825        30.02825
R03  20467738.87925   -663239.09525      2233.70725        33.96225
E07  24305686.42326    558486.87526     -2012.96726        38.18326  24305527.83325    418109.85725     -1502.71125        32.62225
E19  26894426.07623   -663588.37723      2339.22923        22.77223  26894260.29124   -493378.38324      1743.81724        24.68224
E27  23302102.39026     -3107.21326       -47.35726        36.73426  23301941.40225     -2662.22725       -35.20925        30.29625
E30  25451232.67826    675271.50826     -2404.09726        36.87526  25451069.59126    507383.46326     -1794.54526        37.27326
> 2023 11 07 23 47 27.0002424  0 20                      
G04  23601448.75726   1050312.71026     -3604.84126        39.99626  23601291.96624    787038.03124     -2691.60024        28.62624
G05  24187039.36124   -307982.32824       991.35324        28.66324                                                                
G07  20917766.63126     -7241.24826       -14.53626        36.78526                                                                
G08  21953380.79126    -40407.37726        29.51526        37.53026  21953216.50425    -30592.61025        23.21425        34.17725
G09  21177038.84127    729224.14927     -2542.68127        44.62227  21176876.35425    550111.23125     -1897.70525        32.10125
G14  21982243.01025   -726651.88825      2396.98725        32.31725  21982079.62324   -548424.68524      1784.26324        29.30924
G20  23280731.08525    262220.79025      -980.84425        31.81125                                                                
G22  23229492.35724   -874964.93324      2901.48524        27.54724                                                                
G27  23667457.66024    618929.61224     -2192.36724        29.06924  23667279.58324    467737.21724     -1634.88324        26.58624
G30  21549038.11125   -400675.96525      1319.69725        31.48925  21548857.63626   -302194.72926       982.09826        41.47826
R02  19529531.18726    553880.56426     -2005.53826        38.07326
R13  19998727.66924   -201714.90424       608.02324        24.20224
R12  20259642.74126    651686.60526     -2253.07326        38.00626
R01  22956695.61026   1363849.25926     -4636.24626        37.06726
R21  23633085.25625   -216849.23125       612.89425        31.66725
R03  20462267.96725   -689972.62025      2221.49225        34.99325
E07  24309802.57427    582636.95727     -2015.33627        42.47727  24309641.88525    436162.08825     -1504.25125        30.63025
E19  26888615.49923   -691689.06023      2336.00823        23.07923  26888446.11624   -514283.15524      1741.67424        29.38324
E27  23301736.04426     -2513.77526       -52.42826        36.41926  23301572.35725     -2214.93725       -38.68625        34.75125
E30  25456243.40925    704137.14925     -2407.57425        31.58425  25456077.62424    528929.62924     -1796.62324        27.83624
> 2023 11 07 23 47 39.0002408  0 20                      
G04  23609194.79526   1093584.62926     -3607.81026        36.94326  23609041.60124    819352.23324     -2693.10024        26.19624
G05  24184311.25024   -319824.80324       980.91024        28.99424                                                                
G07  20917309.44825     -7101.45425       -13.55025        33.14125                                                                
G08  21952832.47026    -40736.73226        26.26226        37.53626  21952669.38326    -30843.02726        18.17326        39.37326
G09  21182364.05526    759763.87126     -2549.55026        39.85526  21182202.76625    572904.86625     -1902.70525        35.37725
G14  21976306.52025   -755319.61125      2386.26625        31.71725  21976142.83325   -569836.25225      1781.75125        31.59225
G20  23282495.36425    274027.60925      -988.27225        29.52325                                                                
G22  23222393.27224   -909771.97524      2901.72524        26.58824                                                                
G27  23671977.33125    645258.21525     -2193.38425        32.77625  23671800.15425    487361.79225     -1638.28325        32.20125
G30  21545549.12725   -416493.79925      1321.33725        31.16025  21545373.44827   -313978.08927       981.95527        41.60527
R02  19533575.98726    578017.91926     -2017.06326        36.88226
R13  19996887.84324   -208952.83724       599.46624        23.73324
R12  20264207.08126    678732.61126     -2255.92826        37.98926
R01  22966626.23625   1419516.08425     -4643.33625        33.29825
R21  23631205.85726   -224168.68426       606.91426        37.60826
R03  20456829.43225   -716618.12725      2215.32225        32.95325
E07  24313926.51926    606843.04726     -2020.10526        38.02526  24313764.63125    454145.30525     -1507.88625        33.51425
E19  26882801.62424   -719701.00924      2332.86424        24.34824  26882635.83824   -535198.19724      1740.78524        26.46424
E27  23301378.09226     -1894.97626       -56.36026        36.77926  23301214.70525     -1729.66625       -41.76825        31.82825
E30  25461253.24125    733030.16925     -2407.77625        31.64725  25461086.85625    550472.08725     -1795.88625        31.19025
> 2023 11 07 23 47 51.0002391  0 20                      
G04  23616947.72724   1136943.34724     -3618.35924        26.86924  23616780.44324    851726.04124     -2702.59224        25.83724
G05  24181543.56626   -331589.34926       979.22326        37.07026                                                                
G07  20916827.08225     -6941.84725       -13.79125        34.99025                                                                
G08  21952280.85226    -40971.86326        12.95326        35.81326  21952114.76725    -31002.75025        10.28925        31.27125
G09  21187688.96826    790405.39526     -2558.72626        40.05726  21187521.08426    595792.50926     -1911.07126        39.66126
G14  21970369.13025   -783937.66725      2383.90325        30.82125  21970192.55226   -591172.55926      1776.85626        35.85726
G20  23284260.84224    285881.24724      -992.10624        29.11424                                                                
G22  23215263.00825   -944507.61125      2897.59125        30.44925                                                                
G27  23676463.42526    671637.30526     -2200.13526        41.20526  23676303.93625    507042.75425     -1643.06325        35.13025
G30  21542026.86525   -432304.88325      1315.96025        34.67425  21541859.28125   -325754.93725       982.30625        30.12625
R02  19537623.48525    602298.74725     -2028.58525        35.34825
R13  19995032.42724   -216111.63524       594.73324        24.71024
R12  20268765.12626    705794.64926     -2254.75126        41.31926
R01  22976545.16924   1475258.64224     -4650.18724        25.43724
R21  23629340.54824   -231410.10524       599.87924        26.18724
R03  20451328.84026   -743171.84426      2209.92526        37.96126
E07  24318038.77226    631140.89326     -2028.21926        36.17326  24317875.38526    472228.10226     -1514.79726        37.52126
E19  26876956.57024   -747736.71724      2338.06724        28.08024                                                                
E27  23301000.35325     -1232.11725       -62.07725        34.94225  23300835.46725     -1164.73025       -46.27425        33.02325
E30  25466226.19827    761887.83227     -2405.87827        42.15127  25466064.91025    572028.97425     -1796.33725        33.47025
> 2023 11 07 23 48 03.0002375  0 20                      
G04  23624724.64324   1180362.37424     -3619.51824        28.79824  23624563.65523    884129.40723     -2702.37423        21.07923
G05  24178839.73825   -343261.96125       968.85025        33.96625                                                                
G07  20916374.39526     -6745.77926       -20.02026        41.27926                                                                
G08  21951776.30126    -41074.74026         1.37326        38.10426  21951609.91725    -31067.10725         2.33625        34.92425
G09  21193031.27026    821137.89126     -2562.03126        37.59826  21192887.07024    618736.84524     -1912.50524        27.35724
G14  21964450.62726   -812484.68426      2377.48626        38.85626  21964286.64124   -612470.71324      1775.57424        23.98524
G20  23286054.20025    297841.37925     -1002.91125        30.96825                                                                
G22  23208178.01325   -979228.84525      2892.16725        30.53325                                                                
G27  23681016.37426    698103.12326     -2212.97226        36.60326  23680857.48325    526813.33925     -1653.05025        35.21025
G30  21538542.37725   -448079.50025      1311.54825        35.49525  21538375.09324   -337519.39224       980.63424        29.02324
R02  19541718.65027    626702.82427     -2037.82627        43.96127
R13  19993229.47524   -223210.68724       587.10924        29.44324
R12  20273351.35127    732894.43127     -2262.90827        45.51527
R01  22986528.85724   1531053.05624     -4649.49024        26.46824
R21  23627549.88824   -238517.28224       581.68624        26.53324
R03  20445917.28625   -769614.61425      2195.95825        33.10925
E07  24322192.09725    655526.72625     -2034.38225        31.54825  24322030.20925    490388.73725     -1516.60625        33.07025
E19  26871136.10025   -775794.98025      2333.37425        31.90025  26870974.51124   -577058.41024      1743.00424        24.34924
E27  23300660.08926      -449.93226       -65.12726        36.60826  23300500.89924      -563.91524       -49.51324        25.09824
E30  25471234.53127    790783.04727     -2413.34427        42.91927  25471079.53926    593606.78626     -1801.68126        37.83126
> 2023 11 07 23 48 15.0002358  0 20                      
G04  23632485.97024   1223795.28024     -3621.72324        27.86924                                                                
G05  24176122.41926   -354858.93426       960.93226        39.11326                                                                
G07  20915902.22226     -6515.88126       -17.67726        37.47126                                                                
G08  21951265.45526    -41068.15026        -3.27726        40.20626  21951099.97025    -31058.42525        -2.70225        31.38725
