     3.03           OBSERVATION DATA    M                   RINEX VERSION / TYPE
GNSSToRINEXV3       Google              20200521 212220 UTC PGM / RUN BY / DATE
Google GnssLogger                                           MARKER NAME
Unknown                                                     MARKER NUMBER
Unknown             Unknown                                 OBSERVER / AGENCY
Unknown             GNSSToRINEXV3       v1.0.0.0            REC # / TYPE / VERS
Unknown             Unknown                                 ANT # / TYPE
        0.0000        0.0000        0.0000                  APPROX POSITION XYZ
        0.0000        0.0000        0.0000                  ANTENNA: DELTA H/E/N
G    8 C1C L1C D1C S1C C5X L5X D5X S5X                      SYS / # / OBS TYPES
R    4 C1C L1C D1C S1C                                      SYS / # / OBS TYPES
E    8 C1C L1C D1C S1C C5X L5X D5X S5X                      SYS / # / OBS TYPES
  2020    05    21    21    22   20.0000000     GPS         TIME OF FIRST OBS
 9 R05  1 R06 -4 R10 -7 R11  0 R12 -1 R13 -2 R20  2 R21  4  GLONASS SLOT / FRQ #
   R22 -3                                                   GLONASS SLOT / FRQ #
G L1C                                                       SYS / PHASE SHIFT
G L5X                                                       SYS / PHASE SHIFT
R L1C                                                       SYS / PHASE SHIFT
E L1C  0.00000                                              SYS / PHASE SHIFT
E L5X                                                       SYS / PHASE SHIFT
 C1C    0.000 C1P    0.000 C2C    0.000 C2P    0.000        GLONASS COD/PHS/BIS
                                                            END OF HEADER
> 2020 05 21 21 22 20.4435980  0 18
G02  20832141.28024     38129.73024      -322.62824        28.60024
G05  23809254.86724   -690438.43124      3540.74424        28.80024
G06  21768230.63926    376795.28926     -2091.63326        35.60026  21765880.26623        -0.00023     -1556.40023        20.50023
G12  20290374.03706   -282295.99806      1363.04806        37.10006
G19  23488093.50205    414267.81005     -2525.23805        33.00005
G24  22530719.47814     15832.45814     -2443.68614        23.50014                        -0.00023     -1831.60023        18.70023
G25  21820040.77114    -10045.23714      2900.20614        27.20014  21817685.30223         0.00023      2168.20023        20.20023
G29  23889932.31523         0.00023      2804.60023        20.60023
R10  22221228.13505    689349.85005     -3802.02205        32.50005
R22  20611668.81005   -422725.38805      2151.37505        32.80005
R12  21007440.42305   -655438.74905      3399.11605        35.00005
R11  19233432.04314     37945.91214      -355.70914        29.20014
R21  19836323.37005    225299.91405     -1318.76405        33.10005
E13  23824988.57523         0.00023      1576.75023        21.80023  23822862.74614   -231351.56414      1179.22914        26.10014
E15  23507826.74105    161307.21305     -1007.36505        31.90005  23505700.01324        -0.00024      -756.35024        28.50024
E21  25014316.52014     -5441.12514      2274.78514        25.70014  25012193.39014   -326929.01714      1693.90314        23.50014
E27  23262644.47714     43730.71414      -344.21714        26.90014  23260518.64914     32997.57514      -254.04214        27.10014
E30  25211384.49324        -0.00024     -2384.20024        25.80024  25209247.87205    317573.84105     -1777.72005        33.70005
> 2020 05 21 21 22 21.4435982  0 20
G02  20832255.66714     38451.79214      -330.48614        26.20014
G05  23808636.26125   -693979.90725      3533.67225        31.20025
G06  21768677.19626    378886.23726     -2098.97226        39.00026  21766339.71423        -0.00023     -1568.35023        22.80023
G12  20290179.03906   -283659.68906      1355.76506        38.70006
G17  25400389.41423        -0.00023     -2195.40023        21.70023
G19  23488635.99305    416792.26005     -2532.18905        35.30005
G24  22531221.19713     18274.97013     -2449.93713        23.20013
G29                         0.00023      2796.20023        18.00023
R10  22221989.47405    693151.25205     -3809.35105        34.70005
R22  20611312.22305   -424877.43905      2143.86605        34.20005
R12  21006862.88906   -658838.43106      3391.59106        37.00006
R11  19233551.22715     38300.38715      -363.30615        31.00015
R05  23993101.25923         0.00023      1801.70023        20.60023
R21  19836630.52406    226617.79906     -1325.98906        35.90006
E13  23824740.51324      -472.96624      1569.37924        25.70024  23822623.97804   -232528.74304      1171.13104        25.70004
E15  23508079.93205    162312.81405     -1013.08905        31.90005  23505952.005 4    126913.313 4      -757.571 4        24.800 4
E21  25013947.04214     -7717.56714      2268.73514        26.20014  25011818.81514   -328623.06314      1694.00014        24.40014
E27  23262768.75804     44073.52604      -349.57704        25.20004  23260645.92704     33253.41004      -262.16004        25.20004
E30  25211882.01425        -0.00025     -2390.90025        32.70025  25209762.78205    319353.96705     -1786.41305        34.10005
G25                                                                  21817192.90923         0.00023      2167.05023        20.40023
> 2020 05 21 21 22 22.4435984  0 19
G02  20832362.18214     38786.17814      -337.06014        24.20014
G05  23808030.47025   -697510.48825      3527.74925        31.50025
G06  21769138.06626    380988.65826     -2105.29826        38.80026  21766801.184 4    275938.003 4     -1571.714 4        25.500 4
G12  20289987.26106   -285011.94006      1349.47106        39.50006
G17  25400855.98024    283343.76624     -2202.41324        23.80024
G19  23489177.50706    419327.63006     -2538.05806        36.00006
G24  22531739.02814     20728.88114     -2456.75514        24.30014                        -0.00022     -1834.95022        16.30022
G25  21819049.61323     -1302.09423      2888.32123        23.30023  21816700.73923         0.00023      2161.40023        20.00023
R10  22222767.52505    696964.04405     -3815.62605        35.30005
R22  20610974.14605   -427017.77405      2137.44205        35.00005
R12  21006293.07306   -662226.43706      3385.12506        38.50006
R11  19233672.73205     38667.87605      -369.97205        30.70005
R05  23992830.63623         0.00023      1791.90023        21.70023
R21  19836935.20205    227947.29705     -1332.35005        35.00005
E13  23824498.66924         0.00024      1561.00024        24.50024  23822385.13304   -233697.62204      1167.68704        27.80004
E15  23508332.44705    163329.81505     -1019.54005        31.20005  23506206.01904    127672.85904      -760.05604        25.90004
E21  25013570.59204     -9982.16804      2262.68204        27.10004  25011448.36104   -330314.44904      1689.50204        25.40004
E27  23262900.45614     44426.86014      -356.60414        25.40014  23260773.42804     33517.59904      -264.64604        26.80004
E30  25212398.946 5     89051.310 5     -2397.324 5        32.300 5  25210278.51405    321142.35205     -1789.18405        35.20005
> 2020 05 21 21 22 23.4435985  0 21
G02  20832460.15024     39125.80924      -341.03524        24.10024
G05  23807392.74725   -701035.06925      3523.57625        32.50025
G06  21769570.90226    383097.32826     -2109.92826        38.80026  21767236.41824        -0.00024     -1572.30024        24.40024
G12  20289762.65206   -286357.91806      1344.78106        40.00006
G17  25401322.39323        -0.00023     -2207.55023        22.00023
G19  23489691.58706    421868.92706     -2542.31606        36.00006
G24  22532236.32023        -0.00023     -2457.00023        21.00023                        -0.00023     -1840.05023        18.20023
G25  21818541.40024     -4188.56624      2885.30224        27.30024  21816182.93323         0.00023      2154.50023        21.20023
G29                         0.00022      2786.50022        17.40022
R10  22223521.13906    700783.09306     -3820.17906        36.30006
R06                         0.00022      3515.00022        14.30022
R22  20610605.03705   -429151.68105      2132.66005        34.70005
R12  21005694.02306   -665607.96806      3380.24006        38.20006
R11  19233785.39005     39041.62105      -375.11705        31.20005
R05  23992481.31323   -364118.06123      1786.81723        22.60023
R21  19837220.24106    229283.19106     -1337.13206        36.60006
E13  23824246.48024     -3597.51124      1557.71924        26.30024  23822117.95304   -234861.86104      1164.15604        26.80004
E15  23508555.12805    164353.02905     -1024.32105        31.60005  23506430.19904    128436.84604      -764.36404        25.70004
E21  25013175.10204    -12240.94604      2257.85404        27.30004  25011048.97304   -332001.30704      1686.48404        26.80004
E27  23262999.32304     44787.47004      -361.48004        28.90004  23260871.09604     33786.51604      -269.31904        26.20004
E30  25212881.24805     91452.31905     -2402.10505        33.20005  25210765.01305    322935.27305     -1793.24305        35.20005
> 2020 05 21 21 22 24.4435987  0 19
G02  20832588.77114     39469.73014      -347.94914        24.30014
G05  23806779.98105   -704555.93305      3517.07705        32.10005
G06  21770030.49306    385210.05006     -2116.64606        38.80006  21767700.506 4    279090.352 4     -1580.490 4        25.300 4
G12  20289568.69606   -287699.79506      1337.91406        40.30006
G17                        -0.00023     -2214.60023        19.60023
G19  23490235.72006    424413.89906     -2548.77906        36.30006
G24                        -0.00023     -2466.60023        19.60023
G25  21818059.34404     -7070.70704      2878.68604        27.70004  21815693.38123         0.00023      2152.25023        22.10023
R10  22224296.71106    704606.21006     -3827.02406        37.40006
R22  20610262.08405   -431281.38005      2125.66905        34.90005
R12  21005111.23606   -668985.19206      3373.20906        37.90006
R11  19233918.80705     39419.90305      -382.39505        32.80005
R05  23992217.80513   -365902.90313      1781.50513        22.60013
R21  19837530.83506    230623.19106     -1343.95106        37.70006
E13  23824003.05804     -5152.17204      1551.11904        28.30004  23821881.72604   -236023.06704      1159.49104        27.60004
E15  23508815.05805    165379.98405     -1030.69605        33.30005  23506685.93204    129203.85004      -768.10604        26.40004
E21  25012806.96605    -14496.09005      2251.78505        29.50005  25010679.63804   -333685.20904      1682.41504        28.00004
E27  23263124.04605     45151.45305      -368.02405        29.90005  23261001.51504     34058.29404      -273.09204        26.60004
E30  25213401.69705     93857.05905     -2408.37405        33.60005  25211282.46406    324731.06206     -1797.50506        36.00006