     3.03           OBSERVATION DATA    M                   RINEX VERSION / TYPE
GnssLogger          samsung 12          20220701 185030 UTC PGM / RUN BY / DATE
Google GnssLogger                                           MARKER NAME
Unknown                                                     MARKER NUMBER
Unknown             Unknown                                 OBSERVER / AGENCY
Unknown             GnssLogger          v3.0.3.1            REC # / TYPE / VERS
Unknown             Unknown                                 ANT # / TYPE
        0.0000        0.0000        0.0000                  APPROX POSITION XYZ
        0.0000        0.0000        0.0000                  ANTENNA: DELTA H/E/N
G    4 C1C L1C D1C S1C                                      SYS / # / OBS TYPES
R    4 C1C L1C D1C S1C                                      SYS / # / OBS TYPES
E    4 C1C L1C D1C S1C                                      SYS / # / OBS TYPES
  2022    07    01    18    50   30.0000000     GPS         TIME OF FIRST OBS
 8 R03  5 R04  6 R05  1 R09 -2 R10 -7 R18 -3 R19  3 R20  2  GLONASS SLOT / FRQ #
G L1C                                                       SYS / PHASE SHIFT
R L1C                                                       SYS / PHASE SHIFT
E L1C  0.00000                                              SYS / PHASE SHIFT
 C1C    0.000 C1P    0.000 C2C    0.000 C2P    0.000        GLONASS COD/PHS/BIS
                                                            END OF HEADER
> 2022 07 01 18 50 30.4446691  0 25
G02  23264262.81328        -0.00028     -2425.22028        49.30028
G05  20768180.31526         0.00026       944.75426        40.20026
G11  23021551.43828        -0.00028     -2919.35928        49.60028
G12  22215409.21926        -0.00026     -3226.12526        35.60026
G18  22804361.69627         0.00027      2544.82827        46.00027
G20  21604719.39127        -0.00027     -1545.66527        46.80027
G25  20424100.71627        -0.00027     -1110.81227        44.70027
G26  25412097.69824         0.00024      3369.75024        27.00024
G29  21250283.16228         0.00028      1563.41528        51.90028
G31  24481597.37026        -0.00026      -698.61526        35.90026
R10  21137477.85525         0.00025      1420.70325        34.10025
R18  23016272.09327        -0.00027     -2655.82927        46.90027
R09  20346364.53228        -0.00028     -2157.79028        51.10028
R20  21246758.80226         0.00026      1610.80626        37.30026
R19  20465257.42426        -0.00026     -1331.39726        37.60026
R03  22328065.52928        -0.00028      -444.83028        51.80028
R04  21892797.15927         0.00027      2786.52627        43.50027
E01  24098628.69327         0.00027       338.67627        47.00027
E07  28352457.02927         0.00027      2445.54027        44.30027
E08  27873921.11325         0.00025      1567.80025        33.50025
E13  24773574.23828        -0.00028     -1788.78328        48.10028
E21  24662773.34426        -0.00026     -2201.09426        35.80026
E26  24010309.23627         0.00027       307.57327        44.30027
E31  27657999.19226         0.00026      2592.70826        37.70026
E33  26607228.12627         0.00027      1919.27527        41.90027
> 2022 07 01 18 50 31.4446691  0 24
G02  23264726.23928        -0.00028     -2425.75128        48.00028
G05  20767994.09127         0.00027       943.68527        41.60027
G11  23022107.80028        -0.00028     -2919.99428        47.80028
G12  22216011.44925        -0.00025     -3227.17625        34.30025
G18  22803882.87428         0.00028      2543.93328        48.30028
G20  21605015.53328        -0.00028     -1546.77328        48.00028
G25  20424311.71727        -0.00027     -1112.05027        44.70027
G29  21249988.11328         0.00028      1562.67328        51.70028
G31  24481743.31625        -0.00025      -699.97625        33.80025
R10  21137195.69826         0.00026      1419.65726        35.50026
R18  23016777.49127        -0.00027     -2656.11927        46.90027
R09  20346758.10628        -0.00028     -2159.09228        50.10028
R20  21246457.75726         0.00026      1609.99326        35.80026
R19  20465518.19126        -0.00026     -1332.15526        36.10026
R03  22328148.81828        -0.00028      -446.06028        52.00028
R04  21892283.26227         0.00027      2785.38127        45.20027
E01  24098564.18527         0.00027       337.68927        46.70027
E07  28351991.09927         0.00027      2445.29327        45.40027
E08  27873641.65325         0.00025      1567.80025        34.10025
E13  24773915.94928        -0.00028     -1789.24328        48.00028
E21  24663195.39926        -0.00026     -2201.97626        37.30026
E26  24010251.62327         0.00027       306.83827        43.20027
E31  27657504.18225         0.00025      2592.08225        34.70025
E33  26606860.52827         0.00027      1918.44727        41.50027
> 2022 07 01 18 50 32.4446691  0 24
G02  23265181.52527        -0.00027     -2425.45427        45.20027
G05  20767819.51227         0.00027       943.33127        45.10027
G11  23022661.41827        -0.00027     -2919.71427        46.60027
G12  22216623.22625        -0.00025     -3226.55025        33.30025
G18  22803406.10527         0.00027      2544.33727        46.40027
G20  21605307.73127        -0.00027     -1547.17227        46.20027
G25  20424518.77527        -0.00027     -1112.14027        45.80027
G29  21249690.02028         0.00028      1563.19728        51.90028
G31  24481864.93225        -0.00025      -697.10025        31.40025
R10  21136951.86726         0.00026      1419.30526        40.40026
R18  23017282.24228        -0.00028     -2655.91828        49.50028
R09  20347158.83028        -0.00028     -2159.14628        51.60028
R20  21246159.06526         0.00026      1610.76326        37.10026
R19  20465764.52126        -0.00026     -1331.81126        40.30026
R03  22328238.05728        -0.00028      -446.73628        50.30028
R04  21891751.33126         0.00026      2784.94526        39.40026
E01  24098500.53027         0.00027       337.97227        45.70027
E07  28351526.92127         0.00027      2445.38027        43.40027
E08  27873338.46425         0.00025      1565.35025        34.00025
E13  24774257.61328        -0.00028     -1788.89028        49.10028
E21  24663606.61526        -0.00026     -2201.82326        40.50026
E26  24010196.96127         0.00027       307.26527        47.20027
E31  27657005.52826         0.00026      2592.54926        39.40026
E33  26606500.67826         0.00026      1919.17826        40.70026
