     3.04           OBSERVATION DATA    M                   RINEX VERSION / TYPE
sbf2rin-13.8.0                          20230907 001047 UTC PGM / RUN BY / DATE
TWTF                                                        MARKER NAME
23603S002                                                   MARKER NUMBER
GEODETIC                                                    MARKER TYPE
TL                  TL                                      OBSERVER / AGENCY
3008014             SEPT POLARX4TR      2.9.6               REC # / TYPE / VERS
CR620012101         ASH701945C_M    SCIS                    ANT # / TYPE
 -2994429.2553  4951309.7911  2674497.7430                  APPROX POSITION XYZ
        0.0000        0.0000        0.0000                  ANTENNA: DELTA H/E/N
G   18 C1C L1C D1C S1C C1W S1W C2W L2W D2W S2W C2L L2L D2L  SYS / # / OBS TYPES
       S2L C5Q L5Q D5Q S5Q                                  SYS / # / OBS TYPES
E   12 C1C L1C D1C S1C C5Q L5Q D5Q S5Q C7Q L7Q D7Q S7Q      SYS / # / OBS TYPES
S    4 C1C L1C D1C S1C                                      SYS / # / OBS TYPES
R   16 C1C L1C D1C S1C C2P L2P D2P S2P C2C L2C D2C S2C C3Q  SYS / # / OBS TYPES
       L3Q D3Q S3Q                                          SYS / # / OBS TYPES
C    8 C2I L2I D2I S2I C7I L7I D7I S7I                      SYS / # / OBS TYPES
J   12 C1C L1C D1C S1C C2L L2L D2L S2L C5Q L5Q D5Q S5Q      SYS / # / OBS TYPES
SEPTENTRIO RECEIVERS OUTPUT ALIGNED CARRIER PHASES.         COMMENT
NO FURTHER PHASE SHIFT APPLIED IN THE RINEX ENCODER.        COMMENT
G L1C                                                       SYS / PHASE SHIFT
G L2W                                                       SYS / PHASE SHIFT
G L2L  0.00000                                              SYS / PHASE SHIFT
G L5Q  0.00000                                              SYS / PHASE SHIFT
E L1C  0.00000                                              SYS / PHASE SHIFT
E L5Q  0.00000                                              SYS / PHASE SHIFT
E L7Q  0.00000                                              SYS / PHASE SHIFT
S L1C                                                       SYS / PHASE SHIFT
R L1C                                                       SYS / PHASE SHIFT
R L2P  0.00000                                              SYS / PHASE SHIFT
R L2C                                                       SYS / PHASE SHIFT
R L3Q  0.00000                                              SYS / PHASE SHIFT
C L2I                                                       SYS / PHASE SHIFT
C L7I                                                       SYS / PHASE SHIFT
J L1C                                                       SYS / PHASE SHIFT
J L2L  0.00000                                              SYS / PHASE SHIFT
J L5Q  0.00000                                              SYS / PHASE SHIFT
    30.000                                                  INTERVAL
  2023     9     6     0     0    0.0000000     GPS         TIME OF FIRST OBS
  2023     9     6    23    59   30.0000000     GPS         TIME OF LAST OBS
   104                                                      # OF SATELLITES
 C1C    0.000 C2C    0.000 C2P    0.000                     GLONASS COD/PHS/BIS
DBHZ                                                        SIGNAL STRENGTH UNIT
 23 R01  1 R02 -4 R03  5 R04  6 R05  1 R06 -4 R07  5 R08  6 GLONASS SLOT / FRQ #
    R09 -2 R10 -7 R11  0 R12 -1 R13 -2 R14 -7 R15  0 R16 -1 GLONASS SLOT / FRQ #
    R17  4 R18 -3 R19  3 R20  2 R21  4 R23  3 R24  2        GLONASS SLOT / FRQ #
                                                            END OF HEADER
> 2023 09 06 00 00  0.0000000  0 45
C01  36675141.169 7 190977074.18307        35.617 7        45.500    36675141.235 7 147675632.37707        27.540 7        46.250
C02  37858408.295 6 197138862.61506        29.399 6        38.250    37858405.878 7 152440360.52007        22.788 7        43.000
C03  36408596.221 7 189589168.87107        26.050 7        45.250    36408594.607 7 146602394.37807        20.101 7        46.500
C04  37770390.619 6 196680430.03106        11.680 6        41.250    37770388.841 7 152085723.31807         8.930 7        44.000
C07  36073316.090 7 187843280.16707      -690.149 7        45.500    36073313.539 8 145252344.48308      -533.588 8        48.500
C10  36034923.212 7 187643567.16107      -343.250 7        45.500    36034923.311 7 145097751.88007      -265.405 7        47.500
C12  24053502.375 6 125252863.22606     -1591.805 6        40.250    24053504.059 7  96853454.22007     -1230.818 7        44.000
C16  41031003.407 5 213659197.84605       803.793 5        32.500    41031015.023 5 165214887.04205       621.295 5        31.250
C19  62408750.264 7 324978739.85807   -151600.000 7        47.500
C34  22354205.956 8 116404210.61408      -582.247 8        49.000
E07  24747153.631 7 130047173.85807       344.464 7        44.750                                                                    24747158.990 8  99646556.68508       263.919 8        48.000
E08  27741624.209 5 145783215.82305     -1852.432 5        33.750                                                                    27741629.465 6 111704040.48606     -1419.252 6        37.250
E13  26646983.842 6 140030868.20806     -1013.439 6        38.250                                                                    26646990.529 6 107296427.19006      -776.471 6        41.000
E21  26931595.120 6 141526438.60906     -2694.459 6        36.000                                                                    26931602.275 6 108442336.03306     -2064.666 6        41.000
E26  24357805.687 7 128001206.24607        72.379 7        46.000                                                                    24357808.123 8  98078886.43608        55.431 8        48.500
E31  26938793.594 6 141564329.74806       615.248 6        37.250                                                                    26938800.454 6 108471402.44206       471.424 6        40.000
G04  24546598.364 5 128993227.12205     -2124.678 5        33.250    24546598.168 2        15.250    24546602.458 2 100514213.05502     -1655.586 2        15.250    24546603.508 5 100514218.08505     -1655.959 5        33.750
G05  23308672.836 6 122487940.08306      2680.928 6        38.250    23308672.769 5        35.000    23308675.633 5  95445169.47405      2089.028 5        35.000    23308676.187 6  95445177.45606      2089.007 6        36.000
G06  21376675.048 7 112335247.74107      -271.945 7        45.500    21376675.177 8        49.000    21376679.132 8  87533952.04808      -211.911 8        49.000    21376679.628 7  87534000.04307      -211.900 7        44.000
G09  22569241.217 6 118602155.28606     -1011.843 6        41.250    22569240.989 5        30.250    22569245.327 5  92417267.50105      -788.446 5        30.250    22569246.101 6  92417275.48306      -788.084 6        40.750
G11  22060677.121 7 115929636.31007      1083.734 7        43.750    22060677.138 5        33.500    22060679.521 5  90334783.19005       844.473 5        33.500    22060679.352 7  90334786.17807       844.533 7        43.250
G12  22927014.098 6 120482292.88206       409.114 6        40.750    22927013.826 6        39.750    22927016.327 6  93882311.37206       318.793 6        39.750    22927016.632 6  93882324.38706       318.535 6        37.750
G17  21556502.748 7 113280198.94407     -1890.789 7        45.250    21556502.588 7        47.500    21556504.939 7  88270299.55807     -1473.339 7        47.500    21556505.219 7  88270292.55607     -1473.281 7        42.000
G19  20298844.034 7 106671157.63907     -1080.616 7        47.000    20298843.078 7        42.250    20298843.489 7  83120376.13407      -842.038 7        42.250
G20  21257209.706 7 111707391.03107      1128.169 7        45.250    21257208.843 6        36.250    21257210.688 6  87044718.68306       879.089 6        36.250
G22  23784469.785 5 124988162.35405     -3078.760 5        34.500    23784469.133 2        16.500    23784474.497 2  97393346.28402     -2399.030 2        16.500
J02  36263624.214 6 190566695.81006      -365.635 6        40.500    36263629.338 7 148493586.57307      -284.863 7        42.250
J03  38780405.357 7 203792420.54707       812.583 7        46.000    38780408.363 8 158799276.70308       633.171 8        48.000    38780406.394 5 152182626.44605       606.567 5        30.500
R02  22218084.283 7 118559929.54107     -3509.002 7        42.000    22218094.350 6  92213316.60606     -2729.353 6        41.750    22218094.525 6  92213344.60706     -2729.304 6        40.750
R03  19379739.344 7 103741269.29407      -136.275 7        44.500    19379747.157 8  80687707.63208      -106.001 8        48.500    19379747.125 8  80687705.63508      -105.993 8        48.250
R04  20789492.616 7 111326855.82407      3530.244 7        42.000    20789501.785 7  86587620.70607      2745.756 7        44.000    20789502.071 7  86587623.69207      2745.786 7        44.000
R09  24068175.545 5 128522711.86605      -123.790 5        31.750    24068187.485 5  99962162.68705       -96.518 5        32.250    24068187.319 5  99962165.65105       -96.375 5        31.750
R15  24365680.711 4 130202676.25804     -3029.148 4        28.750    24365697.486 6 101268747.19506     -2355.704 6        37.250    24365697.334 6 101268748.22906     -2356.163 6        37.250
R16  23246897.061 5 124180693.85205     -2435.036 5        35.500    23246908.682 6  96585012.12806     -1894.118 6        37.250    23246908.001 6  96585013.13906     -1893.934 6        37.000
R17  21259328.067 6 113762959.05806      -712.427 6        41.000    21259337.752 7  88482358.83107      -554.140 7        43.250    21259338.868 7  88482416.81207      -554.182 7        42.500
R18  20700231.744 7 110499231.15407      1436.707 7        44.750    20700240.786 7  85943874.63507      1117.431 7        46.750    20700240.767 7  85943874.63907      1117.477 7        46.500
S22  36547884.514 7 192060530.70607         2.245 7        43.750
S26  39415282.583 5 207127238.57605        70.691 5        34.000
S28  37887214.230 6 199099931.97806        -2.092 6        41.000
S30  36822246.814 7 193502269.88207        31.281 7        45.250
S32  37232843.915 6 195659955.98506         1.924 6        39.000
S34  37349310.093 7 196271864.42307        -0.160 7        42.250
S37  36514050.192 7 191882714.06907         3.435 7        42.750
S43  36578322.487 7 192220411.15507       -11.145 7        47.250
S44  38023343.786 6 199814081.71306        30.302 6        40.500
> 2023 09 06 00 00 30.0000000  0 45
C01  36674936.374 7 190976008.49807        35.569 7        45.500    36674936.620 7 147674808.33807        27.399 7        46.000
C02  37858238.624 6 197137978.31306        29.533 6        38.500    37858236.055 7 152439676.72307        22.729 7        43.250
C03  36408445.871 7 189588387.47807        26.015 7        45.250    36408444.559 7 146601790.14807        20.095 7        46.750
C04  37770323.966 6 196680085.03706        11.401 6        41.000    37770322.366 7 152085456.54507         8.908 7        43.750
C07  36077304.031 7 187864047.63007      -694.428 7        45.250    36077301.704 8 145268403.19908      -537.017 8        48.500
C10  36036913.744 7 187653932.87107      -347.902 7        45.250    36036914.000 7 145105767.29107      -268.987 7        47.750
C12  24062695.104 6 125300731.48606     -1599.549 6        40.250    24062696.764 7  96890468.93707     -1236.761 7        44.250
C16  41026359.230 5 213635017.89905       808.532 5        30.750    41026372.768 5 165196189.51605       625.468 5        33.750
C19  53931037.848 7 280833066.59607   -151600.000 7        47.500
C34  22357586.030 8 116421811.13308      -591.224 8        49.000
E07  24745224.782 7 130037037.78107       331.260 7        44.750                                                                    24745230.081 8  99638790.10908       253.803 8        48.000
E08  27752228.065 5 145838939.41805     -1862.623 5        32.750                                                                    27752233.346 6 111746737.73206     -1427.035 6        37.500
E13  26652769.543 6 140061273.61106     -1013.812 6        38.000                                                                    26652776.654 6 107319724.77806      -776.853 6        41.000
E21  26946974.371 6 141607258.39806     -2693.244 6        37.000                                                                    26946982.157 6 108504262.70106     -2063.609 6        40.750
E26  24357390.492 7 127999025.05507        73.034 7        46.000                                                                    24357393.143 8  98077215.14308        55.950 8        48.500
E31  26935317.084 6 141546060.71906       602.578 6        36.750                                                                    26935323.838 6 108457404.12706       461.683 6        39.750
G04  24558766.323 5 129057171.82305     -2138.190 5        32.500    24558766.140 2        15.000    24558770.951 2 100564040.09502     -1666.118 2        15.000    24558770.728 5 100564045.07705     -1666.127 5        34.500
G05  23293394.141 6 122407650.55706      2671.648 6        38.750    23293394.048 5        35.250    23293397.015 5  95382606.29005      2081.807 5        35.250    23293398.037 6  95382614.29906      2081.568 6        36.750
G06  21378231.850 7 112343430.61007      -273.676 7        45.750    21378231.970 8        49.000    21378236.330 8  87540328.30408      -213.252 8        49.000    21378236.971 7  87540376.30407      -213.342 7        44.250
G09  22575065.395 6 118632762.28406     -1029.082 6        41.000    22575065.185 4        29.750    22575069.620 4  92441117.09904      -801.880 4        29.750    22575069.682 6  92441125.10706      -802.027 6        40.750
G11  22054493.719 7 115897142.36807      1082.425 7        44.000    22054493.741 5        33.500    22054496.099 5  90309463.24505       843.451 5        33.500    22054496.189 7  90309466.23307       843.371 7        43.000
G12  22924731.028 6 120470296.05506       390.668 6        41.000    22924730.751 6        39.750    22924733.363 6  93872963.20806       304.415 6        39.750    22924733.894 6  93872976.20406       304.345 6        38.000
G17  21567335.030 7 113337121.78107     -1904.047 7        45.500    21567334.874 7        47.500    21567337.199 7  88314654.96907     -1483.674 7        47.500    21567337.278 7  88314647.97807     -1483.786 7        42.000
G19  20305061.756 7 106703832.03207     -1097.643 7        47.000    20305060.800 7        42.250    20305061.293 7  83145836.68907      -855.300 7        42.250
G20  21250800.943 7 111673712.89807      1116.985 7        45.250    21250800.080 6        36.250    21250801.990 6  87018476.00606       870.379 6        36.250
G22  23802043.227 5 125080514.55005     -3078.051 5        35.250    23802042.579 2        16.250    23802049.177 2  97465308.75702     -2398.448 2        16.250
J02  36265717.287 6 190577693.56906      -367.622 6        39.750    36265722.069 7 148502156.20507      -286.391 7        42.000
J03  38775760.325 7 203768010.69407       814.720 7        46.000    38775763.214 7 158780256.04307       634.859 7        47.500    38775761.220 4 152164398.20304       608.737 4        29.750
R02  22237850.376 7 118665401.16407     -3522.443 7        42.250    22237859.731 6  92295350.04406     -2739.635 6        41.250    22237859.909 6  92295378.04306     -2739.500 6        40.750
R03  19380578.171 7 103745759.85907      -163.003 7        44.750    19380585.971 8  80691200.32308      -126.878 8        48.250    19380586.309 8  80691198.32208      -126.801 8        48.250
R04  20769758.765 6 111221180.97006      3514.569 6        41.750    20769767.566 7  86505429.22007      2733.552 7        44.000    20769767.470 7  86505432.21307      2733.637 7        44.250
R09  24068926.998 5 128526721.52505      -143.476 5        31.750    24068939.951 5  99965281.33005      -111.067 5        31.750    24068938.994 5  99965284.31505      -111.282 5        33.250
R15  24382660.911 5 130293424.89105     -3020.916 5        30.000    24382679.390 6 101339329.29506     -2349.377 6        36.750    24382680.100 6 101339330.31206     -2349.567 6        36.250
R16  23260595.396 6 124253872.21906     -2443.400 6        36.500    23260607.999 6  96641928.55106     -1900.372 6        38.000    23260607.820 6  96641929.56906     -1900.474 6        37.500
R17  21263348.951 6 113784473.94706      -722.066 6        41.000    21263358.286 7  88499092.59707      -561.621 7        43.250    21263359.125 7  88499150.58407      -561.586 7        42.750
R18  20692166.519 7 110456180.97407      1433.273 7        44.500    20692175.893 7  85910391.17107      1114.764 7        46.750    20692175.661 7  85910391.17507      1114.831 7        46.500
S22  36547869.847 7 192060457.49707         2.147 7        44.000
S26  39414876.524 5 207125121.44605        70.651 5        33.750
S28  37887221.965 6 199099989.07906        -1.996 6        40.750
S30  36822068.558 7 193501331.17807        31.167 7        45.500
S32  37232836.546 6 195659901.70906         1.906 6        39.750
S34  37349311.693 7 196271870.05707        -0.178 7        42.500
S37  36514030.817 7 191882611.17207         3.385 7        43.000
S43  36578386.963 7 192220747.24807       -11.220 7        47.500
S44  38023172.129 6 199813174.86606        30.254 6        40.750
> 2023 09 06 00 01  0.0000000  0 45
C01  36674732.271 7 190974944.97207        35.404 7        45.500    36674732.301 7 147673985.96007        27.408 7        45.750
C02  37858069.093 6 197137094.34406        29.464 6        38.500    37858066.129 7 152438993.15807        22.804 7        43.000
C03  36408296.160 7 189587607.80607        25.997 7        45.250    36408294.753 7 146601187.26807        20.118 7        46.500
C04  37770258.372 6 196679741.85306        11.295 6        41.000    37770256.741 7 152085191.17507         8.770 7        43.500
C07  36081317.058 7 187884943.37107      -698.691 7        45.500    36081314.527 8 145284561.09708      -540.239 8        48.500
C10  36038930.807 7 187664436.54607      -352.525 7        45.500    36038931.196 7 145113889.39707      -272.564 7        47.500
C12  24071931.827 6 125348831.00506     -1607.289 6        40.000    24071933.923 7  96927662.47707     -1242.747 7        44.000
C16  41021687.195 5 213610688.50305       813.145 5        30.000    41021699.985 5 165177376.42305       629.476 5        33.000
C19  45453325.432 7 236687393.33407   -151600.000 7        47.500
C34  22361017.491 8 116439680.34608      -600.149 8        49.250
E07  24743371.668 7 130027299.85907       317.968 7        44.750                                                                    24743377.027 8  99631328.60708       243.630 8        48.000
E08  27762888.241 5 145894959.87905     -1872.304 5        33.500                                                                    27762893.711 6 111789662.46406     -1434.733 6        37.500
E13  26658557.862 6 140091691.54906     -1014.245 6        37.500                                                                    26658565.153 6 107343031.96706      -777.065 6        41.250
E21  26962344.790 6 141688034.87906     -2691.564 6        38.000                                                                    26962352.938 6 108566156.19606     -2062.607 6        40.500
E26  24356972.148 7 127996826.22007        73.578 7        45.750                                                                    24356974.781 8  98075530.31808        56.370 8        48.500
E31  26931913.557 6 141528172.61606       590.053 6        37.000                                                                    26931919.751 6 108443697.67806       452.049 6        39.750
G04  24571012.224 5 129121522.66905     -2151.701 5        33.500    24571012.014 2        15.750    24571016.878 2 100614183.60602     -1676.625 2        15.750    24571016.903 5 100614188.59405     -1676.537 5        35.250
G05  23278168.632 6 122327641.67906      2662.342 6        38.250    23278168.543 6        36.000    23278171.735 6  95320261.79806      2074.548 6        36.000    23278172.650 6  95320269.80306      2074.478 6        36.500
G06  21379799.008 7 112351666.20507      -275.383 7        45.500    21379799.133 8        49.250    21379803.674 8  87546745.64908      -214.587 8        49.250    21379803.921 7  87546793.64607      -214.650 7        44.250
G09  22580991.538 6 118663904.59206     -1046.926 6        40.750    22580991.328 4        29.500    22580995.870 4  92465383.81404      -815.790 4        29.500    22580996.525 6  92465391.82706      -815.814 6        40.500
G11  22048318.110 7 115864687.28907      1081.215 7        43.250    22048318.118 5        33.500    22048320.055 5  90284173.59405       842.503 5        33.500    22048320.058 7  90284176.58407       842.507 7        42.750
G12  22922552.483 6 120458848.00506       372.387 6        40.000    22922552.238 6        39.500    22922554.913 6  93864042.66406       290.178 6        39.500    22922555.101 6  93864055.64906       290.208 6        38.250
G17  21578243.260 7 113394444.68507     -1917.433 7        45.250    21578243.108 8        48.000    21578245.566 8  88359322.12308     -1494.104 8        48.000    21578245.502 7  88359315.11807     -1494.144 7        42.000
G19  20311376.490 7 106737016.64507     -1114.688 7        46.500    20311375.529 7        42.000    20311376.163 7  83171694.81507      -868.587 7        42.000
G20  21244456.334 7 111640371.16407      1105.800 7        45.000    21244455.471 6        36.250    21244457.370 6  86992495.46006       861.662 6        36.250
G22  23819614.539 6 125172851.13406     -3077.621 6        36.250    23819613.913 2        16.750    23819620.529 2  97537259.08602     -2398.148 2        16.750
J02  36267820.288 6 190588746.43306      -369.304 6        40.500    36267825.613 7 148510768.78307      -287.726 7        42.000
J03  38771103.027 7 203743536.73907       816.819 7        46.000    38771106.000 7 158761185.42407       636.473 7        47.750    38771104.352 5 152146122.24505       609.934 5        30.000
R02  22257690.027 6 118771268.10006     -3535.377 6        41.750    22257699.252 6  92377690.92206     -2749.715 6        41.250    22257699.311 6  92377718.92406     -2749.731 6        41.000
R03  19381567.285 7 103751053.99207      -189.804 7        44.500    19381574.915 8  80695317.99308      -147.685 8        48.250    19381575.151 8  80695315.98808      -147.694 8        48.250
R04  20750112.166 6 111115976.98006      3498.796 6        41.750    20750121.345 7  86423603.95807      2721.321 7        44.250    20750121.707 7  86423606.95407      2721.385 7        44.250
R09  24069785.439 5 128531310.05905      -162.585 5        31.750    24069797.506 5  99968850.24105      -126.503 5        32.000    24069798.925 5  99968853.25905      -126.617 5        33.500
R15  24399600.505 4 130383923.03204     -3012.326 4        28.250    24399614.489 5 101409716.61105     -2342.819 5        33.500    24399614.972 5 101409717.56805     -2343.060 5        32.250
R16  23274340.276 6 124327297.62006     -2451.616 6        37.000    23274352.899 6  96699037.08206     -1906.593 6        38.000    23274353.386 6  96699038.10206     -1906.744 6        37.500
R17  21267424.512 6 113806278.03806      -731.718 6        40.500    21267432.962 7  88516051.29607      -569.070 7        43.250    21267433.484 7  88516109.29407      -569.074 7        43.000
R18  20684121.352 7 110413234.68807      1429.814 7        44.500    20684130.447 7  85876988.52707      1112.106 7        46.750    20684130.410 7  85876988.53107      1112.115 7        46.250
S22  36547856.070 7 192060386.05507         1.845 7        43.750
S26  39414480.102 5 207123004.62205        70.493 5        34.000
S28  37887234.906 6 199100047.48806        -1.994 6        40.750
S30  36821891.177 7 193500392.80507        31.259 7        45.250
S32  37232821.821 6 195659846.76706         1.687 6        39.250
S34  37349309.619 7 196271875.08907        -0.169 7        42.500
S37  36514014.191 7 191882508.18707         3.434 7        42.750
S43  36578450.523 7 192221083.61107       -11.225 7        47.250
S44  38022999.162 6 199812269.71006        30.147 6        40.750
> 2023 09 06 00 01 30.0000000  0 45
C01  36674528.415 7 190973883.54207        35.294 7        45.500    36674528.440 7 147673165.19507        27.350 7        45.750
C02  37857899.506 6 197136210.65006        29.404 6        38.250    37857896.510 7 152438309.83507        22.734 7        43.000
C03  36408146.809 7 189586829.85507        25.839 7        45.250    36408145.319 7 146600585.71407        20.061 7        46.500
C04  37770192.589 6 196679400.41306        11.321 6        41.000    37770191.045 7 152084927.17407         8.682 7        43.500
C07  36085354.634 7 187905967.26507      -702.958 7        45.500    36085351.941 8 145300818.10508      -543.548 8        48.250
C10  36040974.895 7 187675078.28007      -356.999 7        45.250    36040974.834 7 145122118.26107      -276.043 7        47.250
C12  24081214.019 6 125397161.98906     -1614.976 6        39.750    24081215.026 7  96965035.00307     -1248.758 7        43.500
C16  41016987.127 5 213586209.95705       818.387 5        30.500    41016999.361 5 165158448.05705       632.749 5        33.250
C19  36975613.016 7 192541720.07207   -151600.000 7        47.500
C34  22364500.879 8 116457819.15308      -609.201 8        49.250
E07  24741594.437 7 130017960.59707       304.584 7        44.750                                                                    24741599.764 7  99624172.57907       233.503 7        47.750
E08  27773605.569 5 145951275.94905     -1882.039 5        34.500                                                                    27773610.114 6 111832813.68606     -1442.298 6        37.750
E13  26664349.004 6 140122122.81406     -1014.613 6        37.250                                                                    26664356.185 7 107366349.37607      -777.393 7        42.000
E21  26977707.940 6 141768766.16206     -2690.209 6        38.750                                                                    26977716.626 6 108628015.02106     -2061.389 6        41.000
E26  24356550.281 7 127994610.08707        74.099 7        45.500                                                                    24356553.070 8  98073832.24508        56.797 8        48.750
E31  26928581.692 6 141510665.57406       577.079 6        37.000                                                                    26928588.318 6 108430283.21406       442.252 6        39.500
G04  24583334.239 5 129186277.88905     -2165.408 5        35.000    24583334.029 2        16.500    24583339.896 2 100664642.20402     -1687.313 2        16.500    24583339.413 5 100664647.19505     -1687.319 5        35.000
G05  23262997.209 6 122247914.12206      2652.824 6        38.500    23262997.142 6        36.500    23263000.124 6  95258136.50706      2067.131 6        36.500    23263000.286 6  95258144.49906      2067.162 6        37.000
G06  21381376.434 7 112359954.92407      -277.211 7        45.000    21381376.559 8        49.250    21381381.026 8  87553204.38508      -216.008 8        49.250    21381381.247 7  87553252.38107      -215.964 7        44.500
G09  22587019.360 6 118695581.53106     -1064.754 6        40.000    22587019.150 4        29.000    22587023.631 4  92490067.12804      -829.673 4        29.000    22587024.078 6  92490075.12106      -829.562 6        40.250
G11  22042149.323 7 115832270.90307      1079.883 7        43.250    22042149.336 5        33.500    22042151.353 5  90258914.08505       841.466 5        33.500    22042151.217 7  90258917.07707       841.413 7        43.000
G12  22920478.424 6 120447949.09306       354.121 6        40.750    22920478.219 6        39.250    22920480.926 6  93855550.01806       275.943 6        39.250    22920480.655 6  93855563.00306       275.808 6        38.000
G17  21589227.568 7 113452167.37707     -1930.752 7        44.750    21589227.416 8        48.000    21589229.963 8  88404300.79908     -1504.478 8        48.000    21589229.625 6  88404293.78506     -1504.432 6        41.750
G19  20317788.482 7 106770710.93007     -1131.643 7        46.500    20317787.526 7        42.000    20317787.920 7  83197950.09107      -881.799 7        42.000
G20  21238175.434 7 111607365.66607      1094.531 7        44.750    21238174.576 6        36.250    21238176.668 6  86966776.91706       852.881 6        36.250
G22  23837182.525 6 125265169.27506     -3076.821 6        36.000    23837181.913 2        16.250    23837188.582 2  97609195.02702     -2397.539 2        16.250
J02  36269934.238 6 190599854.09806      -371.244 6        40.500    36269939.340 7 148519424.05407      -289.263 7        42.000
J03  38766433.627 7 203718998.94107       818.915 7        46.000    38766436.618 7 158742065.07207       638.117 7        47.500    38766434.981 5 152127798.55605       611.584 5        30.000
R02  22277602.134 6 118877526.41006     -3548.359 6        41.500    22277612.049 6  92460336.21306     -2759.864 6        41.000    22277612.246 6  92460364.22306     -2759.799 6        40.500
R03  19382706.006 7 103757150.52207      -216.633 7        44.250    19382713.855 8  80700059.74908      -168.501 8        48.500    19382714.182 8  80700057.74808      -168.473 8        48.250
R04  20730555.151 6 111011247.51806      3482.981 6        41.500    20730563.751 7  86342147.77507      2708.969 7        44.000    20730564.597 7  86342150.76307      2709.011 7        44.250
R09  24070753.178 5 128536476.07105      -182.134 5        30.250    24070766.462 5  99972868.27505      -141.237 5        33.000    24070765.924 5  99972871.31205      -141.399 5        34.750
R15  24416486.140 5 130474167.35805     -3003.853 5        34.000    24416502.528 6 101479906.41806     -2336.463 6        36.000    24416502.006 5 101479907.40205     -2336.164 5        35.750
R16  23288131.715 6 124400965.56006     -2459.649 6        36.250    23288143.571 6  96756334.29106     -1913.145 6        38.250    23288144.010 6  96756335.28506     -1913.096 6        37.500
R17  21271553.129 6 113828373.24006      -741.378 6        40.250    21271562.019 7  88533236.41207      -576.614 7        43.250    21271562.807 7  88533294.39607      -576.579 7        42.750
R18  20676095.356 7 110370394.48807      1426.172 7        45.250    20676105.275 7  85843668.38307      1109.317 7        47.000    20676105.013 7  85843668.38907      1109.273 7        46.500
S22  36547843.630 7 192060331.62807         1.514 7        43.750
S26  39414077.817 5 207120884.04705        70.459 5        34.250
S28  37887245.008 6 199100105.17406        -2.048 6        41.000
S30  36821711.986 7 193499454.75607        31.264 7        45.250
S32  37232814.595 6 195659792.39306         1.724 6        39.250
S34  37349311.394 7 196271882.66007        -0.237 7        42.500
S37  36513992.177 7 191882405.10407         3.417 7        42.750
S43  36578515.231 7 192221420.23607       -11.298 7        47.250
S44  38022827.756 6 199811366.22906        30.065 6        40.500
> 2023 09 06 00 02  0.0000000  0 45
C01  36674324.888 7 190972824.24907        35.385 7        45.250    36674324.837 7 147672346.10107        27.180 7        45.750
C02  37857729.690 6 197135327.31906        29.459 6        38.500    37857727.211 7 152437626.79207        22.762 7        43.000
C03  36407997.780 7 189586053.70607        25.844 7        45.000    36407996.325 7 146599985.55407        20.039 7        46.500
C04  37770127.497 6 196679060.74506        11.290 6        41.000    37770125.906 7 152084664.52807         8.722 7        43.500
C07  36089416.698 7 187927119.39307      -707.153 7        45.500    36089413.939 8 145317174.27208      -546.890 8        48.500
C10  36043044.757 7 187685858.13207      -361.584 7        45.250    36043044.772 7 145130453.92707      -279.616 7        47.500
C12  24090539.588 6 125445724.91206     -1622.701 6        39.000    24090541.614 7  97002586.87107     -1254.745 7        44.000
C16  41012257.100 5 213561582.69205       823.039 5        31.250    41012270.208 5 165139404.62805       636.776 5        32.500
C19  28497900.600 7 148396046.81107   -151600.000 7        47.500
C34  22368036.273 8 116476228.49808      -618.096 8        49.250
E07  24739893.156 7 130009020.60507       291.379 7        44.750                                                                    24739898.442 8  99617322.48708       223.237 8        48.000
E08  27784378.131 5 146007886.32905     -1891.870 5        35.500                                                                    27784383.256 6 111876190.39706     -1449.846 6        38.750
E13  26670142.415 6 140152568.24706     -1015.234 6        37.500                                                                    26670149.913 7 107389677.62707      -777.817 7        42.250
E21  26993062.774 6 141849450.37406     -2688.642 6        37.750                                                                    26993070.170 6 108689837.78306     -2060.179 6        40.750
E26  24356125.489 7 127992377.09907        74.747 7        45.250                                                                    24356128.292 8  98072121.24708        57.302 8        49.000
E31  26925322.787 6 141493539.69006       564.557 6        37.750                                                                    26925329.429 6 108417160.81806       432.430 6        39.750
G04  24595733.642 5 129251435.73105     -2178.408 5        35.000    24595733.473 2        17.000    24595739.030 2 100715414.51402     -1697.460 2        17.000    24595738.792 5 100715419.48505     -1697.452 5        34.250
G05  23247879.044 6 122168468.88306      2643.392 6        38.750    23247879.004 6        37.000    23247882.225 6  95196231.20006      2059.779 6        37.000    23247882.718 6  95196239.21506      2059.656 6        37.750
G06  21382963.786 7 112368297.33407      -278.993 7        45.000    21382963.906 8        49.250    21382968.613 8  87559704.95908      -217.394 8        49.250    21382968.826 7  87559752.96607      -217.415 7        44.750
G09  22593148.898 6 118727792.51206     -1082.524 6        40.500    22593148.688 4        29.000    22593153.081 4  92515166.56804      -843.514 4        29.000    22593153.462 6  92515174.56206      -843.444 6        40.250
G11  22035987.935 7 115799893.19907      1078.553 7        43.500    22035987.943 5        33.500    22035990.003 5  90233684.71505       840.427 5        33.500    22035989.821 7  90233687.70007       840.557 7        42.500
G12  22918508.962 6 120437598.57106       335.874 6        41.250    22918508.681 6        39.000    22918511.216 6  93847484.68806       261.720 6        39.000    22918510.865 6  93847497.68606       261.774 6        37.750
G17  21600287.763 7 113510288.70307     -1944.044 7        44.750    21600287.611 7        47.750    21600290.182 7  88449590.09607     -1514.835 7        47.750    21600289.751 7  88449583.09107     -1514.883 7        42.250
G19  20324297.206 7 106804915.14807     -1148.638 7        46.500    20324296.254 7        42.250    20324296.693 7  83224602.72007      -895.042 7        42.250
G20  21231958.460 7 111574695.32307      1083.543 7        45.250    21231957.597 6        36.500    21231959.619 6  86941319.53306       844.322 6        36.500
G22  23854746.479 6 125357466.30306     -3076.205 6        36.250    23854745.862 2        17.500    23854752.185 2  97681114.47602     -2397.042 2        17.500
J02  36272058.459 6 190611016.25906      -372.995 6        39.500    36272063.406 6 148528121.79406      -290.717 6        41.500
J03  38761752.148 7 203694397.60907       821.123 7        46.000    38761755.032 7 158722895.20707       639.787 7        47.750    38761752.830 5 152109427.45805       613.226 5        30.000
R02  22297587.906 6 118984172.06506     -3561.175 6        41.000    22297597.778 6  92543282.77406     -2769.902 6        41.250    22297598.010 6  92543310.76006     -2769.892 6        41.000
R03  19383995.361 7 103764049.37007      -243.273 7        44.500    19384002.711 8  80705425.53308      -189.262 8        48.500    19384002.713 8  80705423.53208      -189.244 8        48.500
R04  20711086.028 6 110906996.87006      3466.934 6        41.750    20711095.800 7  86261064.00607      2696.475 7        44.250    20711096.167 7  86261066.99807      2696.571 7        44.500
R09  24071826.407 5 128542218.27105      -200.475 5        32.750    24071837.903 5  99977334.47605      -156.255 5        32.750    24071839.523 4  99977337.52504      -157.008 4        29.000
R15  24433326.008 4 130564155.04604     -2995.081 4        28.500    24433342.565 5 101549896.62305     -2329.642 5        33.250    24433342.154 5 101549897.64405     -2329.680 5        32.500
R16  23301968.910 6 124474871.86206     -2467.087 6        36.000    23301978.767 6  96813816.94206     -1919.211 6        38.750    23301979.583 6  96813817.93306     -1918.986 6        37.500
R17  21275736.673 6 113850761.37506      -751.046 6        40.750    21275745.816 7  88550649.37807      -584.229 7        43.250    21275746.248 7  88550707.37407      -584.276 7        42.750
R18  20668090.451 7 110327662.80007      1422.632 7        45.250    20668100.038 7  85810432.64007      1106.445 7        47.000    20668099.997 7  85810432.64107      1106.459 7        46.500
S22  36547830.747 7 192060282.08407         1.847 7        43.750
S26  39413669.835 5 207118763.49205        70.791 5        33.750
S28  37887255.923 6 199100162.30206        -1.999 6        41.250
S30  36821534.056 7 193498517.07607        31.223 7        45.500
S32  37232802.307 6 195659738.01206         2.026 6        39.500
S34  37349311.537 7 196271883.76707         0.149 7        42.500
S37  36513974.626 7 191882301.95607         3.364 7        42.750
S43  36578578.845 7 192221757.15307       -11.133 7        47.500
S44  38022660.030 6 199810464.43806        30.027 6        41.000
