     3.04           OBSERVATION DATA    M                   RINEX VERSION / TYPE
sbf2rin-13.8.0                          20230907 001047 UTC PGM / RUN BY / DATE
TWTF                                                        MARKER NAME
23603S002                                                   MARKER NUMBER
GEODETIC                                                    MARKER TYPE
TL                  TL                                      OBSERVER / AGENCY
3008014             SEPT POLARX4TR      2.9.6               REC # / TYPE / VERS
CR620012101         ASH701945C_M    SCIS                    ANT # / TYPE
 -2994429.2553  4951309.7911  2674497.7430                  APPROX POSITION XYZ
        0.0000        0.0000        0.0000                  ANTENNA: DELTA H/E/N
G   18 C1C L1C D1C S1C C1W S1W C2W L2W D2W S2W C2L L2L D2L  SYS / # / OBS TYPES
       S2L C5Q L5Q D5Q S5Q                                  SYS / # / OBS TYPES
E   12 C1C L1C D1C S1C C5Q L5Q D5Q S5Q C7Q L7Q D7Q S7Q      SYS / # / OBS TYPES
S    4 C1C L1C D1C S1C                                      SYS / # / OBS TYPES
R   16 C1C L1C D1C S1C C2P L2P D2P S2P C2C L2C D2C S2C C3Q  SYS / # / OBS TYPES
       L3Q D3Q S3Q                                          SYS / # / OBS TYPES
C    8 C2I L2I D2I S2I C7I L7I D7I S7I                      SYS / # / OBS TYPES
J   12 C1C L1C D1C S1C C2L L2L D2L S2L C5Q L5Q D5Q S5Q      SYS / # / OBS TYPES
SEPTENTRIO RECEIVERS OUTPUT ALIGNED CARRIER PHASES.         COMMENT
NO FURTHER PHASE SHIFT APPLIED IN THE RINEX ENCODER.        COMMENT
G L1C                                                       SYS / PHASE SHIFT
G L2W                                                       SYS / PHASE SHIFT
G L2L  0.00000                                              SYS / PHASE SHIFT
G L5Q  0.00000                                              SYS / PHASE SHIFT
E L1C  0.00000                                              SYS / PHASE SHIFT
E L5Q  0.00000                                              SYS / PHASE SHIFT
E L7Q  0.00000                                              SYS / PHASE SHIFT
S L1C                                                       SYS / PHASE SHIFT
R L1C                                                       SYS / PHASE SHIFT
R L2P  0.00000                                              SYS / PHASE SHIFT
R L2C                                                       SYS / PHASE SHIFT
R L3Q  0.00000                                              SYS / PHASE SHIFT
C L2I                                                       SYS / PHASE SHIFT
C L7I                                                       SYS / PHASE SHIFT
J L1C                                                       SYS / PHASE SHIFT
J L2L  0.00000                                              SYS / PHASE SHIFT
J L5Q  0.00000                                              SYS / PHASE SHIFT
    30.000                                                  INTERVAL
  2023     9     6     0     0    0.0000000     GPS         TIME OF FIRST OBS
  2023     9     6    23    59   30.0000000     GPS         TIME OF LAST OBS
   104                                                      # OF SATELLITES
 C1C    0.000 C2C    0.000 C2P    0.000                     GLONASS COD/PHS/BIS
DBHZ                                                        SIGNAL STRENGTH UNIT
 23 R01  1 R02 -4 R03  5 R04  6 R05  1 R06 -4 R07  5 R08  6 GLONASS SLOT / FRQ #
    R09 -2 R10 -7 R11  0 R12 -1 R13 -2 R14 -7 R15  0 R16 -1 GLONASS SLOT / FRQ #
    R17  4 R18 -3 R19  3 R20  2 R21  4 R23  3 R24  2        GLONASS SLOT / FRQ #
                                                            END OF HEADER
> 2023 09 06 00 00  0.0000000  0 45
C01  36675141.169 7 190977074.18307        35.617 7        45.500    36675141.235 7 147675632.37707        27.540 7        46.250
C02  37858408.295 6 197138862.61506        29.399 6        38.250    37858405.878 7 152440360.52007        22.788 7        43.000
C03  36408596.221 7 189589168.87107        26.050 7        45.250    36408594.607 7 146602394.37807        20.101 7        46.500
C04  37770390.619 6 196680430.03106        11.680 6        41.250    37770388.841 7 152085723.31807         8.930 7        44.000
C07  36073316.090 7 187843280.16707      -690.149 7        45.500    36073313.539 8 145252344.48308      -533.588 8        48.500
C10  36034923.212 7 187643567.16107      -343.250 7        45.500    36034923.311 7 145097751.88007      -265.405 7        47.500
C12  24053502.375 6 125252863.22606     -1591.805 6        40.250    24053504.059 7  96853454.22007     -1230.818 7        44.000
C16  41031003.407 5 213659197.84605       803.793 5        32.500    41031015.023 5 165214887.04205       621.295 5        31.250
C19  62408750.264 7 324978739.85807   -151600.000 7        47.500
C34  22354205.956 8 116404210.61408      -582.247 8        49.000
E07  24747153.631 7 130047173.85807       344.464 7        44.750                                                                    24747158.990 8  99646556.68508       263.919 8        48.000
E08  27741624.209 5 145783215.82305     -1852.432 5        33.750                                                                    27741629.465 6 111704040.48606     -1419.252 6        37.250
E13  26646983.842 6 140030868.20806     -1013.439 6        38.250                                                                    26646990.529 6 107296427.19006      -776.471 6        41.000
E21  26931595.120 6 141526438.60906     -2694.459 6        36.000                                                                    26931602.275 6 108442336.03306     -2064.666 6        41.000
E26  24357805.687 7 128001206.24607        72.379 7        46.000                                                                    24357808.123 8  98078886.43608        55.431 8        48.500
E31  26938793.594 6 141564329.74806       615.248 6        37.250                                                                    26938800.454 6 108471402.44206       471.424 6        40.000
G04  24546598.364 5 128993227.12205     -2124.678 5        33.250    24546598.168 2        15.250    24546602.458 2 100514213.05502     -1655.586 2        15.250    24546603.508 5 100514218.08505     -1655.959 5        33.750
G05  23308672.836 6 122487940.08306      2680.928 6        38.250    23308672.769 5        35.000    23308675.633 5  95445169.47405      2089.028 5        35.000    23308676.187 6  95445177.45606      2089.007 6        36.000
G06  21376675.048 7 112335247.74107      -271.945 7        45.500    21376675.177 8        49.000    21376679.132 8  87533952.04808      -211.911 8        49.000    21376679.628 7  87534000.04307      -211.900 7        44.000
G09  22569241.217 6 118602155.28606     -1011.843 6        41.250    22569240.989 5        30.250    22569245.327 5  92417267.50105      -788.446 5        30.250    22569246.101 6  92417275.48306      -788.084 6        40.750
G11  22060677.121 7 115929636.31007      1083.734 7        43.750    22060677.138 5        33.500    22060679.521 5  90334783.19005       844.473 5        33.500    22060679.352 7  90334786.17807       844.533 7        43.250
G12  22927014.098 6 120482292.88206       409.114 6        40.750    22927013.826 6        39.750    22927016.327 6  93882311.37206       318.793 6        39.750    22927016.632 6  93882324.38706       318.535 6        37.750
G17  21556502.748 7 113280198.94407     -1890.789 7        45.250    21556502.588 7        47.500    21556504.939 7  88270299.55807     -1473.339 7        47.500    21556505.219 7  88270292.55607     -1473.281 7        42.000
G19  20298844.034 7 106671157.63907     -1080.616 7        47.000    20298843.078 7        42.250    20298843.489 7  83120376.13407      -842.038 7        42.250
G20  21257209.706 7 111707391.03107      1128.169 7        45.250    21257208.843 6        36.250    21257210.688 6  87044718.68306       879.089 6        36.250
G22  23784469.785 5 124988162.35405     -3078.760 5        34.500    23784469.133 2        16.500    23784474.497 2  97393346.28402     -2399.030 2        16.500
J02  36263624.214 6 190566695.81006      -365.635 6        40.500    36263629.338 7 148493586.57307      -284.863 7        42.250
J03  38780405.357 7 203792420.54707       812.583 7        46.000    38780408.363 8 158799276.70308       633.171 8        48.000    38780406.394 5 152182626.44605       606.567 5        30.500
R02  22218084.283 7 118559929.54107     -3509.002 7        42.000    22218094.350 6  92213316.60606     -2729.353 6        41.750    22218094.525 6  92213344.60706     -2729.304 6        40.750
R03  19379739.344 7 103741269.29407      -136.275 7        44.500    19379747.157 8  80687707.63208      -106.001 8        48.500    19379747.125 8  80687705.63508      -105.993 8        48.250
R04  20789492.616 7 111326855.82407      3530.244 7        42.000    20789501.785 7  86587620.70607      2745.756 7        44.000    20789502.071 7  86587623.69207      2745.786 7        44.000
R09  24068175.545 5 128522711.86605      -123.790 5        31.750    24068187.485 5  99962162.68705       -96.518 5        32.250    24068187.319 5  99962165.65105       -96.375 5        31.750
R15  24365680.711 4 130202676.25804     -3029.148 4        28.750    24365697.486 6 101268747.19506     -2355.704 6        37.250    24365697.334 6 101268748.22906     -2356.163 6        37.250
R16  23246897.061 5 124180693.85205     -2435.036 5        35.500    23246908.682 6  96585012.12806     -1894.118 6        37.250    23246908.001 6  96585013.13906     -1893.934 6        37.000
R17  21259328.067 6 113762959.05806      -712.427 6        41.000    21259337.752 7  88482358.83107      -554.140 7        43.250    21259338.868 7  88482416.81207      -554.182 7        42.500
R18  20700231.744 7 110499231.15407      1436.707 7        44.750    20700240.786 7  85943874.63507      1117.431 7        46.750    20700240.767 7  85943874.63907      1117.477 7        46.500
S22  36547884.514 7 192060530.70607         2.245 7        43.750
S26  39415282.583 5 207127238.57605        70.691 5        34.000
S28  37887214.230 6 199099931.97806        -2.092 6        41.000
S30  36822246.814 7 193502269.88207        31.281 7        45.250
S32  37232843.915 6 195659955.98506         1.924 6        39.000
S34  37349310.093 7 196271864.42307        -0.160 7        42.250
S37  36514050.192 7 191882714.06907         3.435 7        42.750
S43  36578322.487 7 192220411.15507       -11.145 7        47.250
S44  38023343.786 6 199814081.71306        30.302 6        40.500
> 2023 09 06 00 00 30.0000000  0 45
C01  36674936.374 7 190976008.49807        35.569 7        45.500    36674936.620 7 147674808.33807        27.399 7        46.000
C02  37858238.624 6 197137978.31306        29.533 6        38.500    37858236.055 7 152439676.72307        22.729 7        43.250
C03  36408445.871 7 189588387.47807        26.015 7        45.250    36408444.559 7 146601790.14807        20.095 7        46.750
C04  37770323.966 6 196680085.03706        11.401 6        41.000    37770322.366 7 152085456.54507         8.908 7        43.750
C07  36077304.031 7 187864047.63007      -694.428 7        45.250    36077301.704 8 145268403.19908      -537.017 8        48.500
C10  36036913.744 7 187653932.87107      -347.902 7        45.250    36036914.000 7 145105767.29107      -268.987 7        47.750
C12  24062695.104 6 125300731.48606     -1599.549 6        40.250    24062696.764 7  96890468.93707     -1236.761 7        44.250
C16  41026359.230 5 213635017.89905       808.532 5        30.750    41026372.768 5 165196189.51605       625.468 5        33.750
C19  53931037.848 7 280833066.59607   -151600.000 7        47.500
C34  22357586.030 8 116421811.13308      -591.224 8        49.000
E07  24745224.782 7 130037037.78107       331.260 7        44.750                                                                    24745230.081 8  99638790.10908       253.803 8        48.000
E08  27752228.065 5 145838939.41805     -1862.623 5        32.750                                                                    27752233.346 6 111746737.73206     -1427.035 6        37.500
E13  26652769.543 6 140061273.61106     -1013.812 6        38.000                                                                    26652776.654 6 107319724.77806      -776.853 6        41.000
E21  26946974.371 6 141607258.39806     -2693.244 6        37.000                                                                    26946982.157 6 108504262.70106     -2063.609 6        40.750
E26  24357390.492 7 127999025.05507        73.034 7        46.000                                                                    24357393.143 8  98077215.14308        55.950 8        48.500
E31  26935317.084 6 141546060.71906       602.578 6        36.750                                                                    26935323.838 6 108457404.12706       461.683 6        39.750
G04  24558766.323 5 129057171.82305     -2138.190 5        32.500    24558766.140 2        15.000    24558770.951 2 100564040.09502     -1666.118 2        15.000    24558770.728 5 100564045.07705     -1666.127 5        34.500
G05  23293394.141 6 122407650.55706      2671.648 6        38.750    23293394.048 5        35.250    23293397.015 5  95382606.29005      2081.807 5        35.250    23293398.037 6  95382614.29906      2081.568 6        36.750
G06  21378231.850 7 112343430.61007      -273.676 7        45.750    21378231.970 8        49.000    21378236.330 8  87540328.30408      -213.252 8        49.000    21378236.971 7  87540376.30407      -213.342 7        44.250
G09  22575065.395 6 118632762.28406     -1029.082 6        41.000    22575065.185 4        29.750    22575069.620 4  92441117.09904      -801.880 4        29.750    22575069.682 6  92441125.10706      -802.027 6        40.750
G11  22054493.719 7 115897142.36807      1082.425 7        44.000    22054493.741 5        33.500    22054496.099 5  90309463.24505       843.451 5        33.500    22054496.189 7  90309466.23307       843.371 7        43.000
G12  22924731.028 6 120470296.05506       390.668 6        41.000    22924730.751 6        39.750    22924733.363 6  93872963.20806       304.415 6        39.750    22924733.894 6  93872976.20406       304.345 6        38.000
G17  21567335.030 7 113337121.78107     -1904.047 7        45.500    21567334.874 7        47.500    21567337.199 7  88314654.96907     -1483.674 7        47.500    21567337.278 7  88314647.97807     -1483.786 7        42.000
G19  20305061.756 7 106703832.03207     -1097.643 7        47.000    20305060.800 7        42.250    20305061.293 7  83145836.68907      -855.300 7        42.250
G20  21250800.943 7 111673712.89807      1116.985 7        45.250    21250800.080 6        36.250    21250801.990 6  87018476.00606       870.379 6        36.250
G22  23802043.227 5 125080514.55005     -3078.051 5        35.250    23802042.579 2        16.250    23802049.177 2  97465308.75702     -2398.448 2        16.250
J02  36265717.287 6 190577693.56906      -367.622 6        39.750    36265722.069 7 148502156.20507      -286.391 7        42.000
J03  38775760.325 7 203768010.69407       814.720 7        46.000    38775763.214 7 158780256.04307       634.859 7        47.500    38775761.220 4 152164398.20304       608.737 4        29.750
R02  22237850.376 7 118665401.16407     -3522.443 7        42.250    22237859.731 6  92295350.04406     -2739.635 6        41.250    22237859.909 6  92295378.04306     -2739.500 6        40.750
R03  19380578.171 7 103745759.85907      -163.003 7        44.750    19380585.971 8  80691200.32308      -126.878 8        48.250    19380586.309 8  80691198.32208      -126.801 8        48.250
R04  20769758.765 6 111221180.97006      3514.569 6        41.750    20769767.566 7  86505429.22007      2733.552 7        44.000    20769767.470 7  86505432.21307      2733.637 7        44.250
R09  24068926.998 5 128526721.52505      -143.476 5        31.750    24068939.951 5  99965281.33005      -111.067 5        31.750    24068938.994 5  99965284.31505      -111.282 5        33.250
R15  24382660.911 5 130293424.89105     -3020.916 5        30.000    24382679.390 6 101339329.29506     -2349.377 6        36.750    24382680.100 6 101339330.31206     -2349.567 6        36.250
R16  23260595.396 6 124253872.21906     -2443.400 6        36.500    23260607.999 6  96641928.55106     -1900.372 6        38.000    23260607.820 6  96641929.56906     -1900.474 6        37.500
R17  21263348.951 6 113784473.94706      -722.066 6        41.000    21263358.286 7  88499092.59707      -561.621 7        43.250    21263359.125 7  88499150.58407      -561.586 7        42.750
R18  20692166.519 7 110456180.97407      1433.273 7        44.500    20692175.893 7  85910391.17107      1114.764 7        46.750    20692175.661 7  85910391.17507      1114.831 7        46.500
S22  36547869.847 7 192060457.49707         2.147 7        44.000
S26  39414876.524 5 207125121.44605        70.651 5        33.750
S28  37887221.965 6 199099989.07906        -1.996 6        40.750
S30  36822068.558 7 193501331.17807        31.167 7        45.500
S32  37232836.546 6 195659901.70906         1.906 6        39.750
S34  37349311.693 7 196271870.05707        -0.178 7        42.500
S37  36514030.817 7 191882611.17207         3.385 7        43.000
S43  36578386.963 7 192220747.24807       -11.220 7        47.500
S44  38023172.129 6 199813174.86606        30.254 6        40.750
