# 
# Header Description:
# 
# Version: v2.0.4.2 Platform: 10 Manufacturer: Google Model: Pixel 4
# 
#,
# Raw,utcTimeMillis,TimeNanos,LeapSecond,TimeUncertaintyNanos,FullBiasNanos,BiasNanos,BiasUncertaintyNanos,DriftNanosPerSecond,DriftUncertaintyNanosPerSecond,HardwareClockDiscontinuityCount,Svid,TimeOffsetNanos,State,ReceivedSvTimeNanos,ReceivedSvTimeUncertaintyNanos,Cn0DbHz,PseudorangeRateMetersPerSecond,PseudorangeRateUncertaintyMetersPerSecond,AccumulatedDeltaRangeState,AccumulatedDeltaRangeMeters,AccumulatedDeltaRangeUncertaintyMeters,CarrierFrequencyHz,CarrierCycles,CarrierPhase,CarrierPhaseUncertainty,MultipathIndicator,SnrInDb,ConstellationType,AgcDb
# 
# Accel,utcTimeMillis,elapsedRealtimeNanos,AccelXMps2,AccelYMps2,AccelZMps2
# 
# Gyro,utcTimeMillis,elapsedRealtimeNanos,GyroXRadPerSec,GyroYRadPerSec,GyroZRadPerSec
# 
# Mag,utcTimeMillis,elapsedRealtimeNanos,MagXmicroT,MagYmicroT,MagZmicroT
# 
# Fix,Provider,LatitudeDegrees,LongitudeDegrees,AltitudeMeters,SpeedMps,AccuracyMeters,BearingDegrees,UnixTimeMillis,SpeedAccuracyMps,BearingAccuracyDegrees
# 
# Nav,Svid,Type,Status,MessageId,Sub-messageId,Data(Bytes)
# 
# Status,UnixTimeMillis,SignalCount,SignalIndex,ConstellationType,Svid,CarrierFrequencyHz,Cn0DbHz,AzimuthDegrees,ElevationDegrees,UsedInFix,HasAlmanacData,HasEphemerisData
# 
Gyro,1589494244844,19637939874074,-0.0035500922,0.023597395,-0.08277341
Accel,1589494244845,19637940404074,0.17786033,10.1592455,1.0529282
Mag,1589494244849,19637944305324,25.06863,-48.203823,-17.910692
Gyro,1589494244847,19637942316782,-0.0033697602,0.030997878,-0.08037732
Accel,1589494244847,19637942846782,-0.0029344256,10.351667,0.9341904
Gyro,1589494244849,19637944759491,-0.004532672,0.02862195,-0.074239366
Accel,1589494244850,19637945289491,-0.11413784,10.099208,0.7519483
Gyro,1589494244852,19637947202199,-0.008254008,0.017697258,-0.065580204
Accel,1589494244853,19637947732199,-0.08903305,9.789539,0.82180893
Accel,1589494244856,19637950174907,-0.123532884,9.58648,0.9968571

,
Gyro,1589494244855,19637949644907,-0.008271557,0.010407215,-0.058197275
Gyro,1589494244857,19637952087616,-0.011739819,0.011784462,-0.048396837
Mag,1589494244860,19637954245636,25.011307,-48.403454,-17.473583
Accel,1589494244857,19637952617616,-0.29226086,9.643603,1.2671329
Gyro,1589494244859,19637954530324,-0.008905298,0.01688147,-0.030113287
Accel,1589494244860,19637955060324,-0.37040192,9.722622,1.4638779
Accel,1589494244862,19637957503032,-0.32974792,9.696677,1.2767671
Gyro,1589494244861,19637956973032,-0.0062219864,0.018236816,-0.016694918
Accel,1589494244865,19637959945741,-0.21381055,9.517608,1.1570516
Gyro,1589494244864,19637959415741,-0.0049836584,0.009746714,-0.005646588
Mag,1589494244869,19637964187407,25.010984,-48.39892,-17.320847
Accel,1589494244867,19637962388449,-0.1290988,9.181555,1.0203445
Gyro,1589494244866,19637961858449,-0.0027686008,-0.006197959,-6.7132956E-4
Accel,1589494244870,19637964831105,-0.039495748,8.966826,1.159964
Gyro,1589494244870,19637964301105,-0.0028995886,-0.018417062,0.0055216593
Gyro,1589494244872,19637966743813,-0.0040944214,-0.017175585,0.0055233906
Accel,1589494244873,19637967273813,-0.0044598947,9.112261,1.5265067
Gyro,1589494244874,19637969186522,-0.0038239232,-0.006074852,0.009117536
Accel,1589494244874,19637969716522,-0.19509415,9.477889,1.588042
Accel,1589494244877,19637972159230,-0.199254,9.568055,1.5297141
Gyro,1589494244876,19637971629230,-0.0022103072,0.006311059,0.018805621
Mag,1589494244879,19637974118709,25.042374,-49.233658,-17.507921
Accel,1589494244879,19637974601938,-0.065809585,9.500813,1.1212842
Gyro,1589494244879,19637974071938,0.0027783539,0.0039132247,0.028561503
Accel,1589494244882,19637977044647,0.095630035,9.295764,0.81916624
Gyro,1589494244881,19637976514647,0.0037316852,-0.013261403,0.032332335
Gyro,1589494244883,19637978957355,0.0033301993,-0.036581237,0.03493118
Accel,1589494244884,19637979487355,0.057093866,9.511918,0.9515845
Accel,1589494244886,19637981930063,-0.011853354,9.9713955,1.0532256
Mag,1589494244889,19637984054907,24.980007,-48.7649,-15.564432
Gyro,1589494244886,19637981400063,0.005763486,-0.037821572,0.036141984
Accel,1589494244889,19637984372772,-0.060847037,10.355616,1.3181056
Gyro,1589494244888,19637983842772,0.0012284545,-0.024198756,0.040981654
Accel,1589494244892,19637986815480,-0.062672526,10.42987,1.0636159
Gyro,1589494244892,19637986285480,0.0042958288,0.0016776299,0.04934831
Gyro,1589494244893,19637988728188,-4.0796178E-4,0.004268742,0.05670572
Accel,1589494244894,19637989258188,0.20280446,10.109012,0.7801539
Gyro,1589494244896,19637991170897,-0.0030769007,-0.007994062,0.0568065
Accel,1589494244896,19637991700897,0.43302554,9.81444,0.7363737
Mag,1589494244898,19637993997407,25.372778,-47.845387,-13.71565
Mag,1589494274747,19667842240365,25.35362,-48.974987,-16.673084
Status,1589494303000,37,23,6,1,1575420032,36.30,313.00,40.00,0,1,0
Status,1589494303000,37,24,6,13,1575420032,38.50,30.00,66.00,0,1,0
Status,1589494303000,37,25,6,15,1575420032,29.60,47.00,15.00,1,1,0
Status,1589494303000,37,26,6,21,1575420032,37.30,196.00,78.00,0,1,1
Status,1589494303000,37,27,6,26,1575420032,33.10,241.00,53.00,0,1,0
Status,1589494303000,37,28,6,27,1575420032,35.10,147.00,28.00,0,1,1
Status,1589494303000,37,29,6,33,1575420032,17.00,232.00,4.00,0,1,0
Status,1589494303000,37,30,6,1,1176450048,22.50,313.00,40.00,1,1,0
Status,1589494303000,37,31,6,13,1176450048,40.00,30.00,66.00,1,1,0
Status,1589494303000,37,32,6,15,1176450048,28.00,47.00,15.00,0,1,0
Status,1589494303000,37,33,6,21,1176450048,30.10,196.00,78.00,1,1,1
Status,1589494303000,37,34,6,26,1176450048,33.30,241.00,53.00,1,1,0
Status,1589494303000,37,35,6,27,1176450048,30.90,147.00,28.00,1,1,1
Status,1589494303000,37,36,6,33,1176450048,17.70,232.00,4.00,1,1,0
Fix,NLP,37.4239073,-122.0944650,-29co.199999,0.000000,44.319000,0.000000,1589494244403,0.000000,0.000000
Fix,FLP,37.4235845,-122.0941221,-29.199999,0.001390,3.900000,181.537094,1589494246000,0.086023,0.000000
Fix,GPS,37.4235845,-122.0941221,-32.830566,0.000000,3.790092,0.000000,1589494247000,0.086023,0.000000
Fix,GPS,37.4235845,-122.0941220,-32.829407,0.000000,3.790092,0.000000,1589494248000,0.086023,0.000000
Fix,FLP,37.4235845,-122.0941220,-29.199999,0.002948,3.900000,89.355949,1589494248000,0.086023,0.000000
Raw,1589494245442,21091250000000,,,-1273508372192433379,-0.17327880859375,25.084462322411127,-0.12928900496897708,10.603475780963462,2593,2,0.0,16399,425463372262852,7,37.9,220.7767333984375,0.03739999979734421,25,90376.66099552777,0.0010085564157135064,1.57542003E9,,,,0,,1,-0.61
Raw,1589494245442,21091250000000,,,-1273508372192433379,-0.17327880859375,25.084462322411127,-0.12928900496897708,10.603475780963462,2593,5,0.0,16399,425463365539137,14,30.0,-586.5631713867188,0.030400000512599945,25,-230438.36320114645,0.002397700231676362,1.57542003E9,,,,0,,1,-0.61
Raw,1589494245442,21091250000000,,,-1273508372192433379,-0.17327880859375,25.084462322411127,-0.12928900496897708,10.603475780963462,2593,6,0.0,16399,425463367955840,8,36.9,528.9391479492188,0.030100001022219658,25,226566.86905263626,0.001160791358090767,1.57542003E9,,,,0,,1,-0.61
Raw,1589494245442,21091250000000,,,-1273508372192433379,-0.17327880859375,25.084462322411127,-0.12928900496897708,10.603475780963462,2593,12,0.0,16399,425463375340210,24,25.2,-99.7240219116211,0.055800002068281174,17,-50596.50166281142,0.19029366893311156,1.57542003E9,,,,0,,1,-0.61
Raw,1589494245442,21091250000000,,,-1273508372192433379,-0.17327880859375,25.084462322411127,-0.12928900496897708,10.603475780963462,2593,19,0.0,16399,425463361953688,17,28.0,538.0267944335938,0.02670000120997429,21,11022.585647430098,0.0030066398239606148,1.57542003E9,,,,0,,1,-0.61
Raw,1589494245442,21091250000000,,,-1273508372192433379,-0.17327880859375,25.084462322411127,-0.12928900496897708,10.603475780963462,2593,24,0.0,16399,425463365089824,19,27.9,572.119873046875,0.0333000011742115,21,247303.90234266032,0.003234992547669888,1.57542003E9,,,,0,,1,-0.61
Raw,1589494245442,21091250000000,,,-1273508372192433379,-0.17327880859375,25.084462322411127,-0.12928900496897708,10.603475780963462,2593,25,0.0,16399,425463371334586,6,39.0,-433.2647705078125,0.03530000150203705,25,-193055.49673608007,8.372921387687362E-4,1.57542003E9,,,,0,,1,-0.61
Raw,1589494245442,21091250000000,,,-1273508372192433379,-0.17327880859375,25.084462322411127,-0.12928900496897708,10.603475780963462,2593,29,0.0,16399,425463364444796,12,32.2,-451.7666015625,0.0276000015437603,25,-94121.86373680485,0.001807789796734829,1.57542003E9,,,,0,,1,-0.61
Raw,1589494245442,21091250000000,,,-1273508372192433379,-0.17327880859375,25.084462322411127,-0.12928900496897708,10.603475780963462,2593,22,0.0,49359,4245375230627,19,27.4,372.8418273925781,0.2483000010251999,25,158631.556395287,0.0031846731363860867,1.60031245E9,,,,0,,3,-1.65
Raw,1589494245442,21091250000000,,,-1273508372192433379,-0.17327880859375,25.084462322411127,-0.12928900496897708,10.603475780963462,2593,13,0.0,49359,4245374194920,21,26.5,-450.7641906738281,0.24770000576972961,25,-206038.13517617827,0.005355861144370204,1.60087501E9,,,,0,,3,-1.65
Raw,1589494245442,21091250000000,,,-1273508372192433379,-0.17327880859375,25.084462322411127,-0.12928900496897708,10.603475780963462,2593,12,0.0,49359,4245377208026,10,34.2,350.0302429199219,0.24610000848770142,25,139744.79569384526,0.001497616902171977,1.60143744E9,,,,0,,3,-1.65
Raw,1589494245442,21091250000000,,,-1273508372192433379,-0.17327880859375,25.084462322411127,-0.12928900496897708,10.603475780963462,2593,11,0.0,49359,4245366509622,14,30.9,813.2417602539062,0.23190000653266907,25,350260.6696633525,0.0023579182120561683,1.602E9,,,,0,,3,-1.65
Raw,1589494245442,21091250000000,,,-1273508372192433379,-0.17327880859375,25.084462322411127,-0.12928900496897708,10.603475780963462,2593,24,0.0,49359,4245363061857,40,21.3,-584.839599609375,0.9909999966621399,16,0.0,0.0,1.60312499E9,,,,0,,3,-1.65
Raw,1589494245442,21091250000000,,,-1273508372192433379,-0.17327880859375,25.084462322411127,-0.12928900496897708,10.603475780963462,2593,23,0.0,49359,4245373396094,24,25.7,-330.8104553222656,0.25279998779296875,21,-149714.32083164022,0.1869394431765222,1.60368755E9,,,,0,,3,-1.65
Raw,1589494245442,21091250000000,,,-1273508372192433379,-0.17327880859375,25.084462322411127,-0.12928900496897708,10.603475780963462,2593,21,0.0,49359,4245362444248,53,19.9,635.5675048828125,1.1195000410079956,16,0.0,0.0,1.60424998E9,,,,0,,3,-1.65
Raw,1589494245442,21091250000000,,,-1273508372192433379,-0.17327880859375,25.084462322411127,-0.12928900496897708,10.603475780963462,2593,1,0.0,23567,425463357943189,9,35.5,-391.5700988769531,0.04560000076889992,25,-172976.96139274997,0.0028924638165555576,1.57542003E9,,,,0,,6,-0.37
Raw,1589494245442,21091250000000,,,-1273508372192433379,-0.17327880859375,25.084462322411127,-0.12928900496897708,10.603475780963462,2593,13,0.0,23567,425463363970742,6,38.1,215.17886352539062,0.041600000113248825,25,91045.21201245669,0.0020551716777868216,1.57542003E9,,,,0,,6,-0.37
Raw,1589494245442,21091250000000,,,-1273508372192433379,-0.17327880859375,25.084462322411127,-0.12928900496897708,10.603475780963462,2593,15,0.0,23567,425463352380595,27,24.8,489.4448547363281,0.640500009059906,16,0.0,0.0,1.57542003E9,,,,0,,6,-0.37
Raw,1589494245442,21091250000000,,,-1273508372192433379,-0.17327880859375,25.084462322411127,-0.12928900496897708,10.603475780963462,2593,21,0.0,23567,425463364075083,9,35.7,100.34049224853516,0.04410000145435333,25,37970.86531643942,0.0028924638165555576,1.57542003E9,,,,0,,6,-0.37
Raw,1589494245442,21091250000000,,,-1273508372192433379,-0.17327880859375,25.084462322411127,-0.12928900496897708,10.603475780963462,2593,26,0.0,23567,425463364800764,13,31.3,-265.84063720703125,0.04610000178217888,25,-119123.17961249295,0.004528989424958011,1.57542003E9,,,,0,,6,-0.37
Raw,1589494245442,21091250000000,,,-1273508372192433379,-0.17327880859375,25.084462322411127,-0.12928900496897708,10.603475780963462,2593,27,0.0,23567,425463355958821,13,31.9,510.185546875,0.044600002467632294,25,220078.80912599497,0.004528989424958011,1.57542003E9,,,,0,,6,-0.37
Raw,1589494245442,21091250000000,,,-1273508372192433379,-0.17327880859375,25.084462322411127,-0.12928900496897708,10.603475780963462,2593,6,0.0,81935,425463367963648,10,20.7,528.7631225585938,0.08619999885559082,27,223585.2274422719,0.25482803839368795,1.17645005E9,,,,0,,1,-0.62
Raw,1589494245442,21091250000000,,,-1273508372192433379,-0.17327880859375,25.084462322411127,-0.12928900496897708,10.603475780963462,2593,24,0.0,81935,425463365097689,4,29.2,572.1143188476562,0.03849999979138374,25,244008.45453805782,0.0037714549693657518,1.17645005E9,,,,0,,1,-0.62
Raw,1589494245442,21091250000000,,,-1273508372192433379,-0.17327880859375,25.084462322411127,-0.12928900496897708,10.603475780963462,2593,1,0.0,81935,425463357950279,9,21.7,-391.783935546875,0.08590000122785568,29,-170561.69670867475,0.34557229348499413,1.17645005E9,,,,0,,6,-0.62
Raw,1589494245442,21091250000000,,,-1273508372192433379,-0.17327880859375,25.084462322411127,-0.12928900496897708,10.603475780963462,2593,13,0.0,81935,425463363977836,2,36.5,214.82261657714844,0.027400000020861626,25,89833.99144379878,0.0015544510042033504,1.17645005E9,,,,0,,6,-0.62
Raw,1589494245442,21091250000000,,,-1273508372192433379,-0.17327880859375,25.084462322411127,-0.12928900496897708,10.603475780963462,2593,15,0.0,81935,425463352387649,10,20.0,489.2006530761719,0.09369999915361404,29,79489.59916659005,0.25482803839368795,1.17645005E9,,,,0,,6,-0.62
Raw,1589494245442,21091250000000,,,-1273508372192433379,-0.17327880859375,25.084462322411127,-0.12928900496897708,10.603475780963462,2593,21,0.0,81935,425463364082168,6,25.1,99.99577331542969,0.060499999672174454,29,37533.52578316209,0.010753742989341824,1.17645005E9,,,,0,,6,-0.62
Raw,1589494245442,21091250000000,,,-1273508372192433379,-0.17327880859375,25.084462322411127,-0.12928900496897708,10.603475780963462,2593,26,0.0,81935,425463364807825,4,30.1,-266.1748352050781,0.03519999980926514,25,-117460.12945371833,0.0032108332879374254,1.17645005E9,,,,0,,6,-0.62
Raw,1589494245442,21091250000000,,,-1273508372192433379,-0.17327880859375,25.084462322411127,-0.12928900496897708,10.603475780963462,2593,27,0.0,81935,425463355965922,6,26.8,509.780517578125,0.06459999829530716,29,217106.0057230345,0.007288081858568245,1.17645005E9,,,,0,,6,-0.62
