NMEA,$GPGGA,234257.00,3725.590397,N,12210.422534,W,1,24,0.4,51.9,M,-28.4,M,,*63,1699400577561
NMEA,$GPRMC,234257.00,A,3725.590397,N,12210.422534,W,000.0,,071123,,,A*65,1699400577566
NMEA,$GPGGA,234309.00,3725.590516,N,12210.422517,W,1,24,0.4,51.9,M,-28.4,M,,*67,1699400589566
NMEA,$GPRMC,234309.00,A,3725.590516,N,12210.422517,W,000.0,,071123,,,A*61,1699400589570
NMEA,$GPGGA,234321.00,3725.589246,N,12210.425073,W,1,28,0.4,50.8,M,-28.4,M,,*6B,1699400601579
NMEA,$GPRMC,234321.00,A,3725.589246,N,12210.425073,W,002.2,199.1,071123,,,A*4F,1699400601581
NMEA,$GPGGA,234333.00,3725.584570,N,12210.430571,W,1,27,0.3,48.6,M,-28.4,M,,*6B,1699400613569
NMEA,$GPRMC,234333.00,A,3725.584570,N,12210.430571,W,002.3,281.6,071123,,,A*4C,1699400613574
NMEA,$GPGGA,234345.00,3725.585616,N,12210.441044,W,1,29,0.3,45.8,M,-28.4,M,,*60,1699400625591
NMEA,$GPRMC,234345.00,A,3725.585616,N,12210.441044,W,002.5,251.3,071123,,,A*44,1699400625595
NMEA,$GPGGA,234357.00,3725.579335,N,12210.447787,W,1,28,0.3,43.6,M,-28.4,M,,*63,1699400637583
NMEA,$GPRMC,234357.00,A,3725.579335,N,12210.447787,W,002.5,240.3,071123,,,A*4E,1699400637590
NMEA,$GPGGA,234409.00,3725.571725,N,12210.453486,W,1,27,0.3,42.6,M,-28.4,M,,*6B,1699400649587
NMEA,$GPRMC,234409.00,A,3725.571725,N,12210.453486,W,002.5,199.0,071123,,,A*4C,1699400649593
NMEA,$GPGGA,234421.00,3725.564515,N,12210.457771,W,1,27,0.4,41.8,M,-28.4,M,,*61,1699400661551
NMEA,$GPRMC,234421.00,A,3725.564515,N,12210.457771,W,002.2,189.6,071123,,,A*4C,1699400661554
NMEA,$GPGGA,234433.00,3725.556804,N,12210.459819,W,1,28,0.3,41.6,M,-28.4,M,,*67,1699400673549
NMEA,$GPRMC,234433.00,A,3725.556804,N,12210.459819,W,002.2,189.2,071123,,,A*48,1699400673550
NMEA,$GPGGA,234445.00,3725.549951,N,12210.462019,W,1,27,0.4,40.9,M,-28.4,M,,*6F,1699400685553
NMEA,$GPRMC,234445.00,A,3725.549951,N,12210.462019,W,002.1,194.4,071123,,,A*4F,1699400685555
NMEA,$GPGGA,234457.00,3725.542156,N,12210.463616,W,1,29,0.3,42.2,M,-28.4,M,,*60,1699400697578
NMEA,$GPRMC,234457.00,A,3725.542156,N,12210.463616,W,002.1,194.2,071123,,,A*46,1699400697583
NMEA,$GPGGA,234509.00,3725.534349,N,12210.463721,W,1,30,0.3,42.8,M,-28.4,M,,*60,1699400709564
NMEA,$GPRMC,234509.00,A,3725.534349,N,12210.463721,W,002.1,156.2,071123,,,A*4A,1699400709569
NMEA,$GPGGA,234521.00,3725.527312,N,12210.465209,W,1,30,0.3,43.1,M,-28.4,M,,*67,1699400721585
NMEA,$GPRMC,234521.00,A,3725.527312,N,12210.465209,W,002.2,219.9,071123,,,A*45,1699400721599
NMEA,$GPGGA,234533.00,3725.520384,N,12210.468599,W,1,28,0.3,42.8,M,-28.4,M,,*6E,1699400733564
NMEA,$GPRMC,234533.00,A,3725.520384,N,12210.468599,W,002.2,183.7,071123,,,A*43,1699400733568
NMEA,$GPGGA,234545.00,3725.517420,N,12210.470174,W,1,29,0.3,43.7,M,-28.4,M,,*63,1699400745576
NMEA,$GPRMC,234545.00,A,3725.517420,N,12210.470174,W,000.5,185.6,071123,,,A*43,1699400745579
NMEA,$GPGGA,234557.00,3725.510340,N,12210.473228,W,1,29,0.3,44.1,M,-28.4,M,,*6E,1699400757563
NMEA,$GPRMC,234557.00,A,3725.510340,N,12210.473228,W,002.4,188.9,071123,,,A*4E,1699400757565
NMEA,$GPGGA,234609.00,3725.503332,N,12210.475609,W,1,29,0.3,44.5,M,-28.4,M,,*64,1699400769587
NMEA,$GPRMC,234609.00,A,3725.503332,N,12210.475609,W,002.2,204.1,071123,,,A*49,1699400769593
NMEA,$GPGGA,234621.00,3725.496147,N,12210.477833,W,1,29,0.3,44.0,M,-28.4,M,,*63,1699400781595
NMEA,$GPRMC,234621.00,A,3725.496147,N,12210.477833,W,002.1,201.6,071123,,,A*4A,1699400781599
NMEA,$GPGGA,234633.00,3725.492747,N,12210.478910,W,1,29,0.3,43.8,M,-28.4,M,,*62,1699400793569
NMEA,$GPRMC,234633.00,A,3725.492747,N,12210.478910,W,001.7,184.1,071123,,,A*48,1699400793574
NMEA,$GPGGA,234645.00,3725.486047,N,12210.480980,W,1,30,0.3,44.2,M,-28.4,M,,*6A,1699400805587
NMEA,$GPRMC,234645.00,A,3725.486047,N,12210.480980,W,002.0,177.4,071123,,,A*48,1699400805594
NMEA,$GPGGA,234657.00,3725.480391,N,12210.474251,W,1,30,0.3,44.5,M,-28.4,M,,*6C,1699400817571
NMEA,$GPRMC,234657.00,A,3725.480391,N,12210.474251,W,002.3,105.6,071123,,,A*4D,1699400817576
NMEA,$GPGGA,234709.00,3725.476742,N,12210.466750,W,1,30,0.3,44.6,M,-28.4,M,,*61,1699400829583
NMEA,$GPRMC,234709.00,A,3725.476742,N,12210.466750,W,002.2,125.7,071123,,,A*41,1699400829589
NMEA,$GPGGA,234721.00,3725.473445,N,12210.458529,W,1,29,0.3,44.1,M,-28.4,M,,*64,1699400841595
NMEA,$GPRMC,234721.00,A,3725.473445,N,12210.458529,W,002.3,100.5,071123,,,A*4F,1699400841598
NMEA,$GPGGA,234733.00,3725.478730,N,12210.449621,W,1,29,0.3,43.7,M,-28.4,M,,*67,1699400853582
NMEA,$GPRMC,234733.00,A,3725.478730,N,12210.449621,W,002.6,020.5,071123,,,A*4B,1699400853590
NMEA,$GPGGA,234745.00,3725.484556,N,12210.445590,W,1,30,0.4,44.5,M,-28.4,M,,*68,1699400865582
NMEA,$GPRMC,234745.00,A,3725.484556,N,12210.445590,W,001.8,054.0,071123,,,A*45,1699400865589
NMEA,$GPGGA,234757.00,3725.487836,N,12210.444134,W,1,28,0.4,44.4,M,-28.4,M,,*60,1699400877583
NMEA,$GPRMC,234757.00,A,3725.487836,N,12210.444134,W,001.5,043.6,071123,,,A*48,1699400877589
NMEA,$GPGGA,234809.00,3725.494095,N,12210.439569,W,1,28,0.3,43.4,M,-28.4,M,,*61,1699400889564
NMEA,$GPRMC,234809.00,A,3725.494095,N,12210.439569,W,002.1,035.8,071123,,,A*41,1699400889568
NMEA,$GPGGA,234821.00,3725.500254,N,12210.433715,W,1,28,0.4,42.5,M,-28.4,M,,*6C,1699400901616
NMEA,$GPRMC,234821.00,A,3725.500254,N,12210.433715,W,002.1,031.7,071123,,,A*40,1699400901626
NMEA,$GPGGA,234833.00,3725.506592,N,12210.430788,W,1,28,0.4,41.6,M,-28.4,M,,*63,1699400913565
NMEA,$GPRMC,234833.00,A,3725.506592,N,12210.430788,W,002.0,021.6,071123,,,A*4E,1699400913567
NMEA,$GPGGA,234845.00,3725.513949,N,12210.425402,W,1,30,0.4,39.9,M,-28.4,M,,*60,1699400925585
NMEA,$GPRMC,234845.00,A,3725.513949,N,12210.425402,W,002.3,043.4,071123,,,A*41,1699400925591
NMEA,$GPGGA,234857.00,3725.519482,N,12210.422436,W,1,28,0.3,41.6,M,-28.4,M,,*6D,1699400937606
NMEA,$GPRMC,234857.00,A,3725.519482,N,12210.422436,W,001.9,014.1,071123,,,A*4C,1699400937611
NMEA,$GPGGA,234909.00,3725.522953,N,12210.415641,W,1,26,0.4,42.8,M,-28.4,M,,*6C,1699400949594
NMEA,$GPRMC,234909.00,A,3725.522953,N,12210.415641,W,002.2,091.6,071123,,,A*4B,1699400949600
NMEA,$GPGGA,234921.00,3725.521459,N,12210.405138,W,1,26,0.4,42.9,M,-28.4,M,,*6B,1699400961585
NMEA,$GPRMC,234921.00,A,3725.521459,N,12210.405138,W,002.3,103.4,071123,,,A*44,1699400961590
NMEA,$GPGGA,234933.00,3725.519708,N,12210.395177,W,1,26,0.4,43.2,M,-28.4,M,,*6B,1699400973588
NMEA,$GPRMC,234933.00,A,3725.519708,N,12210.395177,W,002.4,111.6,071123,,,A*48,1699400973596
NMEA,$GPGGA,234945.00,3725.520819,N,12210.386798,W,1,30,0.3,42.7,M,-28.4,M,,*6E,1699400985569
NMEA,$GPRMC,234945.00,A,3725.520819,N,12210.386798,W,002.2,037.0,071123,,,A*4C,1699400985574
NMEA,$GPGGA,234957.00,3725.528555,N,12210.382668,W,1,24,0.4,44.8,M,-28.4,M,,*61,1699400997610
NMEA,$GPRMC,234957.00,A,3725.528555,N,12210.382668,W,002.4,012.4,071123,,,A*4D,1699400997611
NMEA,$GPGGA,235009.00,3725.536305,N,12210.380018,W,1,27,0.4,44.7,M,-28.4,M,,*61,1699401009585
NMEA,$GPRMC,235009.00,A,3725.536305,N,12210.380018,W,002.3,008.5,071123,,,A*4C,1699401009588
NMEA,$GPGGA,235021.00,3725.543444,N,12210.375892,W,1,28,0.4,45.8,M,-28.4,M,,*6A,1699401021580
NMEA,$GPRMC,235021.00,A,3725.543444,N,12210.375892,W,002.3,012.2,071123,,,A*4A,1699401021585
NMEA,$GPGGA,235033.00,3725.550455,N,12210.373229,W,1,25,0.4,45.7,M,-28.4,M,,*65,1699401033588
NMEA,$GPRMC,235033.00,A,3725.550455,N,12210.373229,W,002.3,015.4,071123,,,A*46,1699401033597
NMEA,$GPGGA,235045.00,3725.558249,N,12210.366158,W,1,25,0.4,46.4,M,-28.4,M,,*66,1699401045588
NMEA,$GPRMC,235045.00,A,3725.558249,N,12210.366158,W,002.6,009.2,071123,,,A*4B,1699401045593
NMEA,$GPGGA,235057.00,3725.566696,N,12210.366975,W,1,25,0.3,51.5,M,-28.4,M,,*69,1699401057569
NMEA,$GPRMC,235057.00,A,3725.566696,N,12210.366975,W,002.5,010.5,071123,,,A*48,1699401057570
NMEA,$GPGGA,235109.00,3725.570931,N,12210.376045,W,1,27,0.3,48.6,M,-28.4,M,,*64,1699401069601
NMEA,$GPRMC,235109.00,A,3725.570931,N,12210.376045,W,002.6,284.4,071123,,,A*41,1699401069605
NMEA,$GPGGA,235121.00,3725.574442,N,12210.385134,W,1,26,0.4,44.8,M,-28.4,M,,*6C,1699401081587
NMEA,$GPRMC,235121.00,A,3725.574442,N,12210.385134,W,002.4,304.4,071123,,,A*46,1699401081595
NMEA,$GPGGA,235133.00,3725.579237,N,12210.393336,W,1,28,0.3,41.5,M,-28.4,M,,*60,1699401093569
NMEA,$GPRMC,235133.00,A,3725.579237,N,12210.393336,W,002.3,283.8,071123,,,A*4E,1699401093574
NMEA,$GPGGA,235145.00,3725.582042,N,12210.403190,W,1,28,0.3,39.7,M,-28.4,M,,*68,1699401105591
NMEA,$GPRMC,235145.00,A,3725.582042,N,12210.403190,W,002.3,297.7,071123,,,A*41,1699401105597
NMEA,$GPGGA,235157.00,3725.583994,N,12210.413189,W,1,26,0.4,39.7,M,-28.4,M,,*68,1699401117570
NMEA,$GPRMC,235157.00,A,3725.583994,N,12210.413189,W,002.4,283.9,071123,,,A*44,1699401117571
NMEA,$GPGGA,235209.00,3725.585817,N,12210.420655,W,1,26,0.4,39.6,M,-28.4,M,,*6B,1699401129572
NMEA,$GPRMC,235209.00,A,3725.585817,N,12210.420655,W,002.0,304.0,071123,,,A*45,1699401129580
NMEA,$GPGGA,235221.00,3725.588958,N,12210.424069,W,1,25,0.4,44.4,M,-28.4,M,,*60,1699401141586
NMEA,$GPRMC,235221.00,A,3725.588958,N,12210.424069,W,000.2,020.9,071123,,,A*49,1699401141593
