NMEA,$GPGGA,234257.00,3725.590397,N,12210.422534,W,1,24,0.4,51.9,M,-28.4,M,,*63,1699400577561
NMEA,$PGLOR,11,STA,234257.00,0.000,0.000,129,1,4,1,P,S,L,0,C,3,S,00100002,0,5,R,000833F4,TPEF,30,44090,LC,,,DR,3,,,,*6C,1699400577561
NMEA,$PGLOR,1,UNC,234257.00,0.007,4.1,3.0,0.19,180.00,5.2,3.4,47.3*18,1699400577562
NMEA,$PGLOR,2,SAT,4,1,E27,30,2002F,R02,36,1F,G07,36,2F,R13,29,1F,G09,26,7AF,E07,23,7AF*04,1699400577562
NMEA,$PGLOR,2,SAT,4,2,R12,35,1F,G30,22,7AF,R03,28,1B,G14,40,7AF,E30,,2002F,G08,40,5AB*43,1699400577562
NMEA,$PGLOR,2,SAT,4,3,G20,34,2F,E19,,20020,G04,26,2002B,G22,37,2F,G27,29,7AF,R01,22,2F*12,1699400577562
NMEA,$PGLOR,2,SAT,4,4,G05,14,23,R21,19,2F*59,1699400577562
NMEA,$PGLOR,2,SVC,GPS,0,3,1,10,007,SKUS,SKUS,009,SKUS,SKUS,014,SKUS,SKUS,030,SKUS,SKUS*61,1699400577562
NMEA,$PGLOR,2,SVC,GPS,0,3,2,10,004,SKPR,SKUS,008,SKUS,SKUS,020,SKUS,SKUS,022,SKUS,SKUS*60,1699400577562
NMEA,$PGLOR,2,SVC,GPS,0,3,3,10,005,SKUS,SKUS,027,SKPR,SKUS*6F,1699400577562
NMEA,$PGLOR,2,SVC,GPS,2,2,1,06,008,SKUS,SKUS,009,SKUS,SKUS,014,SKUS,SKUS,030,SKPR,SKUS*6E,1699400577562
NMEA,$PGLOR,2,SVC,GPS,2,2,2,06,004,CLIN,CLIN,027,SKUS,SKUS*6F,1699400577562
NMEA,$PGLOR,2,SVC,GLO,0,2,1,06,055,SKUS,SKUS,057,SKUS,SKUS,058,SKUS,SKUS,064,SKPR,SKUS*66,1699400577562
NMEA,$PGLOR,2,SVC,GLO,0,2,2,06,060,SKPR,SKUS,063,SKUS,SKUS*6B,1699400577562
NMEA,$PGLOR,2,SVC,GAL,0,1,1,04,145,SKUS,SKUS,157,SKUS,SKUS,165,SKUS,SKUS,168,POGH,POGH*6E,1699400577563
NMEA,$PGLOR,2,SVC,GAL,2,1,1,04,145,CLIN,CLIN,157,SKUS,SKUS,165,CLIN,CLIN,168,CLIN,CLIN*6C,1699400577563
NMEA,$PGLOR,2,SIO,TxERR,0,RxERR,0,TxCNT,719,RxCNT,7354,MLFRMPKT,0,DTMS,999,DTIN,19,51,DTOUT,16,946,HATMD,34*21,1699400577563
NMEA,$PGLOR,2,HLA,234257.00,L,,Al,,A,,H,,,M,1,Ac,0,Gr,0,S,,,Sx,,,T,1,Tr,,Mn,,Ap,,Ta,0,,,Aa,1,Ga,1,*1F,1699400577563
NMEA,$PGLOR,3,CTX,234257.00,E,1,1,,,V,0,0,S,,,*7D,1699400577563
NMEA,$PGLOR,1,LSQ,234257.00,3725.591186,N,12210.424149,W,13.7,1.5,22.3,29.8,3.3,,,,,,,05,0.4,19.8*36,1699400577563
NMEA,$PGLOR,6,PWR,mA,19.7,RFTm,673,OscTm,999,MeasTm,999,UTC,234257.00,GNSSmA,18.5,CPUTm,160,COPTm,60,COPMargTm,159,Srch*00,1699400577563
NMEA,$PGLOR,0,PPS,071123,234257.000,010170,042839.559,000.100,1,0,1,*1F,1699400577563
NMEA,$PGLOR,2,AGC,G,44.4,R,63.2,B,18.5,E5A,26.0,E5B,,L2,*10,1699400577563
NMEA,$PSSGR,GSA,A,3,04,07,08,09,14,20,22,27,30,,,,1.4,0.8,1.1,1,1*42,1699400577563
NMEA,$PSSGR,GSA,A,3,08,09,14,27,30,,,,,,,,1.4,0.8,1.1,1,8*4A,1699400577563
NMEA,$PSSGR,GSA,A,3,,,,,,,,,,,,,1.4,0.8,1.1,1,9*49,1699400577563
NMEA,$PSSGR,GSA,A,3,65,66,67,76,77,85,,,,,,,1.4,0.8,1.1,2,1*4C,1699400577563
NMEA,$PSSGR,GSA,A,3,,,,,,,,,,,,,1.4,0.8,1.1,5,1*45,1699400577564
NMEA,$PSSGR,GSA,A,3,,,,,,,,,,,,,1.4,0.8,1.1,5,8*4C,1699400577564
NMEA,$PSSGR,GSA,A,3,,,,,,,,,,,,,1.4,0.8,1.1,5,9*4D,1699400577564
NMEA,$PSSGR,GSA,A,3,,,,,,,,,,,,,1.4,0.8,1.1,4,1*44,1699400577564
NMEA,$PSSGR,GSA,A,3,,,,,,,,,,,,,1.4,0.8,1.1,4,5*40,1699400577564
NMEA,$PSSGR,GSA,A,3,,,,,,,,,,,,,1.4,0.8,1.1,4,3*46,1699400577564
NMEA,$PSSGR,GSA,A,3,107,127,130,,,,,,,,,,1.4,0.8,1.1,3,7*75,1699400577564
NMEA,$PSSGR,GSA,A,3,107,,,,,,,,,,,,1.4,0.8,1.1,3,1*75,1699400577565
NMEA,$PSSGR,GSA,A,3,,,,,,,,,,,,,1.4,0.8,1.1,6,1*46,1699400577565
NMEA,$GPGSV,5,1,16,07,68,001,39,09,54,145,32,30,51,301,30,14,39,224,43*7B,1699400577565
NMEA,$GPGSV,5,2,16,08,38,088,44,20,23,281,39,04,21,137,30,22,20,221,42*7C,1699400577565
NMEA,$GPGSV,5,3,16,27,19,049,35,05,14,314,25*7F,1699400577565
NMEA,$GPGSV,5,4,16,09,,,30,30,,,32,14,,,32,08,,,33,8*6F,1699400577565
NMEA,$GPGSV,5,5,16,04,,,24,27,,,35,8*6B,1699400577565
NMEA,$GLGSV,2,1,06,66,69,199,39,77,55,282,34,76,53,018,40,67,45,320,33*60,1699400577565
NMEA,$GLGSV,2,2,06,65,18,166,28,85,10,052,25*6E,1699400577565
NMEA,$GAGSV,2,1,08,127,84,233,35,107,54,143,29,130,39,046,34,119,22,315,20*64,1699400577565
NMEA,$GAGSV,2,2,08,127,,,26,107,,,32,130,,,,119,,,,1*71,1699400577565
NMEA,$GPGSA,A,3,04,07,08,09,14,20,22,27,30,,,,1.4,0.8,1.1*3C,1699400577565
NMEA,$GPGSA,A,3,08,09,14,27,30,,,,,,,,1.4,0.8,1.1,8*29,1699400577566
NMEA,$GPGSA,A,3,,,,,,,,,,,,,1.4,0.8,1.1,9*2A,1699400577566
NMEA,$QZGSA,A,3,,,,,,,,,,,,,1.4,0.8,1.1*23,1699400577566
NMEA,$QZGSA,A,3,,,,,,,,,,,,,1.4,0.8,1.1,8*37,1699400577566
NMEA,$QZGSA,A,3,,,,,,,,,,,,,1.4,0.8,1.1,9*36,1699400577566
NMEA,$BDGSA,A,3,,,,,,,,,,,,,1.4,0.8,1.1*2E,1699400577566
NMEA,$BDGSA,A,3,,,,,,,,,,,,,1.4,0.8,1.1,5*37,1699400577566
NMEA,$BDGSA,A,3,,,,,,,,,,,,,1.4,0.8,1.1,3*31,1699400577566
NMEA,$GAGSA,A,3,107,127,130,,,,,,,,,,1.4,0.8,1.1*1E,1699400577566
NMEA,$GAGSA,A,3,107,,,,,,,,,,,,1.4,0.8,1.1,1*05,1699400577566
NMEA,$NCGSA,A,3,,,,,,,,,,,,,1.4,0.8,1.1,1*38,1699400577566
NMEA,$GNGSA,A,3,04,07,08,09,14,20,22,27,30,,,,1.4,0.8,1.1*22,1699400577566
NMEA,$GNGSA,A,3,65,66,67,76,77,85,,,,,,,1.4,0.8,1.1*2F,1699400577566
NMEA,$PGLOR,1,FIX,1.0,1.0*20,1699400577566
NMEA,$GPRMC,234257.00,A,3725.590397,N,12210.422534,W,000.0,,071123,,,A*65,1699400577566
NMEA,$PGLOR,SPL,20231107154257.5,POS,20231107234257.000,37.426507,-122.173709,4,4,0,23,3,1.100000*48,1699400577567
NMEA,$GPGGA,234258.00,3725.590398,N,12210.422533,W,1,25,0.4,51.9,M,-28.4,M,,*65,1699400578578
NMEA,$PGLOR,11,STA,234258.00,0.000,0.000,128,1,4,1,P,S,L,0,C,3,S,00100002,0,5,R,000833F4,TPEF,30,45090,LC,,,DR,3,,,,*63,1699400578579
NMEA,$PGLOR,1,UNC,234258.00,0.007,4.1,3.0,0.19,66.06,5.1,3.5,47.4*2D,1699400578579
NMEA,$PGLOR,2,SAT,4,1,E27,29,2002F,R02,34,1F,G07,34,2F,R13,29,1F,G09,27,7AF,E07,26,7AF*08,1699400578579
NMEA,$PGLOR,2,SAT,4,2,R12,36,1F,G30,22,7AF,R03,28,1B,G14,39,7AF,E30,,2002F,G08,41,5AB*4F,1699400578579
NMEA,$PGLOR,2,SAT,4,3,G20,34,2F,E19,,20020,G04,24,2002B,G22,37,2F,G27,30,7AF,R01,25,2F*1F,1699400578579
NMEA,$PGLOR,2,SAT,4,4,G05,17,2B,R21,19,2F*2B,1699400578579
NMEA,$PGLOR,2,SVC,GPS,0,3,1,10,007,SKUS,SKUS,009,SKUS,SKUS,014,SKUS,SKUS,030,SKUS,SKUS*61,1699400578579
NMEA,$PGLOR,2,SVC,GPS,0,3,2,10,004,SKPR,SKUS,008,SKUS,SKUS,020,SKPR,SKUS,022,SKUS,SKUS*64,1699400578579
NMEA,$PGLOR,2,SVC,GPS,0,3,3,10,005,SKUS,SKUS,027,POGH,POGH*6B,1699400578579
NMEA,$PGLOR,2,SVC,GPS,2,2,1,06,008,SKUS,SKUS,009,SKUS,SKUS,014,SKUS,SKUS,030,SKPR,SKUS*6E,1699400578579
NMEA,$PGLOR,2,SVC,GPS,2,2,2,06,004,CLIN,CLIN,027,SKUS,SKUS*6F,1699400578579
NMEA,$PGLOR,2,SVC,GLO,0,2,1,06,055,SKUS,SKUS,057,SKUS,SKUS,058,SKUS,SKUS,064,SKPR,SKUS*66,1699400578579
NMEA,$PGLOR,2,SVC,GLO,0,2,2,06,060,SKUS,SKUS,063,SKUS,SKUS*6F,1699400578579
NMEA,$PGLOR,2,SVC,GAL,0,1,1,04,145,SKUS,SKUS,157,SKUS,SKUS,165,SKUS,SKUS,168,CLIN,CLIN*6E,1699400578579
NMEA,$PGLOR,2,SVC,GAL,2,1,1,04,145,CLIN,CLIN,157,SKUS,SKUS,165,CLIN,CLIN,168,CLIN,CLIN*6C,1699400578579
NMEA,$PGLOR,2,SIO,TxERR,0,RxERR,0,TxCNT,630,RxCNT,7345,MLFRMPKT,0,DTMS,1001,DTIN,28,54,DTOUT,16,944,HATMD,35*16,1699400578580
NMEA,$PGLOR,2,HLA,234258.00,L,,Al,,A,,H,,,M,1,Ac,0,Gr,0,S,,,Sx,,,T,1,Tr,,Mn,,Ap,,Ta,0,,,Aa,1,Ga,1,*10,1699400578580
NMEA,$PGLOR,3,CTX,234258.00,E,1,1,,,V,0,0,S,,,*72,1699400578580
NMEA,$PGLOR,1,LSQ,234258.00,3725.589833,N,12210.422722,W,14.3,1.5,26.9,31.0,3.3,,,,,,,05,0.4,19.5*3B,1699400578580
NMEA,$PGLOR,6,PWR,mA,19.8,RFTm,675,OscTm,1000,MeasTm,1000,UTC,234258.00,GNSSmA,18.5,CPUTm,160,COPTm,60,COPMargTm,159,Sr*00,1699400578580
NMEA,$PGLOR,0,PPS,071123,234258.000,010170,042840.559,000.100,1,0,1,*1E,1699400578580
NMEA,$PGLOR,2,AGC,G,44.4,R,62.6,B,18.5,E5A,26.7,E5B,,L2,*12,1699400578580
NMEA,$PSSGR,GSA,A,3,04,05,07,08,09,14,20,22,27,30,,,1.4,0.8,1.1,1,1*47,1699400578580
NMEA,$PSSGR,GSA,A,3,08,09,14,27,30,,,,,,,,1.4,0.8,1.1,1,8*4A,1699400578580
NMEA,$PSSGR,GSA,A,3,,,,,,,,,,,,,1.4,0.8,1.1,1,9*49,1699400578580
NMEA,$PSSGR,GSA,A,3,65,66,67,76,77,85,,,,,,,1.4,0.8,1.1,2,1*4C,1699400578580
NMEA,$PSSGR,GSA,A,3,,,,,,,,,,,,,1.4,0.8,1.1,5,1*45,1699400578580
NMEA,$PSSGR,GSA,A,3,,,,,,,,,,,,,1.4,0.8,1.1,5,8*4C,1699400578580
NMEA,$PSSGR,GSA,A,3,,,,,,,,,,,,,1.4,0.8,1.1,5,9*4D,1699400578581
NMEA,$PSSGR,GSA,A,3,,,,,,,,,,,,,1.4,0.8,1.1,4,1*44,1699400578581
NMEA,$PSSGR,GSA,A,3,,,,,,,,,,,,,1.4,0.8,1.1,4,5*40,1699400578581
NMEA,$PSSGR,GSA,A,3,,,,,,,,,,,,,1.4,0.8,1.1,4,3*46,1699400578581
NMEA,$PSSGR,GSA,A,3,107,127,130,,,,,,,,,,1.4,0.8,1.1,3,7*75,1699400578581
NMEA,$PSSGR,GSA,A,3,107,,,,,,,,,,,,1.4,0.8,1.1,3,1*75,1699400578581
NMEA,$PSSGR,GSA,A,3,,,,,,,,,,,,,1.4,0.8,1.1,6,1*46,1699400578581
NMEA,$GPGSV,5,1,16,07,68,001,39,09,54,145,32,30,51,301,30,14,39,224,43*7B,1699400578581
NMEA,$GPGSV,5,2,16,08,38,088,44,20,23,280,39,04,21,137,30,22,20,221,42*7D,1699400578581
NMEA,$GPGSV,5,3,16,27,19,049,35,05,14,314,24*7E,1699400578581
NMEA,$GPGSV,5,4,16,09,,,29,30,,,32,14,,,31,08,,,33,8*64,1699400578581
NMEA,$GPGSV,5,5,16,04,,,,27,,,34,8*6C,1699400578581
NMEA,$GLGSV,2,1,06,66,69,199,39,77,55,282,34,76,53,018,40,67,45,320,33*60,1699400578581
NMEA,$GLGSV,2,2,06,65,18,166,28,85,10,052,25*6E,1699400578581
NMEA,$GAGSV,2,1,08,127,84,233,34,107,54,143,30,130,39,046,34,119,22,315,20*6D,1699400578581
NMEA,$GAGSV,2,2,08,127,,,26,107,,,32,130,,,,119,,,,1*71,1699400578581
NMEA,$GPGSA,A,3,04,05,07,08,09,14,20,22,27,30,,,1.4,0.8,1.1*39,1699400578582
NMEA,$GPGSA,A,3,08,09,14,27,30,,,,,,,,1.4,0.8,1.1,8*29,1699400578582
NMEA,$GPGSA,A,3,,,,,,,,,,,,,1.4,0.8,1.1,9*2A,1699400578582
NMEA,$QZGSA,A,3,,,,,,,,,,,,,1.4,0.8,1.1*23,1699400578582
NMEA,$QZGSA,A,3,,,,,,,,,,,,,1.4,0.8,1.1,8*37,1699400578582
NMEA,$QZGSA,A,3,,,,,,,,,,,,,1.4,0.8,1.1,9*36,1699400578582
NMEA,$BDGSA,A,3,,,,,,,,,,,,,1.4,0.8,1.1*2E,1699400578582
NMEA,$BDGSA,A,3,,,,,,,,,,,,,1.4,0.8,1.1,5*37,1699400578582
NMEA,$BDGSA,A,3,,,,,,,,,,,,,1.4,0.8,1.1,3*31,1699400578582
NMEA,$GAGSA,A,3,107,127,130,,,,,,,,,,1.4,0.8,1.1*1E,1699400578582
NMEA,$GAGSA,A,3,107,,,,,,,,,,,,1.4,0.8,1.1,1*05,1699400578582
NMEA,$NCGSA,A,3,,,,,,,,,,,,,1.4,0.8,1.1,1*38,1699400578582
NMEA,$GNGSA,A,3,04,05,07,08,09,14,20,22,27,30,,,1.4,0.8,1.1*27,1699400578582
NMEA,$GNGSA,A,3,65,66,67,76,77,85,,,,,,,1.4,0.8,1.1*2F,1699400578582
NMEA,$PGLOR,1,FIX,1.0,1.0*20,1699400578582
NMEA,$GPRMC,234258.00,A,3725.590398,N,12210.422533,W,000.0,,071123,,,A*62,1699400578583
NMEA,$PGLOR,SPL,20231107154258.5,POS,20231107234258.000,37.426507,-122.173709,4,4,0,24,3,1.100000*4F,1699400578583
NMEA,$GPGGA,234259.00,3725.590398,N,12210.422533,W,1,25,0.4,51.9,M,-28.4,M,,*64,1699400579577
NMEA,$PGLOR,11,STA,234259.00,0.000,0.000,128,1,4,1,P,S,L,0,C,3,S,00100002,0,5,R,000833F4,TPeF,36,46090,LC,,,DR,3,,,,*47,1699400579577
NMEA,$PGLOR,1,UNC,234259.00,0.007,4.1,3.0,0.20,180.00,5.1,3.5,47.7*1A,1699400579577
NMEA,$PGLOR,2,SAT,9,1,E27,31,7AF,R02,35,1F,G07,35,2F,R13,30,1F,E07,26,7AF,G09,29,7AF*7C,1699400579577
NMEA,$PGLOR,2,SAT,9,2,R12,35,1F,G30,23,7AF,R03,28,1B,G14,39,7AF,E30,,2002F,G08,39,5AB*4F,1699400579578
NMEA,$PGLOR,2,SAT,9,3,G20,35,2F,E19,,20020,G04,25,2002B,G22,37,2F,G27,30,7AF,R01,26,2F*11,1699400579578
NMEA,$PGLOR,2,SAT,9,4,G05,13,23,R21,20,2F,R14,,20,R22,,20,E08,,20,R11,,20*43,1699400579578
NMEA,$PGLOR,2,SAT,9,5,Q04,,20,G13,,20,E18,,00,G21,,20,G23,,20,G19,,20*2D,1699400579578
NMEA,$PGLOR,2,SAT,9,6,G24,,20,G25,,20,G18,,20,R20,,20,G17,,20,G16,,20*23,1699400579578
NMEA,$PGLOR,2,SAT,9,7,R19,,20,R04,,20,G15,,20,Q02,,20,Q01,,00,G26,,20*31,1699400579578
NMEA,$PGLOR,2,SAT,9,8,Q03,,20,E02,,20,Q07,,20,E04,,20,E03,,20,G29,,20*3B,1699400579578
NMEA,$PGLOR,2,SAT,9,9,G28,,20,E10,,20*3B,1699400579578
NMEA,$PGLOR,2,SVC,GPS,0,6,1,23,007,SKUS,SKUS,009,SKUS,SKUS,014,SKUS,SKUS,030,SKUS,SKUS*64,1699400579578
NMEA,$PGLOR,2,SVC,GPS,0,6,2,23,004,SKPR,SKUS,008,SKUS,SKUS,020,SKPR,SKUS,022,SKUS,SKUS*61,1699400579578
NMEA,$PGLOR,2,SVC,GPS,0,6,3,23,005,SKUS,SKUS,013,SKPR,SKUS,021,CLIN,CLIN,027,CLIN,CLIN*6B,1699400579578
NMEA,$PGLOR,2,SVC,GPS,0,6,4,23,019,CLIN,CLIN,023,CLIN,CLIN,024,CLIN,CLIN,025,CLIN,CLIN*61,1699400579578
NMEA,$PGLOR,2,SVC,GPS,0,6,5,23,015,CLIN,CLIN,016,CLIN,CLIN,017,CLIN,CLIN,018,CLIN,CLIN*64,1699400579578
NMEA,$PGLOR,2,SVC,GPS,0,6,6,23,026,CLIN,CLIN,028,CLIN,CLIN,029,CLIN,CLIN*72,1699400579579
NMEA,$PGLOR,2,SVC,GPS,2,2,1,06,008,SKUS,SKUS,009,SKUS,SKUS,014,SKUS,SKUS,030,SKPR,SKUS*6E,1699400579579
NMEA,$PGLOR,2,SVC,GPS,2,2,2,06,004,CLIN,CLIN,027,SKUS,SKUS*6F,1699400579579
NMEA,$PGLOR,2,SVC,GLO,0,3,1,12,055,SKUS,SKUS,057,SKUS,SKUS,058,SKUS,SKUS,064,SKPR,SKUS*62,1699400579579
NMEA,$PGLOR,2,SVC,GLO,0,3,2,12,052,SKUS,SKUS,056,SKUS,SKUS,060,CLIN,CLIN,063,CLIN,CLIN*6F,1699400579579
NMEA,$PGLOR,2,SVC,GLO,0,3,3,12,059,CLIN,CLIN,061,CLIN,CLIN,062,CLIN,CLIN,065,CLIN,CLIN*65,1699400579579
NMEA,$PGLOR,2,SVC,QZS,0,2,1,05,066,CLIN,CLIN,067,CLIN,CLIN,068,CLIN,CLIN,069,CLIN,CLIN*70,1699400579579
NMEA,$PGLOR,2,SVC,QZS,0,2,2,05,072,CLIN,CLIN*6A,1699400579579
NMEA,$PGLOR,2,SVC,GAL,0,3,1,10,145,SKUS,SKUS,157,SKUS,SKUS,165,SKUS,SKUS,168,CLIN,CLIN*69,1699400579579
NMEA,$PGLOR,2,SVC,GAL,0,3,2,10,140,CLIN,CLIN,142,CLIN,CLIN,146,CLIN,CLIN,156,CLIN,CLIN*67,1699400579579
NMEA,$PGLOR,2,SVC,GAL,0,3,3,10,141,CLIN,CLIN,148,CLIN,CLIN*6C,1699400579579
NMEA,$PGLOR,2,SVC,GAL,2,1,1,04,145,CLIN,CLIN,157,SKUS,SKUS,165,CLIN,CLIN,168,CLIN,CLIN*6C,1699400579579
NMEA,$PGLOR,2,SIO,TxERR,0,RxERR,0,TxCNT,724,RxCNT,7690,MLFRMPKT,0,DTMS,1000,DTIN,46,65,DTOUT,16,937,HATMD,35*10,1699400579579
NMEA,$PGLOR,2,HLA,234259.00,L,,Al,,A,,H,,,M,1,Ac,0,Gr,0,S,,,Sx,,,T,1,Tr,,Mn,,Ap,,Ta,0,,,Aa,1,Ga,1,*11,1699400579579
NMEA,$PGLOR,3,CTX,234259.00,E,1,1,,,V,0,0,S,,,*73,1699400579579
NMEA,$PGLOR,1,LSQ,234259.00,3725.589963,N,12210.423195,W,20.1,1.4,25.3,33.9,2.4,,,,,,,06,0.4,19.2*31,1699400579579
NMEA,$PGLOR,6,PWR,mA,19.7,RFTm,674,OscTm,1000,MeasTm,1000,UTC,234259.00,GNSSmA,18.5,CPUTm,161,COPTm,56,COPMargTm,159,Sr*00,1699400579580
NMEA,$PGLOR,0,PPS,071123,234259.000,010170,042841.559,000.100,1,0,1,*1E,1699400579580
NMEA,$PGLOR,2,AGC,G,43.9,R,63.2,B,18.5,E5A,30.6,E5B,,L2,*1B,1699400579580
NMEA,$PSSGR,GSA,A,3,04,07,08,09,14,20,22,27,30,,,,1.4,0.8,1.1,1,1*42,1699400579580
NMEA,$PSSGR,GSA,A,3,08,09,14,27,30,,,,,,,,1.4,0.8,1.1,1,8*4A,1699400579580
NMEA,$PSSGR,GSA,A,3,,,,,,,,,,,,,1.4,0.8,1.1,1,9*49,1699400579580
NMEA,$PSSGR,GSA,A,3,65,66,67,76,77,85,,,,,,,1.4,0.8,1.1,2,1*4C,1699400579580
NMEA,$PSSGR,GSA,A,3,,,,,,,,,,,,,1.4,0.8,1.1,5,1*45,1699400579580
NMEA,$PSSGR,GSA,A,3,,,,,,,,,,,,,1.4,0.8,1.1,5,8*4C,1699400579580
NMEA,$PSSGR,GSA,A,3,,,,,,,,,,,,,1.4,0.8,1.1,5,9*4D,1699400579580
NMEA,$PSSGR,GSA,A,3,,,,,,,,,,,,,1.4,0.8,1.1,4,1*44,1699400579580
NMEA,$PSSGR,GSA,A,3,,,,,,,,,,,,,1.4,0.8,1.1,4,5*40,1699400579580
NMEA,$PSSGR,GSA,A,3,,,,,,,,,,,,,1.4,0.8,1.1,4,3*46,1699400579580
NMEA,$PSSGR,GSA,A,3,107,127,130,,,,,,,,,,1.4,0.8,1.1,3,7*75,1699400579580
NMEA,$PSSGR,GSA,A,3,107,127,,,,,,,,,,,1.4,0.8,1.1,3,1*41,1699400579580
NMEA,$PSSGR,GSA,A,3,,,,,,,,,,,,,1.4,0.8,1.1,6,1*46,1699400579580
NMEA,$GPGSV,8,1,29,07,68,001,39,09,54,145,32,30,51,301,29,14,39,224,43*72,1699400579580
NMEA,$GPGSV,8,2,29,08,38,088,44,20,23,280,39,04,21,137,30,22,20,221,42*7C,1699400579580
NMEA,$GPGSV,8,3,29,27,19,049,35,05,14,314,23,13,01,313,,21,,,*49,1699400579580
NMEA,$GPGSV,8,4,29,23,,,,19,,,,24,,,,25,,,*76,1699400579580
NMEA,$GPGSV,8,5,29,18,,,,17,,,,16,,,,15,,,*73,1699400579581
NMEA,$GPGSV,8,6,29,26,,,,29,,,,28,,,*79,1699400579581
NMEA,$GPGSV,8,7,29,09,,,29,30,,,31,14,,,31,08,,,33,8*65,1699400579581
NMEA,$GPGSV,8,8,29,04,,,21,27,,,35,8*62,1699400579581
NMEA,$GLGSV,3,1,12,66,69,199,39,77,55,282,34,76,53,018,40,67,45,320,33*64,1699400579581
NMEA,$GLGSV,3,2,12,65,18,166,30,85,10,052,25,78,06,245,,86,05,096,*6D,1699400579581
NMEA,$GLGSV,3,3,12,75,04,051,,84,,,,83,,,,68,,,*5D,1699400579581
NMEA,$QZGSV,2,1,05,04,04,306,,02,,,,01,,,,03,,,*56,1699400579581
NMEA,$QZGSV,2,2,05,07,,,*67,1699400579581
NMEA,$GAGSV,4,1,14,127,84,233,34,107,54,143,30,130,39,046,33,119,22,315,19*6B,1699400579582
NMEA,$GAGSV,4,2,14,108,04,138,,118,25,157,,102,,,,104,,,*66,1699400579582
NMEA,$GAGSV,4,3,14,103,,,,110,,,*68,1699400579582
NMEA,$GAGSV,4,4,14,127,,,25,107,,,32,130,,,,119,,,,1*7F,1699400579582
NMEA,$GPGSA,A,3,04,07,08,09,14,20,22,27,30,,,,1.4,0.8,1.1*3C,1699400579582
NMEA,$GPGSA,A,3,08,09,14,27,30,,,,,,,,1.4,0.8,1.1,8*29,1699400579582
NMEA,$GPGSA,A,3,,,,,,,,,,,,,1.4,0.8,1.1,9*2A,1699400579582
NMEA,$QZGSA,A,3,,,,,,,,,,,,,1.4,0.8,1.1*23,1699400579582
NMEA,$QZGSA,A,3,,,,,,,,,,,,,1.4,0.8,1.1,8*37,1699400579582
NMEA,$QZGSA,A,3,,,,,,,,,,,,,1.4,0.8,1.1,9*36,1699400579582
NMEA,$BDGSA,A,3,,,,,,,,,,,,,1.4,0.8,1.1*2E,1699400579583
NMEA,$BDGSA,A,3,,,,,,,,,,,,,1.4,0.8,1.1,5*37,1699400579583
NMEA,$BDGSA,A,3,,,,,,,,,,,,,1.4,0.8,1.1,3*31,1699400579583
NMEA,$GAGSA,A,3,107,127,130,,,,,,,,,,1.4,0.8,1.1*1E,1699400579583
NMEA,$GAGSA,A,3,107,127,,,,,,,,,,,1.4,0.8,1.1,1*31,1699400579583
NMEA,$NCGSA,A,3,,,,,,,,,,,,,1.4,0.8,1.1,1*38,1699400579583
NMEA,$GNGSA,A,3,04,07,08,09,14,20,22,27,30,,,,1.4,0.8,1.1*22,1699400579583
NMEA,$GNGSA,A,3,65,66,67,76,77,85,,,,,,,1.4,0.8,1.1*2F,1699400579583
NMEA,$PGLOR,1,FIX,1.0,1.0*20,1699400579583
NMEA,$GPRMC,234259.00,A,3725.590398,N,12210.422533,W,000.0,,071123,,,A*63,1699400579583
NMEA,$PGLOR,SPL,20231107154259.5,POS,20231107234259.000,37.426507,-122.173709,4,4,0,24,3,1.100000*4F,1699400579584
NMEA,$GPGGA,234300.00,3725.590395,N,12210.422531,W,1,26,0.4,52.0,M,-28.4,M,,*6F,1699400580561
NMEA,$PGLOR,11,STA,234300.00,0.000,0.000,128,1,4,1,P,S,L,0,C,3,S,00100002,0,5,R,000833F4,TPEF,30,47090,LC,,,DR,3,,,,*6D,1699400580561
NMEA,$PGLOR,1,UNC,234300.00,0.007,4.1,3.0,0.20,23.81,5.1,3.5,47.6*27,1699400580561
NMEA,$PGLOR,2,SAT,4,1,E27,31,7AF,R02,34,1F,G07,33,2F,R13,30,1F,G09,29,7AF,E07,27,7AF*77,1699400580561
NMEA,$PGLOR,2,SAT,4,2,R12,34,1F,G30,25,7AF,R03,27,1F,G14,38,7AF,E30,,2002F,G08,38,5AB*4E,1699400580561
NMEA,$PGLOR,2,SAT,4,3,G20,34,2F,E19,,20020,G04,27,2002B,G22,37,2F,G27,30,7AF,R01,25,2F*1C,1699400580561
NMEA,$PGLOR,2,SAT,4,4,G05,16,2B,R21,19,2F*2A,1699400580562
NMEA,$PGLOR,2,SVC,GPS,0,3,1,10,007,SKUS,SKUS,009,SKUS,SKUS,014,SKUS,SKUS,030,SKUS,SKUS*61,1699400580562
NMEA,$PGLOR,2,SVC,GPS,0,3,2,10,004,SKPR,SKUS,008,SKUS,SKUS,020,SKPR,SKUS,022,SKUS,SKUS*64,1699400580562
NMEA,$PGLOR,2,SVC,GPS,0,3,3,10,005,SKUS,SKUS,027,POGH,POGH*6B,1699400580562
NMEA,$PGLOR,2,SVC,GPS,2,2,1,06,008,SKUS,SKUS,009,SKUS,SKUS,014,SKUS,SKUS,030,SKPR,SKUS*6E,1699400580562
NMEA,$PGLOR,2,SVC,GPS,2,2,2,06,004,CLIN,CLIN,027,SKUS,SKUS*6F,1699400580562
NMEA,$PGLOR,2,SVC,GLO,0,2,1,06,055,SKUS,SKUS,057,SKUS,SKUS,058,SKUS,SKUS,064,SKPR,SKUS*66,1699400580562
NMEA,$PGLOR,2,SVC,GLO,0,2,2,06,060,SKUS,SKUS,063,SKUS,SKUS*6F,1699400580562
NMEA,$PGLOR,2,SVC,GAL,0,1,1,04,145,SKUS,SKUS,157,SKUS,SKUS,165,SKUS,SKUS,168,CLIN,CLIN*6E,1699400580562
NMEA,$PGLOR,2,SVC,GAL,2,1,1,04,145,SKUS,SKUS,157,SKUS,SKUS,165,CLIN,CLIN,168,CLIN,CLIN*6C,1699400580562
NMEA,$PGLOR,2,SIO,TxERR,0,RxERR,0,TxCNT,711,RxCNT,7355,MLFRMPKT,0,DTMS,999,DTIN,44,66,DTOUT,15,934,HATMD,34*22,1699400580562
NMEA,$PGLOR,2,HLA,234300.00,L,,Al,,A,,H,,,M,1,Ac,0,Gr,0,S,,,Sx,,,T,1,Tr,,Mn,,Ap,,Ta,0,,,Aa,1,Ga,1,*1C,1699400580562
NMEA,$PGLOR,3,CTX,234300.00,E,1,1,,,V,0,0,S,,,*7E,1699400580562
NMEA,$PGLOR,1,LSQ,234300.00,3725.590385,N,12210.422931,W,10.2,1.4,27.0,17.3,2.4,,,,,,,06,0.4,18.9*36,1699400580562
NMEA,$PGLOR,6,PWR,mA,20.0,RFTm,681,OscTm,1000,MeasTm,1000,UTC,234300.00,GNSSmA,18.7,CPUTm,168,COPTm,60,COPMargTm,158,Sr*00,1699400580562
NMEA,$PGLOR,0,PPS,071123,234300.000,010170,042842.559,000.100,1,0,1,*10,1699400580562
NMEA,$PGLOR,2,AGC,G,45.2,R,63.0,B,18.5,E5A,30.1,E5B,,L2,*13,1699400580563
NMEA,$PSSGR,GSA,A,3,04,05,07,08,09,14,20,22,27,30,,,1.4,0.8,1.1,1,1*47,1699400580563
NMEA,$PSSGR,GSA,A,3,08,09,14,27,30,,,,,,,,1.4,0.8,1.1,1,8*4A,1699400580563
NMEA,$PSSGR,GSA,A,3,,,,,,,,,,,,,1.4,0.8,1.1,1,9*49,1699400580563
NMEA,$PSSGR,GSA,A,3,65,66,67,76,77,85,,,,,,,1.4,0.8,1.1,2,1*4C,1699400580563
NMEA,$PSSGR,GSA,A,3,,,,,,,,,,,,,1.4,0.8,1.1,5,1*45,1699400580563
NMEA,$PSSGR,GSA,A,3,,,,,,,,,,,,,1.4,0.8,1.1,5,8*4C,1699400580563
NMEA,$PSSGR,GSA,A,3,,,,,,,,,,,,,1.4,0.8,1.1,5,9*4D,1699400580563
NMEA,$PSSGR,GSA,A,3,,,,,,,,,,,,,1.4,0.8,1.1,4,1*44,1699400580563
NMEA,$PSSGR,GSA,A,3,,,,,,,,,,,,,1.4,0.8,1.1,4,5*40,1699400580563
NMEA,$PSSGR,GSA,A,3,,,,,,,,,,,,,1.4,0.8,1.1,4,3*46,1699400580563
NMEA,$PSSGR,GSA,A,3,107,127,130,,,,,,,,,,1.4,0.8,1.1,3,7*75,1699400580563
NMEA,$PSSGR,GSA,A,3,107,127,,,,,,,,,,,1.4,0.8,1.1,3,1*41,1699400580563
NMEA,$PSSGR,GSA,A,3,,,,,,,,,,,,,1.4,0.8,1.1,6,1*46,1699400580563
NMEA,$GPGSV,5,1,16,07,68,001,39,09,54,145,33,30,51,301,29,14,39,224,43*72,1699400580564
NMEA,$GPGSV,5,2,16,08,38,088,44,20,23,280,39,04,21,137,31,22,20,221,42*7C,1699400580564
NMEA,$GPGSV,5,3,16,27,19,049,35,05,14,314,23*79,1699400580564
NMEA,$GPGSV,5,4,16,09,,,31,30,,,31,14,,,31,08,,,32,8*6F,1699400580564
NMEA,$GPGSV,5,5,16,04,,,22,27,,,35,8*6D,1699400580564
NMEA,$GLGSV,2,1,06,66,69,199,39,77,55,282,34,76,53,018,39,67,45,320,33*6E,1699400580564
NMEA,$GLGSV,2,2,06,65,18,166,29,85,10,052,24*6E,1699400580564
NMEA,$GAGSV,2,1,08,127,84,233,35,107,54,143,30,130,39,046,33,119,22,315,19*61,1699400580564
NMEA,$GAGSV,2,2,08,127,,,26,107,,,32,130,,,,119,,,,1*71,1699400580564
NMEA,$GPGSA,A,3,04,05,07,08,09,14,20,22,27,30,,,1.4,0.8,1.1*39,1699400580564
NMEA,$GPGSA,A,3,08,09,14,27,30,,,,,,,,1.4,0.8,1.1,8*29,1699400580564
NMEA,$GPGSA,A,3,,,,,,,,,,,,,1.4,0.8,1.1,9*2A,1699400580564
NMEA,$QZGSA,A,3,,,,,,,,,,,,,1.4,0.8,1.1*23,1699400580564
NMEA,$QZGSA,A,3,,,,,,,,,,,,,1.4,0.8,1.1,8*37,1699400580565
NMEA,$QZGSA,A,3,,,,,,,,,,,,,1.4,0.8,1.1,9*36,1699400580565
NMEA,$BDGSA,A,3,,,,,,,,,,,,,1.4,0.8,1.1*2E,1699400580565
NMEA,$BDGSA,A,3,,,,,,,,,,,,,1.4,0.8,1.1,5*37,1699400580565
NMEA,$BDGSA,A,3,,,,,,,,,,,,,1.4,0.8,1.1,3*31,1699400580565
NMEA,$GAGSA,A,3,107,127,130,,,,,,,,,,1.4,0.8,1.1*1E,1699400580565
NMEA,$GAGSA,A,3,107,127,,,,,,,,,,,1.4,0.8,1.1,1*31,1699400580565
NMEA,$NCGSA,A,3,,,,,,,,,,,,,1.4,0.8,1.1,1*38,1699400580565
NMEA,$GNGSA,A,3,04,05,07,08,09,14,20,22,27,30,,,1.4,0.8,1.1*27,1699400580565
NMEA,$GNGSA,A,3,65,66,67,76,77,85,,,,,,,1.4,0.8,1.1*2F,1699400580565
NMEA,$PGLOR,1,FIX,1.0,1.0*20,1699400580565
NMEA,$GPRMC,234300.00,A,3725.590395,N,12210.422531,W,000.0,,071123,,,A*61,1699400580565
NMEA,$PGLOR,SPL,20231107154300.5,POS,20231107234300.000,37.426507,-122.173709,4,4,0,24,3,1.100000*4F,1699400580566
NMEA,$GPGGA,234301.00,3725.590444,N,12210.422484,W,1,25,0.4,52.0,M,-28.4,M,,*69,1699400581566
NMEA,$PGLOR,11,STA,234301.00,0.000,0.000,129,1,4,1,P,S,L,0,C,3,S,00100002,0,5,R,000833F4,TPEF,30,48090,LC,,,DR,3,,,,*62,1699400581566
NMEA,$PGLOR,1,UNC,234301.00,0.007,4.1,3.0,0.20,180.00,5.0,3.7,48.1*1C,1699400581566
NMEA,$PGLOR,2,SAT,4,1,E27,31,7AF,R02,33,1F,G07,32,2F,R13,30,1F,G09,30,7AF,E07,28,7AF*76,1699400581566
NMEA,$PGLOR,2,SAT,4,2,R12,35,1F,G30,25,7AF,R03,26,1F,G14,38,7AF,E30,,2002F,G08,40,5AB*41,1699400581566
NMEA,$PGLOR,2,SAT,4,3,G20,35,2F,E19,,20023,G04,27,2002B,G22,36,2F,G27,30,7AF,R01,25,2F*1F,1699400581566
NMEA,$PGLOR,2,SAT,4,4,G05,15,23,R21,19,2F*58,1699400581567
NMEA,$PGLOR,2,SVC,GPS,0,3,1,10,007,SKUS,SKUS,009,SKUS,SKUS,014,SKUS,SKUS,030,SKUS,SKUS*61,1699400581567
NMEA,$PGLOR,2,SVC,GPS,0,3,2,10,004,SKPR,SKUS,008,SKUS,SKUS,020,SKPR,SKUS,022,SKUS,SKUS*64,1699400581567
NMEA,$PGLOR,2,SVC,GPS,0,3,3,10,005,SKUS,SKUS,027,SKPR,SKUS*6F,1699400581567
NMEA,$PGLOR,2,SVC,GPS,2,2,1,06,008,SKUS,SKUS,009,SKUS,SKUS,014,SKUS,SKUS,030,SKPR,SKUS*6E,1699400581567
NMEA,$PGLOR,2,SVC,GPS,2,2,2,06,004,CLIN,CLIN,027,SKUS,SKUS*6F,1699400581567
NMEA,$PGLOR,2,SVC,GLO,0,2,1,06,055,SKUS,SKUS,057,SKUS,SKUS,058,SKUS,SKUS,064,SKUS,SKUS*62,1699400581567
NMEA,$PGLOR,2,SVC,GLO,0,2,2,06,060,SKUS,SKUS,063,SKUS,SKUS*6F,1699400581567
NMEA,$PGLOR,2,SVC,GAL,0,1,1,04,145,SKUS,SKUS,157,SKUS,SKUS,165,SKUS,SKUS,168,CLIN,CLIN*6E,1699400581567
NMEA,$PGLOR,2,SVC,GAL,2,1,1,04,145,SKUS,SKUS,157,SKUS,SKUS,165,CLIN,CLIN,168,CLIN,CLIN*6C,1699400581567
NMEA,$PGLOR,2,SIO,TxERR,0,RxERR,0,TxCNT,630,RxCNT,7329,MLFRMPKT,0,DTMS,1000,DTIN,27,45,DTOUT,15,952,HATMD,34*17,1699400581567
NMEA,$PGLOR,2,HLA,234301.00,L,,Al,,A,,H,,,M,0,Ac,0,Gr,0,S,,,Sx,,,T,0,Tr,,Mn,,Ap,,Ta,0,,,Aa,1,Ga,1,*1D,1699400581567
NMEA,$PGLOR,3,CTX,234301.00,E,1,1,,,V,0,0,S,,,*7F,1699400581568
NMEA,$PGLOR,1,LSQ,234301.00,3725.590364,N,12210.422979,W,12.4,1.4,26.3,20.9,2.4,,,,,,,06,0.4,18.6*33,1699400581568
NMEA,$PGLOR,6,PWR,mA,19.8,RFTm,675,OscTm,1000,MeasTm,1000,UTC,234301.00,GNSSmA,18.5,CPUTm,163,COPTm,59,COPMargTm,159,Sr*00,1699400581568
NMEA,$PGLOR,0,PPS,071123,234301.000,010170,042843.559,000.100,1,0,1,*10,1699400581568
NMEA,$PGLOR,2,AGC,G,44.2,R,62.5,B,18.5,E5A,27.8,E5B,,L2,*19,1699400581568
NMEA,$PSSGR,GSA,A,3,04,07,08,09,14,20,22,27,30,,,,1.4,0.8,1.1,1,1*42,1699400581568
NMEA,$PSSGR,GSA,A,3,08,09,14,27,30,,,,,,,,1.4,0.8,1.1,1,8*4A,1699400581568
NMEA,$PSSGR,GSA,A,3,,,,,,,,,,,,,1.4,0.8,1.1,1,9*49,1699400581568
NMEA,$PSSGR,GSA,A,3,65,66,67,76,77,85,,,,,,,1.4,0.8,1.1,2,1*4C,1699400581568
NMEA,$PSSGR,GSA,A,3,,,,,,,,,,,,,1.4,0.8,1.1,5,1*45,1699400581568
NMEA,$PSSGR,GSA,A,3,,,,,,,,,,,,,1.4,0.8,1.1,5,8*4C,1699400581569
NMEA,$PSSGR,GSA,A,3,,,,,,,,,,,,,1.4,0.8,1.1,5,9*4D,1699400581569
NMEA,$PSSGR,GSA,A,3,,,,,,,,,,,,,1.4,0.8,1.1,4,1*44,1699400581569
NMEA,$PSSGR,GSA,A,3,,,,,,,,,,,,,1.4,0.8,1.1,4,5*40,1699400581569
NMEA,$PSSGR,GSA,A,3,,,,,,,,,,,,,1.4,0.8,1.1,4,3*46,1699400581569
NMEA,$PSSGR,GSA,A,3,107,127,130,,,,,,,,,,1.4,0.8,1.1,3,7*75,1699400581569
NMEA,$PSSGR,GSA,A,3,107,127,,,,,,,,,,,1.4,0.8,1.1,3,1*41,1699400581569
NMEA,$PSSGR,GSA,A,3,,,,,,,,,,,,,1.4,0.8,1.1,6,1*46,1699400581569
NMEA,$GPGSV,5,1,16,07,68,001,38,09,54,145,33,30,51,301,29,14,39,224,43*73,1699400581569
NMEA,$GPGSV,5,2,16,08,38,088,44,20,23,280,39,04,21,137,31,22,20,221,41*7F,1699400581569
NMEA,$GPGSV,5,3,16,27,19,049,35,05,14,314,23*79,1699400581569
NMEA,$GPGSV,5,4,16,09,,,32,30,,,31,14,,,32,08,,,32,8*6F,1699400581569
NMEA,$GPGSV,5,5,16,04,,,22,27,,,34,8*6C,1699400581569
NMEA,$GLGSV,2,1,06,66,69,199,39,77,55,282,34,76,53,018,39,67,45,320,32*6F,1699400581569
NMEA,$GLGSV,2,2,06,65,18,166,29,85,10,052,24*6E,1699400581569
NMEA,$GAGSV,2,1,08,127,84,233,35,107,54,143,31,130,39,046,33,119,22,315,19*60,1699400581570
NMEA,$GAGSV,2,2,08,127,,,26,107,,,33,130,,,,119,,,,1*70,1699400581570
NMEA,$GPGSA,A,3,04,07,08,09,14,20,22,27,30,,,,1.4,0.8,1.1*3C,1699400581570
NMEA,$GPGSA,A,3,08,09,14,27,30,,,,,,,,1.4,0.8,1.1,8*29,1699400581570
NMEA,$GPGSA,A,3,,,,,,,,,,,,,1.4,0.8,1.1,9*2A,1699400581570
NMEA,$QZGSA,A,3,,,,,,,,,,,,,1.4,0.8,1.1*23,1699400581570
NMEA,$QZGSA,A,3,,,,,,,,,,,,,1.4,0.8,1.1,8*37,1699400581570
NMEA,$QZGSA,A,3,,,,,,,,,,,,,1.4,0.8,1.1,9*36,1699400581570
NMEA,$BDGSA,A,3,,,,,,,,,,,,,1.4,0.8,1.1*2E,1699400581570
NMEA,$BDGSA,A,3,,,,,,,,,,,,,1.4,0.8,1.1,5*37,1699400581570
NMEA,$BDGSA,A,3,,,,,,,,,,,,,1.4,0.8,1.1,3*31,1699400581570
NMEA,$GAGSA,A,3,107,127,130,,,,,,,,,,1.4,0.8,1.1*1E,1699400581570
NMEA,$GAGSA,A,3,107,127,,,,,,,,,,,1.4,0.8,1.1,1*31,1699400581570
NMEA,$NCGSA,A,3,,,,,,,,,,,,,1.4,0.8,1.1,1*38,1699400581570
NMEA,$GNGSA,A,3,04,07,08,09,14,20,22,27,30,,,,1.4,0.8,1.1*22,1699400581570
NMEA,$GNGSA,A,3,65,66,67,76,77,85,,,,,,,1.4,0.8,1.1*2F,1699400581570
NMEA,$PGLOR,1,FIX,1.0,1.0*20,1699400581570
NMEA,$GPRMC,234301.00,A,3725.590444,N,12210.422484,W,000.0,,071123,,,A*64,1699400581570
NMEA,$PGLOR,SPL,20231107154301.5,POS,20231107234301.000,37.426507,-122.173708,4,4,0,24,3,1.100000*4E,1699400581571
NMEA,$GPGGA,234302.00,3725.590478,N,12210.422477,W,1,24,0.4,52.1,M,-28.4,M,,*69,1699400582557
NMEA,$PGLOR,11,STA,234302.00,0.000,0.000,129,1,4,1,P,S,L,0,C,3,S,00100002,0,5,R,000833F4,TPEF,30,49090,LC,,,DR,3,,,,*60,1699400582564
NMEA,$PGLOR,1,UNC,234302.00,0.007,4.2,3.0,0.19,97.48,5.1,3.7,49.4*28,1699400582564
NMEA,$PGLOR,2,SAT,4,1,E27,31,7AF,R02,34,1F,G07,32,2F,R13,30,1F,G09,29,7AF,E07,26,7AF*77,1699400582564
NMEA,$PGLOR,2,SAT,4,2,R12,37,1F,G30,25,7AF,R03,26,1F,G14,38,7AF,E30,,2002F,G08,41,5AB*42,1699400582564
NMEA,$PGLOR,2,SAT,4,3,G20,34,2F,E19,,20023,G04,24,2002B,G22,36,2F,G27,32,7AF,R01,26,2F*1C,1699400582564
NMEA,$PGLOR,2,SAT,4,4,G05,13,20,R21,15,23*24,1699400582565
NMEA,$PGLOR,2,SVC,GPS,0,3,1,10,007,SKUS,SKUS,009,SKUS,SKUS,014,SKUS,SKUS,030,SKUS,SKUS*61,1699400582565
NMEA,$PGLOR,2,SVC,GPS,0,3,2,10,004,SKPR,SKUS,008,SKUS,SKUS,020,SKPR,SKUS,022,SKUS,SKUS*64,1699400582565
NMEA,$PGLOR,2,SVC,GPS,0,3,3,10,005,SKUS,SKUS,027,POGH,POGH*6B,1699400582565
NMEA,$PGLOR,2,SVC,GPS,2,2,1,06,008,SKUS,SKUS,009,SKUS,SKUS,014,SKUS,SKUS,030,SKPR,SKUS*6E,1699400582565
NMEA,$PGLOR,2,SVC,GPS,2,2,2,06,004,CLIN,CLIN,027,SKUS,SKUS*6F,1699400582565
NMEA,$PGLOR,2,SVC,GLO,0,2,1,06,055,SKUS,SKUS,057,SKUS,SKUS,058,SKUS,SKUS,064,SKUS,SKUS*62,1699400582565
NMEA,$PGLOR,2,SVC,GLO,0,2,2,06,060,SKUS,SKUS,063,SKUS,SKUS*6F,1699400582565
NMEA,$PGLOR,2,SVC,GAL,0,1,1,04,145,SKUS,SKUS,157,SKUS,SKUS,165,SKUS,SKUS,168,POGH,POGH*6E,1699400582565
NMEA,$PGLOR,2,SVC,GAL,2,1,1,04,145,SKUS,SKUS,157,SKUS,SKUS,165,CLIN,CLIN,168,CLIN,CLIN*6C,1699400582565
NMEA,$PGLOR,2,SIO,TxERR,0,RxERR,0,TxCNT,630,RxCNT,7331,MLFRMPKT,0,DTMS,997,DTIN,32,61,DTOUT,15,937,HATMD,31*2C,1699400582565
NMEA,$PGLOR,2,HLA,234302.00,L,,Al,,A,,H,,,M,0,Ac,0,Gr,0,S,,,Sx,,,T,0,Tr,,Mn,,Ap,,Ta,0,,,Aa,1,Ga,1,*1E,1699400582565
NMEA,$PGLOR,3,CTX,234302.00,E,1,1,,,V,0,0,S,,,*7C,1699400582565
NMEA,$PGLOR,1,LSQ,234302.00,3725.590435,N,12210.423188,W,11.8,1.4,25.4,19.9,2.4,,,,,,,06,0.3,18.3*37,1699400582565
NMEA,$PGLOR,6,PWR,mA,19.9,RFTm,680,OscTm,1000,MeasTm,1000,UTC,234302.00,GNSSmA,18.7,CPUTm,167,COPTm,56,COPMargTm,159,Sr*00,1699400582566
NMEA,$PGLOR,0,PPS,071123,234302.000,010170,042844.559,000.100,1,0,1,*14,1699400582566
NMEA,$PGLOR,2,AGC,G,44.7,R,64.1,B,18.5,E5A,30.4,E5B,,L2,*14,1699400582566
NMEA,$PSSGR,GSA,A,3,04,07,08,09,14,20,22,27,30,,,,1.6,0.8,1.3,1,1*42,1699400582566
NMEA,$PSSGR,GSA,A,3,08,09,14,27,30,,,,,,,,1.6,0.8,1.3,1,8*4A,1699400582566
NMEA,$PSSGR,GSA,A,3,,,,,,,,,,,,,1.6,0.8,1.3,1,9*49,1699400582566
NMEA,$PSSGR,GSA,A,3,65,66,67,76,77,,,,,,,,1.6,0.8,1.3,2,1*41,1699400582566
NMEA,$PSSGR,GSA,A,3,,,,,,,,,,,,,1.6,0.8,1.3,5,1*45,1699400582566
NMEA,$PSSGR,GSA,A,3,,,,,,,,,,,,,1.6,0.8,1.3,5,8*4C,1699400582566
NMEA,$PSSGR,GSA,A,3,,,,,,,,,,,,,1.6,0.8,1.3,5,9*4D,1699400582566
NMEA,$PSSGR,GSA,A,3,,,,,,,,,,,,,1.6,0.8,1.3,4,1*44,1699400582566
NMEA,$PSSGR,GSA,A,3,,,,,,,,,,,,,1.6,0.8,1.3,4,5*40,1699400582566
NMEA,$PSSGR,GSA,A,3,,,,,,,,,,,,,1.6,0.8,1.3,4,3*46,1699400582566
NMEA,$PSSGR,GSA,A,3,107,127,130,,,,,,,,,,1.6,0.8,1.3,3,7*75,1699400582566
NMEA,$PSSGR,GSA,A,3,107,127,,,,,,,,,,,1.6,0.8,1.3,3,1*41,1699400582566
NMEA,$PSSGR,GSA,A,3,,,,,,,,,,,,,1.6,0.8,1.3,6,1*46,1699400582566
NMEA,$GPGSV,5,1,16,07,68,001,38,09,54,145,33,30,51,301,29,14,39,224,43*73,1699400582567
NMEA,$GPGSV,5,2,16,08,38,088,44,20,23,280,39,04,21,137,30,22,20,221,41*7E,1699400582567
NMEA,$GPGSV,5,3,16,27,19,049,36,05,14,314,22*7B,1699400582567
NMEA,$GPGSV,5,4,16,09,,,32,30,,,32,14,,,31,08,,,32,8*6F,1699400582567
NMEA,$GPGSV,5,5,16,04,,,22,27,,,34,8*6C,1699400582567
NMEA,$GLGSV,2,1,06,66,69,199,39,77,55,282,34,76,53,018,40,67,45,320,32*61,1699400582567
NMEA,$GLGSV,2,2,06,65,18,166,29,85,10,052,24*6E,1699400582567
NMEA,$GAGSV,2,1,08,127,84,233,35,107,54,143,31,130,39,046,33,119,22,315,19*60,1699400582567
NMEA,$GAGSV,2,2,08,127,,,26,107,,,33,130,,,,119,,,,1*70,1699400582567
NMEA,$GPGSA,A,3,04,07,08,09,14,20,22,27,30,,,,1.6,0.8,1.3*3C,1699400582567
NMEA,$GPGSA,A,3,08,09,14,27,30,,,,,,,,1.6,0.8,1.3,8*29,1699400582567
NMEA,$GPGSA,A,3,,,,,,,,,,,,,1.6,0.8,1.3,9*2A,1699400582567
NMEA,$QZGSA,A,3,,,,,,,,,,,,,1.6,0.8,1.3*23,1699400582567
NMEA,$QZGSA,A,3,,,,,,,,,,,,,1.6,0.8,1.3,8*37,1699400582567
NMEA,$QZGSA,A,3,,,,,,,,,,,,,1.6,0.8,1.3,9*36,1699400582567
NMEA,$BDGSA,A,3,,,,,,,,,,,,,1.6,0.8,1.3*2E,1699400582567
NMEA,$BDGSA,A,3,,,,,,,,,,,,,1.6,0.8,1.3,5*37,1699400582568
NMEA,$BDGSA,A,3,,,,,,,,,,,,,1.6,0.8,1.3,3*31,1699400582568
NMEA,$GAGSA,A,3,107,127,130,,,,,,,,,,1.6,0.8,1.3*1E,1699400582568
NMEA,$GAGSA,A,3,107,127,,,,,,,,,,,1.6,0.8,1.3,1*31,1699400582568
NMEA,$NCGSA,A,3,,,,,,,,,,,,,1.6,0.8,1.3,1*38,1699400582568
NMEA,$GNGSA,A,3,04,07,08,09,14,20,22,27,30,,,,1.6,0.8,1.3*22,1699400582568
NMEA,$GNGSA,A,3,65,66,67,76,77,,,,,,,,1.6,0.8,1.3*22,1699400582568
NMEA,$PGLOR,1,FIX,1.0,1.0*20,1699400582568
NMEA,$GPRMC,234302.00,A,3725.590478,N,12210.422477,W,000.0,,071123,,,A*64,1699400582568
NMEA,$PGLOR,SPL,20231107154302.5,POS,20231107234302.000,37.426508,-122.173708,4,4,0,24,3,1.100000*41,1699400582569
NMEA,$GPGGA,234303.00,3725.590496,N,12210.422514,W,1,25,0.4,52.1,M,-28.4,M,,*6D,1699400583564
NMEA,$PGLOR,11,STA,234303.00,0.000,0.000,129,1,4,1,P,S,L,0,C,3,S,00100002,0,5,R,000833F4,TPEF,30,50090,LC,,,DR,3,,,,*69,1699400583564
NMEA,$PGLOR,1,UNC,234303.00,0.007,4.1,3.0,0.19,180.00,4.9,3.7,50.7*13,1699400583564
NMEA,$PGLOR,2,SAT,4,1,E27,30,7AF,R02,34,1F,G07,31,2F,R13,30,1F,G09,29,7AF,E07,27,7AF*74,1699400583565
NMEA,$PGLOR,2,SAT,4,2,R12,37,1F,G30,24,7AF,R03,25,1F,G14,38,7AF,E30,,2002F,G08,41,5AB*40,1699400583565
NMEA,$PGLOR,2,SAT,4,3,G20,34,2F,E19,,20023,G04,24,2002F,G22,35,2F,G27,33,7AF,R01,25,2F*19,1699400583565
NMEA,$PGLOR,2,SAT,4,4,G05,12,20,R21,16,2F*53,1699400583565
NMEA,$PGLOR,2,SVC,GPS,0,3,1,10,007,SKUS,SKUS,009,SKUS,SKUS,014,SKUS,SKUS,030,SKUS,SKUS*61,1699400583565
NMEA,$PGLOR,2,SVC,GPS,0,3,2,10,004,SKPR,SKUS,008,SKUS,SKUS,020,SKPR,SKUS,022,SKUS,SKUS*64,1699400583566
NMEA,$PGLOR,2,SVC,GPS,0,3,3,10,005,SKUS,SKUS,027,CLIN,CLIN*6B,1699400583566
NMEA,$PGLOR,2,SVC,GPS,2,2,1,06,008,SKUS,SKUS,009,SKUS,SKUS,014,SKUS,SKUS,030,SKPR,SKUS*6E,1699400583566
NMEA,$PGLOR,2,SVC,GPS,2,2,2,06,004,CLIN,CLIN,027,SKUS,SKUS*6F,1699400583566
NMEA,$PGLOR,2,SVC,GLO,0,2,1,06,055,SKUS,SKUS,057,SKUS,SKUS,058,SKUS,SKUS,064,SKUS,SKUS*62,1699400583566
NMEA,$PGLOR,2,SVC,GLO,0,2,2,06,060,SKUS,SKUS,063,POGH,POGH*6F,1699400583566
NMEA,$PGLOR,2,SVC,GAL,0,1,1,04,145,SKUS,SKUS,157,SKUS,SKUS,165,SKUS,SKUS,168,POGH,POGH*6E,1699400583566
NMEA,$PGLOR,2,SVC,GAL,2,1,1,04,145,SKUS,SKUS,157,SKUS,SKUS,165,CLIN,CLIN,168,CLIN,CLIN*6C,1699400583566
NMEA,$PGLOR,2,SIO,TxERR,0,RxERR,0,TxCNT,632,RxCNT,7338,MLFRMPKT,0,DTMS,1001,DTIN,32,53,DTOUT,12,948,HATMD,32*1D,1699400583566
NMEA,$PGLOR,2,HLA,234303.00,L,,Al,,A,,H,,,M,0,Ac,0,Gr,0,S,,,Sx,,,T,0,Tr,,Mn,,Ap,,Ta,0,,,Aa,1,Ga,1,*1F,1699400583566
NMEA,$PGLOR,3,CTX,234303.00,E,1,1,,,V,0,0,S,,,*7D,1699400583566
NMEA,$PGLOR,1,LSQ,234303.00,3725.590410,N,12210.423431,W,12.4,1.4,24.3,20.9,2.4,,,,,,,06,0.3,17.7*3E,1699400583566
NMEA,$PGLOR,6,PWR,mA,19.9,RFTm,679,OscTm,1000,MeasTm,1000,UTC,234303.00,GNSSmA,18.6,CPUTm,165,COPTm,61,COPMargTm,159,Sr*00,1699400583566
NMEA,$PGLOR,0,PPS,071123,234303.000,010170,042845.559,000.100,1,0,1,*14,1699400583570
NMEA,$PGLOR,2,AGC,G,44.4,R,63.8,B,18.5,E5A,29.0,E5B,,L2,*15,1699400583570
NMEA,$PSSGR,GSA,A,3,04,07,08,09,14,20,22,27,30,,,,1.5,0.8,1.3,1,1*41,1699400583570
NMEA,$PSSGR,GSA,A,3,08,09,14,27,30,,,,,,,,1.5,0.8,1.3,1,8*49,1699400583570
NMEA,$PSSGR,GSA,A,3,,,,,,,,,,,,,1.5,0.8,1.3,1,9*4A,1699400583571
NMEA,$PSSGR,GSA,A,3,65,66,67,76,77,85,,,,,,,1.5,0.8,1.3,2,1*4F,1699400583571
NMEA,$PSSGR,GSA,A,3,,,,,,,,,,,,,1.5,0.8,1.3,5,1*46,1699400583571
NMEA,$PSSGR,GSA,A,3,,,,,,,,,,,,,1.5,0.8,1.3,5,8*4F,1699400583571
NMEA,$PSSGR,GSA,A,3,,,,,,,,,,,,,1.5,0.8,1.3,5,9*4E,1699400583571
NMEA,$PSSGR,GSA,A,3,,,,,,,,,,,,,1.5,0.8,1.3,4,1*47,1699400583571
NMEA,$PSSGR,GSA,A,3,,,,,,,,,,,,,1.5,0.8,1.3,4,5*43,1699400583571
NMEA,$PSSGR,GSA,A,3,,,,,,,,,,,,,1.5,0.8,1.3,4,3*45,1699400583571
NMEA,$PSSGR,GSA,A,3,107,127,130,,,,,,,,,,1.5,0.8,1.3,3,7*76,1699400583571
NMEA,$PSSGR,GSA,A,3,107,127,,,,,,,,,,,1.5,0.8,1.3,3,1*42,1699400583571
NMEA,$PSSGR,GSA,A,3,,,,,,,,,,,,,1.5,0.8,1.3,6,1*45,1699400583571
NMEA,$GPGSV,5,1,16,07,68,002,38,09,54,145,33,30,51,301,29,14,39,224,43*70,1699400583572
NMEA,$GPGSV,5,2,16,08,38,088,44,20,23,280,39,04,21,137,30,22,20,221,41*7E,1699400583572
NMEA,$GPGSV,5,3,16,27,19,049,36,05,14,314,21*78,1699400583572
NMEA,$GPGSV,5,4,16,09,,,32,30,,,34,14,,,31,08,,,32,8*69,1699400583572
NMEA,$GPGSV,5,5,16,04,,,22,27,,,35,8*6D,1699400583572
NMEA,$GLGSV,2,1,06,66,69,199,39,77,55,282,34,76,53,018,40,67,45,320,32*61,1699400583572
NMEA,$GLGSV,2,2,06,65,18,166,29,85,10,052,23*69,1699400583572
NMEA,$GAGSV,2,1,08,127,84,233,35,107,54,143,31,130,39,046,34,119,22,315,18*66,1699400583572
NMEA,$GAGSV,2,2,08,127,,,26,107,,,33,130,,,,119,,,,1*70,1699400583572
NMEA,$GPGSA,A,3,04,07,08,09,14,20,22,27,30,,,,1.5,0.8,1.3*3F,1699400583572
NMEA,$GPGSA,A,3,08,09,14,27,30,,,,,,,,1.5,0.8,1.3,8*2A,1699400583572
NMEA,$GPGSA,A,3,,,,,,,,,,,,,1.5,0.8,1.3,9*29,1699400583572
NMEA,$QZGSA,A,3,,,,,,,,,,,,,1.5,0.8,1.3*20,1699400583572
NMEA,$QZGSA,A,3,,,,,,,,,,,,,1.5,0.8,1.3,8*34,1699400583572
NMEA,$QZGSA,A,3,,,,,,,,,,,,,1.5,0.8,1.3,9*35,1699400583572
NMEA,$BDGSA,A,3,,,,,,,,,,,,,1.5,0.8,1.3*2D,1699400583572
NMEA,$BDGSA,A,3,,,,,,,,,,,,,1.5,0.8,1.3,5*34,1699400583572
NMEA,$BDGSA,A,3,,,,,,,,,,,,,1.5,0.8,1.3,3*32,1699400583572
NMEA,$GAGSA,A,3,107,127,130,,,,,,,,,,1.5,0.8,1.3*1D,1699400583572
NMEA,$GAGSA,A,3,107,127,,,,,,,,,,,1.5,0.8,1.3,1*32,1699400583572
NMEA,$NCGSA,A,3,,,,,,,,,,,,,1.5,0.8,1.3,1*3B,1699400583572
NMEA,$GNGSA,A,3,04,07,08,09,14,20,22,27,30,,,,1.5,0.8,1.3*21,1699400583572
NMEA,$GNGSA,A,3,65,66,67,76,77,85,,,,,,,1.5,0.8,1.3*2C,1699400583572
NMEA,$PGLOR,1,FIX,1.0,1.0*20,1699400583572
NMEA,$GPRMC,234303.00,A,3725.590496,N,12210.422514,W,000.0,,071123,,,A*61,1699400583572
NMEA,$PGLOR,SPL,20231107154303.5,POS,20231107234303.000,37.426508,-122.173709,4,4,0,24,3,1.100000*40,1699400583575
NMEA,$GPGGA,234304.00,3725.590499,N,12210.422517,W,1,25,0.4,52.1,M,-28.4,M,,*66,1699400584580
NMEA,$PGLOR,11,STA,234304.00,0.000,0.000,129,1,4,1,P,S,L,0,C,3,S,00100002,0,5,R,000833F4,TPEF,30,51090,LC,,,DR,3,,,,*6F,1699400584580
NMEA,$PGLOR,1,UNC,234304.00,0.007,4.1,3.0,0.20,180.00,4.8,3.9,50.9*1F,1699400584581
NMEA,$PGLOR,2,SAT,4,1,E27,30,7AF,R02,33,1F,G07,30,2F,R13,30,1F,G09,29,7AF,E07,29,7AF*7C,1699400584581
NMEA,$PGLOR,2,SAT,4,2,R12,36,1F,G30,25,7AF,R03,25,1F,G14,39,7AF,E30,,2002F,G08,40,5AB*40,1699400584581
NMEA,$PGLOR,2,SAT,4,3,G20,35,2F,E19,,20023,G04,24,2002F,G22,36,2F,G27,32,7AF,R01,24,2F*1B,1699400584581
NMEA,$PGLOR,2,SAT,4,4,G05,12,20,R21,16,2F*53,1699400584581
NMEA,$PGLOR,2,SVC,GPS,0,3,1,10,007,SKUS,SKUS,009,SKUS,SKUS,014,SKUS,SKUS,030,SKUS,SKUS*61,1699400584581
NMEA,$PGLOR,2,SVC,GPS,0,3,2,10,004,SKPR,SKUS,008,SKUS,SKUS,020,SKUS,SKUS,022,SKUS,SKUS*60,1699400584581
NMEA,$PGLOR,2,SVC,GPS,0,3,3,10,005,SKUS,SKUS,027,CLIN,CLIN*6B,1699400584581
NMEA,$PGLOR,2,SVC,GPS,2,2,1,06,008,SKUS,SKUS,009,SKUS,SKUS,014,SKUS,SKUS,030,SKPR,SKUS*6E,1699400584581
NMEA,$PGLOR,2,SVC,GPS,2,2,2,06,004,CLIN,CLIN,027,SKUS,SKUS*6F,1699400584581
NMEA,$PGLOR,2,SVC,GLO,0,2,1,06,055,SKUS,SKUS,057,SKUS,SKUS,058,SKUS,SKUS,064,SKUS,SKUS*62,1699400584581
NMEA,$PGLOR,2,SVC,GLO,0,2,2,06,060,SKUS,SKUS,063,SKUS,SKUS*6F,1699400584581
NMEA,$PGLOR,2,SVC,GAL,0,1,1,04,145,SKUS,SKUS,157,SKUS,SKUS,165,SKUS,SKUS,168,POGH,POGH*6E,1699400584582
NMEA,$PGLOR,2,SVC,GAL,2,1,1,04,145,SKUS,SKUS,157,SKUS,SKUS,165,CLIN,CLIN,168,CLIN,CLIN*6C,1699400584582
NMEA,$PGLOR,2,SIO,TxERR,0,RxERR,0,TxCNT,632,RxCNT,7343,MLFRMPKT,0,DTMS,1000,DTIN,40,62,DTOUT,17,937,HATMD,32*1A,1699400584582
NMEA,$PGLOR,2,HLA,234304.00,L,,Al,,A,,H,,,M,1,Ac,0,Gr,0,S,,,Sx,,,T,1,Tr,,Mn,,Ap,,Ta,0,,,Aa,1,Ga,1,*18,1699400584582
NMEA,$PGLOR,3,CTX,234304.00,E,1,1,,,V,0,0,S,,,*7A,1699400584582
NMEA,$PGLOR,1,LSQ,234304.00,3725.590305,N,12210.423464,W,8.4,1.4,23.3,14.1,2.4,,,,,,,06,0.3,17.6*08,1699400584582
NMEA,$PGLOR,6,PWR,mA,19.7,RFTm,674,OscTm,1000,MeasTm,1000,UTC,234304.00,GNSSmA,18.5,CPUTm,159,COPTm,57,COPMargTm,159,Sr*00,1699400584582
NMEA,$PGLOR,0,PPS,071123,234304.000,010170,042846.559,000.100,1,0,1,*10,1699400584582
NMEA,$PGLOR,2,AGC,G,45.2,R,64.5,B,18.5,E5A,30.4,E5B,,L2,*14,1699400584582
NMEA,$PSSGR,GSA,A,3,04,07,08,09,14,20,22,27,30,,,,1.5,0.8,1.3,1,1*41,1699400584582
NMEA,$PSSGR,GSA,A,3,08,09,14,27,30,,,,,,,,1.5,0.8,1.3,1,8*49,1699400584582
NMEA,$PSSGR,GSA,A,3,,,,,,,,,,,,,1.5,0.8,1.3,1,9*4A,1699400584582
NMEA,$PSSGR,GSA,A,3,65,66,67,76,77,85,,,,,,,1.5,0.8,1.3,2,1*4F,1699400584583
NMEA,$PSSGR,GSA,A,3,,,,,,,,,,,,,1.5,0.8,1.3,5,1*46,1699400584583
NMEA,$PSSGR,GSA,A,3,,,,,,,,,,,,,1.5,0.8,1.3,5,8*4F,1699400584583
NMEA,$PSSGR,GSA,A,3,,,,,,,,,,,,,1.5,0.8,1.3,5,9*4E,1699400584583
NMEA,$PSSGR,GSA,A,3,,,,,,,,,,,,,1.5,0.8,1.3,4,1*47,1699400584583
NMEA,$PSSGR,GSA,A,3,,,,,,,,,,,,,1.5,0.8,1.3,4,5*43,1699400584583
NMEA,$PSSGR,GSA,A,3,,,,,,,,,,,,,1.5,0.8,1.3,4,3*45,1699400584583
NMEA,$PSSGR,GSA,A,3,107,127,130,,,,,,,,,,1.5,0.8,1.3,3,7*76,1699400584583
NMEA,$PSSGR,GSA,A,3,107,127,,,,,,,,,,,1.5,0.8,1.3,3,1*42,1699400584583
NMEA,$PSSGR,GSA,A,3,,,,,,,,,,,,,1.5,0.8,1.3,6,1*45,1699400584583
NMEA,$GPGSV,5,1,16,07,68,002,37,09,54,145,33,30,51,301,29,14,39,225,43*7E,1699400584584
NMEA,$GPGSV,5,2,16,08,38,088,44,20,23,280,39,04,21,137,30,22,20,221,41*7E,1699400584584
NMEA,$GPGSV,5,3,16,27,19,048,36,05,14,314,21*79,1699400584584
NMEA,$GPGSV,5,4,16,09,,,34,30,,,34,14,,,32,08,,,34,8*6A,1699400584584
NMEA,$GPGSV,5,5,16,04,,,22,27,,,34,8*6C,1699400584584
NMEA,$GLGSV,2,1,06,66,69,199,38,77,55,282,34,76,53,018,40,67,45,320,31*63,1699400584584
NMEA,$GLGSV,2,2,06,65,18,166,29,85,10,052,23*69,1699400584584
NMEA,$GAGSV,2,1,08,127,84,233,35,107,54,143,32,130,39,046,34,119,22,315,18*65,1699400584584
NMEA,$GAGSV,2,2,08,127,,,30,107,,,34,130,,,,119,,,,1*70,1699400584584
NMEA,$GPGSA,A,3,04,07,08,09,14,20,22,27,30,,,,1.5,0.8,1.3*3F,1699400584585
NMEA,$GPGSA,A,3,08,09,14,27,30,,,,,,,,1.5,0.8,1.3,8*2A,1699400584585
NMEA,$GPGSA,A,3,,,,,,,,,,,,,1.5,0.8,1.3,9*29,1699400584585
NMEA,$QZGSA,A,3,,,,,,,,,,,,,1.5,0.8,1.3*20,1699400584585
NMEA,$QZGSA,A,3,,,,,,,,,,,,,1.5,0.8,1.3,8*34,1699400584585
NMEA,$QZGSA,A,3,,,,,,,,,,,,,1.5,0.8,1.3,9*35,1699400584585
NMEA,$BDGSA,A,3,,,,,,,,,,,,,1.5,0.8,1.3*2D,1699400584585
NMEA,$BDGSA,A,3,,,,,,,,,,,,,1.5,0.8,1.3,5*34,1699400584585
NMEA,$BDGSA,A,3,,,,,,,,,,,,,1.5,0.8,1.3,3*32,1699400584585
NMEA,$GAGSA,A,3,107,127,130,,,,,,,,,,1.5,0.8,1.3*1D,1699400584586
NMEA,$GAGSA,A,3,107,127,,,,,,,,,,,1.5,0.8,1.3,1*32,1699400584587
NMEA,$NCGSA,A,3,,,,,,,,,,,,,1.5,0.8,1.3,1*3B,1699400584587
NMEA,$GNGSA,A,3,04,07,08,09,14,20,22,27,30,,,,1.5,0.8,1.3*21,1699400584587
NMEA,$GNGSA,A,3,65,66,67,76,77,85,,,,,,,1.5,0.8,1.3*2C,1699400584587
NMEA,$PGLOR,1,FIX,1.0,1.0*20,1699400584587
NMEA,$GPRMC,234304.00,A,3725.590499,N,12210.422517,W,000.0,,071123,,,A*6A,1699400584587
NMEA,$PGLOR,SPL,20231107154304.5,POS,20231107234304.000,37.426508,-122.173709,4,4,0,24,3,1.100000*40,1699400584588
NMEA,$GPGGA,234305.00,3725.590500,N,12210.422516,W,1,24,0.4,52.1,M,-28.4,M,,*66,1699400585568
NMEA,$PGLOR,11,STA,234305.00,0.000,0.000,129,1,4,1,P,S,L,0,C,3,S,00100002,0,5,R,000833F4,TPEF,30,52090,LC,,,DR,3,,,,*6D,1699400585568
NMEA,$PGLOR,1,UNC,234305.00,0.007,4.2,3.0,0.20,100.07,4.9,4.1,52.6*11,1699400585568
NMEA,$PGLOR,2,SAT,4,1,E27,29,7AF,R02,33,1F,G07,30,2F,R13,30,1F,G09,28,7AF,E07,29,7AF*75,1699400585568
NMEA,$PGLOR,2,SAT,4,2,R12,36,1F,G30,25,7AF,R03,26,1F,G14,38,7AF,E30,,2002F,G08,39,5AB*4C,1699400585568
NMEA,$PGLOR,2,SAT,4,3,G20,34,2F,E19,,20023,G22,35,2F,G04,23,2002B,G27,32,7AF,R01,24,2F*1A,1699400585568
NMEA,$PGLOR,2,SAT,4,4,G05,12,21,R21,15,23*24,1699400585568
NMEA,$PGLOR,2,SVC,GPS,0,3,1,10,007,SKUS,SKUS,009,SKUS,SKUS,014,SKUS,SKUS,030,SKUS,SKUS*61,1699400585568
NMEA,$PGLOR,2,SVC,GPS,0,3,2,10,004,SKPR,SKUS,008,SKUS,SKUS,020,SKUS,SKUS,022,SKUS,SKUS*60,1699400585568
NMEA,$PGLOR,2,SVC,GPS,0,3,3,10,005,SKUS,SKUS,027,CLIN,CLIN*6B,1699400585568
NMEA,$PGLOR,2,SVC,GPS,2,2,1,06,008,SKUS,SKUS,009,SKUS,SKUS,014,SKUS,SKUS,030,SKPR,SKUS*6E,1699400585569
NMEA,$PGLOR,2,SVC,GPS,2,2,2,06,004,CLIN,CLIN,027,SKUS,SKUS*6F,1699400585569
NMEA,$PGLOR,2,SVC,GLO,0,2,1,06,055,SKUS,SKUS,057,SKUS,SKUS,058,SKUS,SKUS,064,SKUS,SKUS*62,1699400585569
NMEA,$PGLOR,2,SVC,GLO,0,2,2,06,060,SKUS,SKUS,063,SKUS,SKUS*6F,1699400585569
NMEA,$PGLOR,2,SVC,GAL,0,1,1,04,145,SKUS,SKUS,157,SKUS,SKUS,165,SKUS,SKUS,168,POGH,POGH*6E,1699400585569
NMEA,$PGLOR,2,SVC,GAL,2,1,1,04,145,SKUS,SKUS,157,SKUS,SKUS,165,CLIN,CLIN,168,CLIN,CLIN*6C,1699400585569
NMEA,$PGLOR,2,SIO,TxERR,0,RxERR,0,TxCNT,636,RxCNT,7351,MLFRMPKT,0,DTMS,1000,DTIN,52,87,DTOUT,15,913,HATMD,32*11,1699400585569
NMEA,$PGLOR,2,HLA,234305.00,L,,Al,,A,,H,,,M,1,Ac,0,Gr,0,S,,,Sx,,,T,1,Tr,,Mn,,Ap,,Ta,0,,,Aa,1,Ga,1,*19,1699400585569
NMEA,$PGLOR,3,CTX,234305.00,E,1,1,,,V,0,0,S,,,*7B,1699400585569
NMEA,$PGLOR,1,LSQ,234305.00,3725.590382,N,12210.423252,W,9.0,1.4,23.0,15.2,2.4,,,,,,,06,0.3,17.5*02,1699400585569
NMEA,$PGLOR,6,PWR,mA,19.8,RFTm,675,OscTm,1000,MeasTm,1000,UTC,234305.00,GNSSmA,18.5,CPUTm,162,COPTm,58,COPMargTm,159,Sr*00,1699400585569
NMEA,$PGLOR,0,PPS,071123,234305.000,010170,042847.559,000.100,1,0,1,*10,1699400585569
NMEA,$PGLOR,2,AGC,G,46.5,R,62.3,B,18.5,E5A,27.1,E5B,,L2,*13,1699400585569
NMEA,$PSSGR,GSA,A,3,04,07,08,09,14,20,22,27,30,,,,1.6,0.8,1.3,1,1*42,1699400585569
NMEA,$PSSGR,GSA,A,3,08,09,14,27,30,,,,,,,,1.6,0.8,1.3,1,8*4A,1699400585569
NMEA,$PSSGR,GSA,A,3,,,,,,,,,,,,,1.6,0.8,1.3,1,9*49,1699400585569
NMEA,$PSSGR,GSA,A,3,65,66,67,76,77,,,,,,,,1.6,0.8,1.3,2,1*41,1699400585569
NMEA,$PSSGR,GSA,A,3,,,,,,,,,,,,,1.6,0.8,1.3,5,1*45,1699400585569
NMEA,$PSSGR,GSA,A,3,,,,,,,,,,,,,1.6,0.8,1.3,5,8*4C,1699400585569
NMEA,$PSSGR,GSA,A,3,,,,,,,,,,,,,1.6,0.8,1.3,5,9*4D,1699400585569
NMEA,$PSSGR,GSA,A,3,,,,,,,,,,,,,1.6,0.8,1.3,4,1*44,1699400585570
NMEA,$PSSGR,GSA,A,3,,,,,,,,,,,,,1.6,0.8,1.3,4,5*40,1699400585570
NMEA,$PSSGR,GSA,A,3,,,,,,,,,,,,,1.6,0.8,1.3,4,3*46,1699400585570
NMEA,$PSSGR,GSA,A,3,107,127,130,,,,,,,,,,1.6,0.8,1.3,3,7*75,1699400585570
NMEA,$PSSGR,GSA,A,3,107,127,,,,,,,,,,,1.6,0.8,1.3,3,1*41,1699400585570
NMEA,$PSSGR,GSA,A,3,,,,,,,,,,,,,1.6,0.8,1.3,6,1*46,1699400585570
NMEA,$GPGSV,5,1,16,07,68,002,37,09,54,145,33,30,51,301,29,14,39,225,43*7E,1699400585570
NMEA,$GPGSV,5,2,16,08,38,088,44,20,23,280,39,22,21,221,41,04,21,137,30*7F,1699400585570
NMEA,$GPGSV,5,3,16,27,19,048,36,05,14,314,20*78,1699400585570
NMEA,$GPGSV,5,4,16,09,,,34,30,,,33,14,,,33,08,,,37,8*6F,1699400585570
NMEA,$GPGSV,5,5,16,04,,,,27,,,34,8*6C,1699400585570
NMEA,$GLGSV,2,1,06,66,69,199,38,77,55,282,34,76,53,018,40,67,45,320,31*63,1699400585570
NMEA,$GLGSV,2,2,06,65,18,166,29,85,10,052,22*68,1699400585570
NMEA,$GAGSV,2,1,08,127,84,234,34,107,54,143,32,130,39,046,33,119,22,315,18*64,1699400585570
NMEA,$GAGSV,2,2,08,127,,,31,107,,,35,130,,,,119,,,,1*70,1699400585570
NMEA,$GPGSA,A,3,04,07,08,09,14,20,22,27,30,,,,1.6,0.8,1.3*3C,1699400585570
NMEA,$GPGSA,A,3,08,09,14,27,30,,,,,,,,1.6,0.8,1.3,8*29,1699400585570
NMEA,$GPGSA,A,3,,,,,,,,,,,,,1.6,0.8,1.3,9*2A,1699400585570
NMEA,$QZGSA,A,3,,,,,,,,,,,,,1.6,0.8,1.3*23,1699400585570
NMEA,$QZGSA,A,3,,,,,,,,,,,,,1.6,0.8,1.3,8*37,1699400585570
NMEA,$QZGSA,A,3,,,,,,,,,,,,,1.6,0.8,1.3,9*36,1699400585570
NMEA,$BDGSA,A,3,,,,,,,,,,,,,1.6,0.8,1.3*2E,1699400585570
NMEA,$BDGSA,A,3,,,,,,,,,,,,,1.6,0.8,1.3,5*37,1699400585571
NMEA,$BDGSA,A,3,,,,,,,,,,,,,1.6,0.8,1.3,3*31,1699400585571
NMEA,$GAGSA,A,3,107,127,130,,,,,,,,,,1.6,0.8,1.3*1E,1699400585571
NMEA,$GAGSA,A,3,107,127,,,,,,,,,,,1.6,0.8,1.3,1*31,1699400585571
NMEA,$NCGSA,A,3,,,,,,,,,,,,,1.6,0.8,1.3,1*38,1699400585571
NMEA,$GNGSA,A,3,04,07,08,09,14,20,22,27,30,,,,1.6,0.8,1.3*22,1699400585571
NMEA,$GNGSA,A,3,65,66,67,76,77,,,,,,,,1.6,0.8,1.3*22,1699400585571
NMEA,$PGLOR,1,FIX,1.0,1.0*20,1699400585571
NMEA,$GPRMC,234305.00,A,3725.590500,N,12210.422516,W,000.0,,071123,,,A*6B,1699400585571
NMEA,$PGLOR,SPL,20231107154305.5,POS,20231107234305.000,37.426508,-122.173709,4,4,0,24,3,1.100000*40,1699400585571
NMEA,$GPGGA,234306.00,3725.590503,N,12210.422518,W,1,25,0.4,52.1,M,-28.4,M,,*69,1699400586563
NMEA,$PGLOR,11,STA,234306.00,0.000,0.000,129,1,4,1,P,S,L,0,C,3,S,00100002,0,5,R,000833F4,TPeF,36,53090,LC,,,DR,3,,,,*49,1699400586563
NMEA,$PGLOR,1,UNC,234306.00,0.007,4.1,3.0,0.21,180.00,4.6,4.0,56.1*12,1699400586563
NMEA,$PGLOR,2,SAT,9,1,E27,29,7AF,R02,33,1F,G07,28,2F,R13,29,1F,E07,28,7AF,G09,29,7AF*79,1699400586564
NMEA,$PGLOR,2,SAT,9,2,R12,34,1F,G30,27,7AF,R03,25,1F,G14,38,7AF,E30,,2002F,G08,39,5AB*42,1699400586564
NMEA,$PGLOR,2,SAT,9,3,G20,34,2F,E19,,20023,G22,36,2F,G04,25,2002F,G27,31,7AF,R01,25,2F*14,1699400586564
NMEA,$PGLOR,2,SAT,9,4,G05,13,21,R21,19,2F,R14,,20,R22,,20,R11,,20,Q04,,20*53,1699400586564
NMEA,$PGLOR,2,SAT,9,5,E08,,20,G13,,20,E18,,00,G21,,20,G23,,20,G19,,20*35,1699400586564
NMEA,$PGLOR,2,SAT,9,6,G24,,20,G25,,20,G18,,20,R20,,20,G17,,20,G16,,20*23,1699400586564
NMEA,$PGLOR,2,SAT,9,7,R19,,20,R04,,20,G15,,20,Q02,,20,Q01,,00,G26,,20*31,1699400586564
NMEA,$PGLOR,2,SAT,9,8,Q03,,20,E02,,20,Q07,,20,E04,,20,E03,,20,G29,,20*3B,1699400586564
NMEA,$PGLOR,2,SAT,9,9,G28,,20,E10,,20*3B,1699400586564
NMEA,$PGLOR,2,SVC,GPS,0,6,1,23,007,SKUS,SKUS,009,SKUS,SKUS,014,SKUS,SKUS,030,SKUS,SKUS*64,1699400586565
NMEA,$PGLOR,2,SVC,GPS,0,6,2,23,004,SKPR,SKUS,008,SKUS,SKUS,020,SKUS,SKUS,022,SKPR,SKUS*61,1699400586565
NMEA,$PGLOR,2,SVC,GPS,0,6,3,23,005,SKUS,SKUS,013,POGH,POGH,021,CLIN,CLIN,027,CLIN,CLIN*6F,1699400586565
NMEA,$PGLOR,2,SVC,GPS,0,6,4,23,019,CLIN,CLIN,023,CLIN,CLIN,024,CLIN,CLIN,025,CLIN,CLIN*61,1699400586565
NMEA,$PGLOR,2,SVC,GPS,0,6,5,23,015,CLIN,CLIN,016,CLIN,CLIN,017,CLIN,CLIN,018,CLIN,CLIN*64,1699400586565
NMEA,$PGLOR,2,SVC,GPS,0,6,6,23,026,CLIN,CLIN,028,CLIN,CLIN,029,CLIN,CLIN*72,1699400586565
NMEA,$PGLOR,2,SVC,GPS,2,2,1,06,008,SKUS,SKUS,009,SKUS,SKUS,014,SKUS,SKUS,030,SKPR,SKUS*6E,1699400586565
NMEA,$PGLOR,2,SVC,GPS,2,2,2,06,004,CLIN,CLIN,027,SKUS,SKUS*6F,1699400586565
NMEA,$PGLOR,2,SVC,GLO,0,3,1,12,055,SKUS,SKUS,057,SKUS,SKUS,058,SKUS,SKUS,064,SKUS,SKUS*66,1699400586565
NMEA,$PGLOR,2,SVC,GLO,0,3,2,12,052,SKUS,SKUS,056,POGH,POGH,060,CLIN,CLIN,063,CLIN,CLIN*6F,1699400586565
NMEA,$PGLOR,2,SVC,GLO,0,3,3,12,059,CLIN,CLIN,061,CLIN,CLIN,062,CLIN,CLIN,065,CLIN,CLIN*65,1699400586565
NMEA,$PGLOR,2,SVC,QZS,0,2,1,05,066,CLIN,CLIN,067,CLIN,CLIN,068,CLIN,CLIN,069,CLIN,CLIN*70,1699400586565
NMEA,$PGLOR,2,SVC,QZS,0,2,2,05,072,CLIN,CLIN*6A,1699400586565
NMEA,$PGLOR,2,SVC,GAL,0,3,1,10,145,SKUS,SKUS,157,SKUS,SKUS,165,SKUS,SKUS,168,POGH,POGH*69,1699400586565
NMEA,$PGLOR,2,SVC,GAL,0,3,2,10,140,CLIN,CLIN,142,CLIN,CLIN,146,CLIN,CLIN,156,CLIN,CLIN*67,1699400586565
NMEA,$PGLOR,2,SVC,GAL,0,3,3,10,141,CLIN,CLIN,148,CLIN,CLIN*6C,1699400586565
NMEA,$PGLOR,2,SVC,GAL,2,1,1,04,145,SKUS,SKUS,157,SKUS,SKUS,165,CLIN,CLIN,168,CLIN,CLIN*6C,1699400586565
NMEA,$PGLOR,2,SIO,TxERR,0,RxERR,0,TxCNT,718,RxCNT,7686,MLFRMPKT,0,DTMS,1003,DTIN,34,51,DTOUT,19,951,HATMD,35*16,1699400586566
NMEA,$PGLOR,2,HLA,234306.00,L,,Al,,A,,H,,,M,1,Ac,0,Gr,0,S,,,Sx,,,T,1,Tr,,Mn,,Ap,,Ta,0,,,Aa,1,Ga,1,*1A,1699400586566
NMEA,$PGLOR,3,CTX,234306.00,E,1,1,,,V,0,0,S,,,*78,1699400586566
NMEA,$PGLOR,1,LSQ,234306.00,3725.590462,N,12210.423229,W,9.3,1.4,23.1,15.7,2.4,,,,,,,06,0.2,18.9*01,1699400586566
NMEA,$PGLOR,6,PWR,mA,19.7,RFTm,674,OscTm,1000,MeasTm,1000,UTC,234306.00,GNSSmA,18.5,CPUTm,161,COPTm,60,COPMargTm,159,Sr*00,1699400586566
NMEA,$PGLOR,0,PPS,071123,234306.000,010170,042848.559,000.100,1,0,1,*1C,1699400586566
NMEA,$PGLOR,2,AGC,G,45.3,R,64.3,B,18.5,E5A,30.8,E5B,,L2,*1F,1699400586566
NMEA,$PSSGR,GSA,A,3,04,07,08,09,14,20,22,27,30,,,,1.5,0.8,1.3,1,1*41,1699400586566
NMEA,$PSSGR,GSA,A,3,08,09,14,27,30,,,,,,,,1.5,0.8,1.3,1,8*49,1699400586566
NMEA,$PSSGR,GSA,A,3,,,,,,,,,,,,,1.5,0.8,1.3,1,9*4A,1699400586566
NMEA,$PSSGR,GSA,A,3,65,66,67,76,77,85,,,,,,,1.5,0.8,1.3,2,1*4F,1699400586566
NMEA,$PSSGR,GSA,A,3,,,,,,,,,,,,,1.5,0.8,1.3,5,1*46,1699400586566
NMEA,$PSSGR,GSA,A,3,,,,,,,,,,,,,1.5,0.8,1.3,5,8*4F,1699400586566
NMEA,$PSSGR,GSA,A,3,,,,,,,,,,,,,1.5,0.8,1.3,5,9*4E,1699400586566
NMEA,$PSSGR,GSA,A,3,,,,,,,,,,,,,1.5,0.8,1.3,4,1*47,1699400586567
NMEA,$PSSGR,GSA,A,3,,,,,,,,,,,,,1.5,0.8,1.3,4,5*43,1699400586567
NMEA,$PSSGR,GSA,A,3,,,,,,,,,,,,,1.5,0.8,1.3,4,3*45,1699400586567
NMEA,$PSSGR,GSA,A,3,107,127,130,,,,,,,,,,1.5,0.8,1.3,3,7*76,1699400586567
NMEA,$PSSGR,GSA,A,3,107,127,,,,,,,,,,,1.5,0.8,1.3,3,1*42,1699400586567
NMEA,$PSSGR,GSA,A,3,,,,,,,,,,,,,1.5,0.8,1.3,6,1*45,1699400586567
NMEA,$GPGSV,8,1,29,07,68,002,36,09,54,145,33,30,51,301,31,14,39,225,42*76,1699400586567
NMEA,$GPGSV,8,2,29,08,38,088,44,20,23,280,38,22,21,221,40,04,21,137,29*76,1699400586567
NMEA,$GPGSV,8,3,29,27,19,048,36,05,14,314,20,13,01,313,,21,,,*48,1699400586567
NMEA,$GPGSV,8,4,29,23,,,,19,,,,24,,,,25,,,*76,1699400586567
NMEA,$GPGSV,8,5,29,18,,,,17,,,,16,,,,15,,,*73,1699400586567
NMEA,$GPGSV,8,6,29,26,,,,29,,,,28,,,*79,1699400586567
NMEA,$GPGSV,8,7,29,09,,,34,30,,,33,14,,,33,08,,,38,8*62,1699400586567
NMEA,$GPGSV,8,8,29,04,,,20,27,,,33,8*65,1699400586567
NMEA,$GLGSV,3,1,12,66,69,199,38,77,55,282,34,76,53,018,40,67,45,320,31*67,1699400586567
NMEA,$GLGSV,3,2,12,65,18,166,29,85,10,052,23,78,06,245,,86,05,096,*63,1699400586567
NMEA,$GLGSV,3,3,12,75,04,051,,84,,,,83,,,,68,,,*5D,1699400586568
NMEA,$QZGSV,2,1,05,04,04,306,,02,,,,01,,,,03,,,*56,1699400586568
NMEA,$QZGSV,2,2,05,07,,,*67,1699400586568
NMEA,$GAGSV,4,1,14,127,84,234,34,107,54,143,32,130,39,046,33,119,22,315,18*6F,1699400586568
NMEA,$GAGSV,4,2,14,108,03,138,,118,25,157,,102,,,,104,,,*61,1699400586568
NMEA,$GAGSV,4,3,14,103,,,,110,,,*68,1699400586568
NMEA,$GAGSV,4,4,14,127,,,31,107,,,35,130,,,,119,,,,1*7D,1699400586568
NMEA,$GPGSA,A,3,04,07,08,09,14,20,22,27,30,,,,1.5,0.8,1.3*3F,1699400586568
NMEA,$GPGSA,A,3,08,09,14,27,30,,,,,,,,1.5,0.8,1.3,8*2A,1699400586568
NMEA,$GPGSA,A,3,,,,,,,,,,,,,1.5,0.8,1.3,9*29,1699400586568
NMEA,$QZGSA,A,3,,,,,,,,,,,,,1.5,0.8,1.3*20,1699400586568
NMEA,$QZGSA,A,3,,,,,,,,,,,,,1.5,0.8,1.3,8*34,1699400586568
NMEA,$QZGSA,A,3,,,,,,,,,,,,,1.5,0.8,1.3,9*35,1699400586568
NMEA,$BDGSA,A,3,,,,,,,,,,,,,1.5,0.8,1.3*2D,1699400586568
NMEA,$BDGSA,A,3,,,,,,,,,,,,,1.5,0.8,1.3,5*34,1699400586568
NMEA,$BDGSA,A,3,,,,,,,,,,,,,1.5,0.8,1.3,3*32,1699400586569
NMEA,$GAGSA,A,3,107,127,130,,,,,,,,,,1.5,0.8,1.3*1D,1699400586569
NMEA,$GAGSA,A,3,107,127,,,,,,,,,,,1.5,0.8,1.3,1*32,1699400586569
NMEA,$NCGSA,A,3,,,,,,,,,,,,,1.5,0.8,1.3,1*3B,1699400586569
NMEA,$GNGSA,A,3,04,07,08,09,14,20,22,27,30,,,,1.5,0.8,1.3*21,1699400586569
NMEA,$GNGSA,A,3,65,66,67,76,77,85,,,,,,,1.5,0.8,1.3*2C,1699400586569
NMEA,$PGLOR,1,FIX,1.0,1.0*20,1699400586569
NMEA,$GPRMC,234306.00,A,3725.590503,N,12210.422518,W,000.0,,071123,,,A*65,1699400586569
NMEA,$PGLOR,SPL,20231107154306.5,POS,20231107234306.000,37.426508,-122.173709,4,4,0,24,3,1.100000*40,1699400586570
NMEA,$GPGGA,234307.00,3725.590507,N,12210.422519,W,1,25,0.4,52.0,M,-28.4,M,,*6C,1699400587551
NMEA,$PGLOR,11,STA,234307.00,0.000,0.000,128,1,4,1,P,S,L,0,C,3,S,00100002,0,5,R,000833F4,TPEF,30,54090,LC,,,DR,3,,,,*68,1699400587551
NMEA,$PGLOR,1,UNC,234307.00,0.007,4.1,3.0,0.21,71.48,4.6,4.1,57.7*26,1699400587551
NMEA,$PGLOR,2,SAT,4,1,E27,29,7AF,R02,34,1F,G07,29,2F,R13,29,1F,G09,28,7AF,E07,28,7AF*73,1699400587551
NMEA,$PGLOR,2,SAT,4,2,R12,35,1F,G30,27,7AF,R03,25,1F,G14,38,7AF,E30,,2002F,G08,39,5AB*4E,1699400587551
NMEA,$PGLOR,2,SAT,4,3,G20,34,2F,E19,,20023,G22,35,2F,G04,27,2002F,G27,31,7AF,R01,24,2F*19,1699400587551
NMEA,$PGLOR,2,SAT,4,4,G05,12,21,R21,20,2F*57,1699400587551
NMEA,$PGLOR,2,SVC,GPS,0,3,1,10,007,SKUS,SKUS,009,SKUS,SKUS,014,SKUS,SKUS,030,SKUS,SKUS*61,1699400587551
NMEA,$PGLOR,2,SVC,GPS,0,3,2,10,004,SKPR,SKUS,008,SKUS,SKUS,020,SKUS,SKUS,022,SKUS,SKUS*60,1699400587551
NMEA,$PGLOR,2,SVC,GPS,0,3,3,10,005,SKUS,SKUS,027,POGH,POGH*6B,1699400587551
NMEA,$PGLOR,2,SVC,GPS,2,2,1,06,008,SKUS,SKUS,009,SKUS,SKUS,014,SKUS,SKUS,030,SKPR,SKUS*6E,1699400587551
NMEA,$PGLOR,2,SVC,GPS,2,2,2,06,004,CLIN,CLIN,027,SKUS,SKUS*6F,1699400587551
NMEA,$PGLOR,2,SVC,GLO,0,2,1,06,055,SKUS,SKUS,057,SKUS,SKUS,058,SKUS,SKUS,064,SKUS,SKUS*62,1699400587551
NMEA,$PGLOR,2,SVC,GLO,0,2,2,06,060,SKUS,SKUS,063,SKUS,SKUS*6F,1699400587551
NMEA,$PGLOR,2,SVC,GAL,0,1,1,04,145,SKUS,SKUS,157,SKUS,SKUS,165,SKUS,SKUS,168,POGH,POGH*6E,1699400587551
NMEA,$PGLOR,2,SVC,GAL,2,1,1,04,145,SKUS,SKUS,157,SKUS,SKUS,165,CLIN,CLIN,168,CLIN,CLIN*6C,1699400587551
NMEA,$PGLOR,2,SIO,TxERR,0,RxERR,0,TxCNT,711,RxCNT,7354,MLFRMPKT,0,DTMS,997,DTIN,29,50,DTOUT,16,947,HATMD,32*22,1699400587551
NMEA,$PGLOR,2,HLA,234307.00,L,,Al,,A,,H,,,M,1,Ac,0,Gr,0,S,,,Sx,,,T,1,Tr,,Mn,,Ap,,Ta,0,,,Aa,1,Ga,1,*1B,1699400587551
NMEA,$PGLOR,3,CTX,234307.00,E,1,1,,,V,0,0,S,,,*79,1699400587551
NMEA,$PGLOR,1,LSQ,234307.00,3725.591069,N,12210.422757,W,11.4,1.4,20.0,19.2,2.4,,,,,,,06,-0.0,20.7*1C,1699400587551
NMEA,$PGLOR,6,PWR,mA,19.8,RFTm,675,OscTm,1000,MeasTm,1000,UTC,234307.00,GNSSmA,18.5,CPUTm,164,COPTm,64,COPMargTm,159,Sr*00,1699400587551
NMEA,$PGLOR,0,PPS,071123,234307.000,010170,042849.559,000.100,1,0,1,*1C,1699400587551
NMEA,$PGLOR,2,AGC,G,45.2,R,62.8,B,18.5,E5A,26.3,E5B,,L2,*1F,1699400587551
NMEA,$PSSGR,GSA,A,3,04,07,08,09,14,20,22,27,30,,,,1.5,0.8,1.3,1,1*41,1699400587551
NMEA,$PSSGR,GSA,A,3,08,09,14,27,30,,,,,,,,1.5,0.8,1.3,1,8*49,1699400587551
NMEA,$PSSGR,GSA,A,3,,,,,,,,,,,,,1.5,0.8,1.3,1,9*4A,1699400587551
NMEA,$PSSGR,GSA,A,3,65,66,67,76,77,85,,,,,,,1.5,0.8,1.3,2,1*4F,1699400587551
NMEA,$PSSGR,GSA,A,3,,,,,,,,,,,,,1.5,0.8,1.3,5,1*46,1699400587551
NMEA,$PSSGR,GSA,A,3,,,,,,,,,,,,,1.5,0.8,1.3,5,8*4F,1699400587552
NMEA,$PSSGR,GSA,A,3,,,,,,,,,,,,,1.5,0.8,1.3,5,9*4E,1699400587552
NMEA,$PSSGR,GSA,A,3,,,,,,,,,,,,,1.5,0.8,1.3,4,1*47,1699400587552
NMEA,$PSSGR,GSA,A,3,,,,,,,,,,,,,1.5,0.8,1.3,4,5*43,1699400587552
NMEA,$PSSGR,GSA,A,3,,,,,,,,,,,,,1.5,0.8,1.3,4,3*45,1699400587552
NMEA,$PSSGR,GSA,A,3,107,127,130,,,,,,,,,,1.5,0.8,1.3,3,7*76,1699400587552
NMEA,$PSSGR,GSA,A,3,107,127,,,,,,,,,,,1.5,0.8,1.3,3,1*42,1699400587552
NMEA,$PSSGR,GSA,A,3,,,,,,,,,,,,,1.5,0.8,1.3,6,1*45,1699400587552
NMEA,$GPGSV,5,1,16,07,68,002,36,09,54,145,33,30,51,301,31,14,39,225,42*77,1699400587552
NMEA,$GPGSV,5,2,16,08,38,088,44,20,23,280,38,22,21,221,40,04,21,137,31*7E,1699400587552
NMEA,$GPGSV,5,3,16,27,19,048,36,05,14,314,19*72,1699400587552
NMEA,$GPGSV,5,4,16,09,,,34,30,,,33,14,,,32,08,,,37,8*6E,1699400587552
NMEA,$GPGSV,5,5,16,04,,,21,27,,,32,8*69,1699400587552
NMEA,$GLGSV,2,1,06,66,69,199,38,77,55,282,34,76,53,018,40,67,45,320,31*63,1699400587552
NMEA,$GLGSV,2,2,06,65,18,166,29,85,10,052,23*69,1699400587552
NMEA,$GAGSV,2,1,08,127,84,234,34,107,54,143,32,130,39,046,33,119,22,315,17*6B,1699400587552
NMEA,$GAGSV,2,2,08,127,,,31,107,,,34,130,,,,119,,,,1*71,1699400587552
NMEA,$GPGSA,A,3,04,07,08,09,14,20,22,27,30,,,,1.5,0.8,1.3*3F,1699400587552
NMEA,$GPGSA,A,3,08,09,14,27,30,,,,,,,,1.5,0.8,1.3,8*2A,1699400587552
NMEA,$GPGSA,A,3,,,,,,,,,,,,,1.5,0.8,1.3,9*29,1699400587552
NMEA,$QZGSA,A,3,,,,,,,,,,,,,1.5,0.8,1.3*20,1699400587552
NMEA,$QZGSA,A,3,,,,,,,,,,,,,1.5,0.8,1.3,8*34,1699400587552
NMEA,$QZGSA,A,3,,,,,,,,,,,,,1.5,0.8,1.3,9*35,1699400587552
NMEA,$BDGSA,A,3,,,,,,,,,,,,,1.5,0.8,1.3*2D,1699400587552
NMEA,$BDGSA,A,3,,,,,,,,,,,,,1.5,0.8,1.3,5*34,1699400587552
NMEA,$BDGSA,A,3,,,,,,,,,,,,,1.5,0.8,1.3,3*32,1699400587552
NMEA,$GAGSA,A,3,107,127,130,,,,,,,,,,1.5,0.8,1.3*1D,1699400587552
NMEA,$GAGSA,A,3,107,127,,,,,,,,,,,1.5,0.8,1.3,1*32,1699400587552
NMEA,$NCGSA,A,3,,,,,,,,,,,,,1.5,0.8,1.3,1*3B,1699400587552
NMEA,$GNGSA,A,3,04,07,08,09,14,20,22,27,30,,,,1.5,0.8,1.3*21,1699400587552
NMEA,$GNGSA,A,3,65,66,67,76,77,85,,,,,,,1.5,0.8,1.3*2C,1699400587552
NMEA,$PGLOR,1,FIX,1.0,1.0*20,1699400587552
NMEA,$GPRMC,234307.00,A,3725.590507,N,12210.422519,W,000.0,,071123,,,A*61,1699400587552
NMEA,$PGLOR,SPL,20231107154307.5,POS,20231107234307.000,37.426508,-122.173709,4,4,0,24,3,1.100000*40,1699400587552
NMEA,$GPGGA,234308.00,3725.590511,N,12210.422517,W,1,25,0.4,52.0,M,-28.4,M,,*6A,1699400588575
NMEA,$PGLOR,11,STA,234308.00,0.000,0.000,128,1,4,1,P,S,L,0,C,3,S,00100002,0,5,R,000833F4,TPEF,30,55090,LC,,,DR,3,,,,*66,1699400588575
NMEA,$PGLOR,1,UNC,234308.00,0.007,4.1,3.0,0.20,180.00,4.6,4.2,58.4*14,1699400588575
NMEA,$PGLOR,2,SAT,4,1,E27,28,7AF,R02,33,1F,G07,31,2F,R13,28,1F,G09,27,7AF,E07,28,7AF*72,1699400588575
NMEA,$PGLOR,2,SAT,4,2,R12,37,1F,G30,27,7AF,R03,24,1F,G14,38,7AF,E30,,2002F,G08,40,5AB*43,1699400588575
NMEA,$PGLOR,2,SAT,4,3,G20,34,2F,E19,,20020,G22,35,2F,G04,28,2002B,G27,32,7AF,R01,24,2F*12,1699400588576
NMEA,$PGLOR,2,SAT,4,4,G05,11,20,R21,21,2F*54,1699400588576
NMEA,$PGLOR,2,SVC,GPS,0,3,1,10,007,SKUS,SKUS,009,SKUS,SKUS,014,SKUS,SKUS,030,SKUS,SKUS*61,1699400588576
NMEA,$PGLOR,2,SVC,GPS,0,3,2,10,004,SKPR,SKUS,008,SKUS,SKUS,020,SKUS,SKUS,022,SKUS,SKUS*60,1699400588576
NMEA,$PGLOR,2,SVC,GPS,0,3,3,10,005,SKUS,SKUS,027,POGH,POGH*6B,1699400588576
NMEA,$PGLOR,2,SVC,GPS,2,2,1,06,008,SKUS,SKUS,009,SKUS,SKUS,014,SKUS,SKUS,030,SKPR,SKUS*6E,1699400588576
NMEA,$PGLOR,2,SVC,GPS,2,2,2,06,004,CLIN,CLIN,027,SKUS,SKUS*6F,1699400588576
NMEA,$PGLOR,2,SVC,GLO,0,2,1,06,055,SKUS,SKUS,057,SKUS,SKUS,058,SKUS,SKUS,064,SKUS,SKUS*62,1699400588576
NMEA,$PGLOR,2,SVC,GLO,0,2,2,06,060,SKUS,SKUS,063,SKUS,SKUS*6F,1699400588576
NMEA,$PGLOR,2,SVC,GAL,0,1,1,04,145,SKUS,SKUS,157,SKUS,SKUS,165,SKUS,SKUS,168,POGH,POGH*6E,1699400588576
NMEA,$PGLOR,2,SVC,GAL,2,1,1,04,145,SKUS,SKUS,157,SKUS,SKUS,165,CLIN,CLIN,168,CLIN,CLIN*6C,1699400588576
NMEA,$PGLOR,2,SIO,TxERR,0,RxERR,0,TxCNT,630,RxCNT,7333,MLFRMPKT,0,DTMS,1000,DTIN,12,43,DTOUT,12,955,HATMD,32*1A,1699400588576
NMEA,$PGLOR,2,HLA,234308.00,L,,Al,,A,,H,,,M,1,Ac,0,Gr,0,S,,,Sx,,,T,1,Tr,,Mn,,Ap,,Ta,0,,,Aa,1,Ga,1,*14,1699400588576
NMEA,$PGLOR,3,CTX,234308.00,E,1,1,,,V,0,0,S,,,*76,1699400588577
NMEA,$PGLOR,1,LSQ,234308.00,3725.591461,N,12210.422220,W,22.5,1.4,14.8,37.9,2.4,,,,,,,06,-0.1,20.7*12,1699400588577
