MessageType,utcTimeMillis,TimeNanos,LeapSecond,FullBiasNanos,BiasNanos,BiasUncertaintyNanos,DriftNanosPerSecond,DriftUncertaintyNanosPerSecond,HardwareClockDiscontinuityCount,Svid,TimeOffsetNanos,State,ReceivedSvTimeNanos,ReceivedSvTimeUncertaintyNanos,Cn0DbHz,PseudorangeRateMetersPerSecond,PseudorangeRateUncertaintyMetersPerSecond,AccumulatedDeltaRangeState,AccumulatedDeltaRangeMeters,AccumulatedDeltaRangeUncertaintyMeters,CarrierFrequencyHz,MultipathIndicator,ConstellationType,CodeType,ChipsetElapsedRealtimeNanos,ArrivalTimeNanosSinceGpsEpoch,RawPseudorangeMeters,RawPseudorangeUncertaintyMeters,SignalType,ReceivedSvTimeNanosSinceGpsEpoch,SvPositionXEcefMeters,SvPositionYEcefMeters,SvPositionZEcefMeters,SvElevationDegrees,SvAzimuthDegrees,SvVelocityXEcefMetersPerSecond,SvVelocityYEcefMetersPerSecond,SvVelocityZEcefMetersPerSecond,SvClockBiasMeters,SvClockDriftMetersPerSecond,IsrbMeters,IonosphericDelayMeters,TroposphericDelayMeters,WlsPositionXEcefMeters,WlsPositionYEcefMeters,WlsPositionZEcefMeters
Raw,1619735725999,2122186000000,,-1303768821813692247,0.0,7.57382470034141,395.0,1.0,16,2,0.0,16397,426943928203644,13,43.50716781616211,444.4679862981659,0.15,25,25666.31722119377,0.0010789649095386,1575420030.0,0,1,C,0,1.3037709439996923e+18,21431744.012356177,3.897301954000001,GPS_L1,1.3037709439282035e+18,-2600140.390513786,-16940316.347910408,20934409.434128664,62.44920476227796,43.77300728698665,2342.503494181106,910.6685537499066,1066.2862371315248,-179889.35623902193,0.000843976904111,0.0,4.037668727351694,2.8177994911074267,-2696236.766104732,-4297680.734265535,3852385.340724436
Raw,1619735725999,2122186000000,,-1303768821813692247,0.0,7.57382470034141,395.0,1.0,16,5,0.0,16397,426943923099946,22,37.73599624633789,-499.5662989971586,0.15,25,-28045.396005998828,0.0020968429744243,1575420030.0,0,1,C,0,1.3037709439996923e+18,22961794.18066586,6.595434076000001,GPS_L1,1.3037709439231e+18,-5138415.924823635,-25635749.14063244,-4235201.040099609,27.16988630793112,152.99393642377913,261.92681408475363,-545.8516612300339,3115.0005056996106,-12138.393035817237,-0.0006281784154099,0.0,7.449197879426097,5.453033606591147,-2696236.766104732,-4297680.734265535,3852385.340724436
Raw,1619735725999,2122186000000,,-1303768821813692247,0.0,7.57382470034141,395.0,1.0,16,6,0.0,16397,426943922114552,19,39.55127334594727,725.9458947041653,0.15,25,40598.51101767711,0.0017013830365613,1575420030.0,0,1,C,0,1.3037709439996923e+18,23257207.870024312,5.696056702000001,GPS_L1,1.3037709439221146e+18,10338214.367063068,-11044426.875470506,21897861.748040564,25.45246950400123,44.14062278972148,2435.507161335523,1295.386102206379,-491.9619270900161,3376.8983449706056,0.0011925207335164,0.0,6.5742704355055706,5.790674231505176,-2696236.766104732,-4297680.734265535,3852385.340724436
Raw,1619735725999,2122186000000,,-1303768821813692247,0.0,7.57382470034141,395.0,1.0,16,12,0.0,16397,426943932570754,38,30.981176376342773,189.65677127737425,0.7825680164605262,25,10812.38299042446,0.0043025971390306,1575420030.0,0,1,C,0,1.3037709439996923e+18,20122517.3710998,11.392113404000002,GPS_L1,1.303770943932571e+18,-10091794.18557306,-18911381.10610299,15524796.551000437,85.35391837644127,112.8190017451046,217.1590463240631,-2004.1296533284287,-2249.008727651638,-10336.586638244788,-0.00188944191834,0.0,3.77156055437518,2.507475194115337,-2696236.766104732,-4297680.734265535,3852385.340724436
Raw,1619735725999,2122186000000,,-1303768821813692247,0.0,7.57382470034141,395.0,1.0,16,19,0.0,16397,426943916301576,31,33.187156677246094,664.0411109428283,0.6840387633160825,25,37184.83798104065,0.0033375797793269,1575420030.0,0,1,C,0,1.3037709439996923e+18,24999894.23335932,9.293566198,GPS_L1,1.3037709439163016e+18,18512055.168722868,-16314472.375283308,9393450.555942208,5.734903418916357,78.25010367130672,1199.357621786433,-363.0856386841999,-2916.453561269725,-1921.3086355046985,0.0009020267670854,0.0,9.69398770798994,23.0127193251958,-2696236.766104732,-4297680.734265535,3852385.340724436
Raw,1619735725999,2122186000000,,-1303768821813692247,0.0,7.57382470034141,395.0,1.0,16,20,0.0,16384,426943914577320,1000000000,12.0,-533.5645036874446,299792458.0,16,-29829.58029362379,3.4028234663852886e+38,1575420030.0,1,1,C,0,,,,,,,,,,,,,,,,,,,-2696236.766104732,-4297680.734265535,3852385.340724436
Raw,1619735725999,2122186000000,,-1303768821813692247,0.0,7.57382470034141,395.0,1.0,16,24,0.0,16397,426943918815789,25,36.10494995117188,734.5335149443918,0.15,25,41126.91619618648,0.0023852940648794,1575420030.0,0,1,C,0,1.3037709439996923e+18,24246152.138153765,7.494811450000001,GPS_L1,1.3037709439188155e+18,-19747542.08688365,-15774955.728082854,-9034034.114496704,17.010365748530123,201.0820248835428,1130.4365210758938,170.67834940014615,-2807.425028338987,13610.401494012583,0.0091888431665261,0.0,9.684654380198296,8.458923333504456,-2696236.766104732,-4297680.734265535,3852385.340724436
Raw,1619735725999,2122186000000,,-1303768821813692247,0.0,7.57382470034141,395.0,1.0,16,25,0.0,16397,426943929395177,30,33.69425201416016,-272.0002248136798,0.6599927248643671,25,-15924.739249918386,0.0031483047641813,1575420030.0,0,1,C,0,1.3037709439996923e+18,21074531.40549806,8.993773740000002,GPS_L1,1.3037709439293952e+18,-14950837.637645297,-5654566.811638598,20991149.041443843,51.38126532850954,312.85672371129607,-73.9692498955772,-2721.628660626616,-749.5462553118977,38371.29456039146,0.0014815050282979,0.0,4.558284710162735,3.196319286889137,-2696236.766104732,-4297680.734265535,3852385.340724436
Raw,1619735725999,2122186000000,,-1303768821813692247,0.0,7.57382470034141,395.0,1.0,16,29,0.0,16388,426943922052376,1000000000,31.10345458984375,-325.80050715600123,299792458.0,16,-18476.52644462309,3.4028234663852886e+38,1575420030.0,1,1,C,0,,,,,,,,,,,,,,,,,,,-2696236.766104732,-4297680.734265535,3852385.340724436
Raw,1619735725999,2122186000000,,-1303768821813692247,0.0,7.57382470034141,395.0,1.0,16,31,0.0,16384,426943914981209,1000000000,15.665225982666016,-312.824054906876,299792458.0,16,-17644.697096945547,3.4028234663852886e+38,1575420030.0,0,1,C,0,,,,,,,,,,,,,,,,,,,-2696236.766104732,-4297680.734265535,3852385.340724436
Raw,1619735725999,2122186000000,,-1303768821813692247,0.0,7.57382470034141,395.0,1.0,16,6,0.0,81921,426943922114574,24,30.45248413085937,725.9750011220358,0.8274717194966268,16,40583.63131585759,3.4028234663852886e+38,1176450050.0,0,1,X,0,1.3037709439996923e+18,23257201.274590235,7.195018992000001,GPS_L5,1.3037709439221146e+18,10338214.367124803,-11044426.87543764,21897861.748028107,25.452469503831097,44.14062278973849,2435.507161334276,1295.386102199932,-491.9619271019267,3375.901667702572,0.0011925207335505,-14.171381083502842,11.789443573523975,5.790674231540947,-2696236.766104732,-4297680.734265535,3852385.340724436
Raw,1619735725999,2122186000000,,-1303768821813692247,0.0,7.57382470034141,395.0,1.0,16,24,0.0,81921,426943918815771,79,25.852725982666016,734.2016199827726,299.79583140629256,16,41137.63951834243,3.4028234663852886e+38,1176450050.0,0,1,X,0,1.3037709439996923e+18,24246157.534418013,23.683604182000003,GPS_L5,1.3037709439188155e+18,-19747542.086901493,-15774955.728085551,-9034034.114452396,17.01036574862669,201.0820248835992,1130.4365210705123,170.6783493994942,-2807.4250283410097,13609.73704250038,0.00918884316642,-14.171381083502842,17.367202560946087,8.458923333458829,-2696236.766104732,-4297680.734265535,3852385.340724436
Raw,1619735725999,2122186000000,,-1303768821813692247,0.0,7.57382470034141,395.0,1.0,16,25,0.0,81921,426943929395190,20,30.93124008178711,-272.0707243749972,0.7842423837045072,25,-15913.875751076726,0.0057949591428041,1176450050.0,0,1,X,0,1.3037709439996923e+18,21074527.508196108,5.995849160000001,GPS_L5,1.3037709439293952e+18,-14950837.637646588,-5654566.811686032,20991149.04143077,51.38126532863934,312.8567237112552,-73.96924989810731,-2721.6286606252943,-749.5462553197829,38369.96565736741,0.0014815050288436,-14.171381083502842,8.174236352077148,3.196319286883371,-2696236.766104732,-4297680.734265535,3852385.340724436
Raw,1619735725999,2122186000000,,-1303768821813692247,0.0,7.57382470034141,395.0,1.0,16,22,0.0,32833,5725932878330,78,30.593908309936523,-13.088099986233388,0.8000382709568719,25,-876.663314761726,0.0044287955388426,1600312450.0,0,3,C,0,1.3037709439996923e+18,20030308.40603799,23.383811724000005,GLO_G1,1.3037709439328783e+18,-17679555.003490113,-7551242.35438354,16689966.027084207,54.65878535495181,288.59840223841746,2296.203738466774,181.75319078331296,2521.065313728847,-33066.313947749026,-0.0005453193042841,-4.159497019254294,4.3128604042449705,3.061918705862559,-2696236.766104732,-4297680.734265535,3852385.340724436
Raw,1619735725999,2122186000000,,-1303768821813692247,0.0,7.57382470034141,395.0,1.0,16,12,0.0,32995,5725932604643,49,36.24024200439453,-229.0556138633517,0.15,25,-13058.996045787097,0.0023102746345102,1601437440.0,0,3,C,0,1.3037709439996923e+18,20112357.70449064,14.689830442000002,GLO_G1,1.303770943932605e+18,-14688987.296120826,-6051918.460304001,19986796.85061549,52.65443293713927,311.08574227961327,-1468.9685209681795,-2302.739663836825,-1776.9674792484484,67423.94400739136,0.0010906386088916,-4.159497019254294,4.349306547413193,3.141511370744408,-2696236.766104732,-4297680.734265535,3852385.340724436
Raw,1619735725999,2122186000000,,-1303768821813692247,0.0,7.57382470034141,395.0,1.0,16,21,0.0,32833,5725931318426,109,26.54625129699707,516.2775749969665,0.9817762470676707,29,7756.826141168711,0.0070404624566435,1604249980.0,0,3,C,0,1.3037709439996923e+18,20497955.86044202,32.677377922000005,GLO_G1,1.3037709439313183e+18,-822045.8154610127,-10459274.499087453,23247423.720244583,47.77886995333352,20.734953099514783,3188.566184433724,4.438571295628531,112.927112899493,-61562.50259228287,-0.0008179789563857,-4.159497019254294,4.483637805879799,3.371619743356476,-2696236.766104732,-4297680.734265535,3852385.340724436
Raw,1619735725999,2122186000000,,-1303768821813692247,0.0,7.57382470034141,395.0,1.0,16,194,0.0,16384,426943853129115,1000000000,17.54619789123535,108.42074195963608,299792458.0,16,6087.825603914634,3.4028234663852886e+38,1575420030.0,0,4,C,0,,,,,,,,,,,,,,,,,,,-2696236.766104732,-4297680.734265535,3852385.340724436
Raw,1619735725999,2122186000000,,-1303768821813692247,0.0,7.57382470034141,395.0,1.0,16,194,0.0,16384,426943853129379,1000000000,12.0,108.68793137754663,299792458.0,16,6087.091001733217,3.4028234663852886e+38,1176450050.0,1,4,X,0,,,,,,,,,,,,,,,,,,,-2696236.766104732,-4297680.734265535,3852385.340724436
Raw,1619735725999,2122186000000,,-1303768821813692247,0.0,7.57382470034141,395.0,1.0,16,4,0.0,16384,426929860729101,1000000000,21.31024932861328,115.41093450386666,299792458.0,16,0.4220281356518139,3.4028234663852886e+38,1561097980.0,0,5,I,0,,,,,,,,,,,,,,,,,,,-2696236.766104732,-4297680.734265535,3852385.340724436
Raw,1619735725999,2122186000000,,-1303768821813692247,0.0,7.57382470034141,395.0,1.0,16,14,0.0,16384,426929914185487,1000000000,13.871519088745115,94.8031561002461,299792458.0,16,5169.877482029155,3.4028234663852886e+38,1561097980.0,0,5,I,0,,,,,,,,,,,,,,,,,,,-2696236.766104732,-4297680.734265535,3852385.340724436
Raw,1619735725999,2122186000000,,-1303768821813692247,0.0,7.57382470034141,395.0,1.0,16,16,0.0,16384,426929860280688,1000000000,12.0,326.74915825085714,299792458.0,16,18250.773613460125,3.4028234663852886e+38,1561097980.0,1,5,I,0,,,,,,,,,,,,,,,,,,,-2696236.766104732,-4297680.734265535,3852385.340724436
Raw,1619735725999,2122186000000,,-1303768821813692247,0.0,7.57382470034141,395.0,1.0,16,23,0.0,81955,426929909643427,40,21.542938232421875,770.9259440404921,1.2064683697610867,16,43176.72069883346,3.4028234663852886e+38,1561097980.0,1,5,I,0,1.3037709439996923e+18,26995957.087799564,11.99169832,BDS_B1I,1.3037709439096435e+18,-5113834.83662305,-22744842.83546988,-15336029.91021553,3.822689609278837,163.09254179618532,1235.1798200433918,1251.2140867336136,-2267.1033989036764,-268782.689969919,-0.0022573440520015,7.9302224967537,13.60652383196072,31.60171340709112,-2696236.766104732,-4297680.734265535,3852385.340724436
Raw,1619735725999,2122186000000,,-1303768821813692247,0.0,7.57382470034141,395.0,1.0,16,27,0.0,81967,426929926485073,7,43.19980239868164,-10.083049794617196,0.15,25,-664.2718150461978,0.0011280849575996,1561097980.0,0,5,I,0,1.3037709439996923e+18,21946958.636693694,2.098547206,BDS_B1I,1.303770943926485e+18,-17604837.907903433,-10210631.372069089,19062682.41375571,61.97102563352066,294.03265850059444,2136.7490213932265,-447.8828650934881,1733.3216855997323,156974.5594207472,0.0018089575447245,7.9302224967537,4.207034417703195,2.8301982079570625,-2696236.766104732,-4297680.734265535,3852385.340724436
Raw,1619735725999,2122186000000,,-1303768821813692247,0.0,7.57382470034141,395.0,1.0,16,28,0.0,81967,426929923526444,8,41.559329986572266,440.0196463201783,0.15,25,25478.962727710947,0.0013625908177345,1561097980.0,0,5,I,0,1.3037709439996923e+18,22833933.296913777,2.3983396640000003,BDS_B1I,1.3037709439235264e+18,2655542.8500063643,-16268194.881588051,22516645.09774004,48.68206540023924,46.34011624330229,2535.613327269561,-432.508025672147,-611.5790186234957,-24076.271810831,0.0013705806186711,7.9302224967537,4.71086599997062,3.324636736574734,-2696236.766104732,-4297680.734265535,3852385.340724436
Raw,1619735725999,2122186000000,,-1303768821813692247,0.0,7.57382470034141,395.0,1.0,16,30,0.0,81967,426929914836467,27,26.65755844116211,-322.47347999761405,0.9774037741053644,16,-18108.31498778071,3.4028234663852886e+38,1561097980.0,1,5,I,0,1.3037709439996923e+18,25439122.861707244,8.094396366000002,BDS_B1I,1.3037709439148365e+18,-27337388.381894987,2474052.345496688,4947089.353601255,14.747792289246608,261.63243581397967,528.8384552782402,-233.3206783628958,3036.351658048494,139129.2640490528,0.0007935007174738,7.9302224967537,9.802564825118594,9.688718406857843,-2696236.766104732,-4297680.734265535,3852385.340724436
Raw,1619735725999,2122186000000,,-1303768821813692247,0.0,7.57382470034141,395.0,1.0,16,36,0.0,16384,426929911800877,1000000000,21.30945587158203,-399.065757572891,299792458.0,16,-22434.846784332003,3.4028234663852886e+38,1561097980.0,0,5,I,0,,,,,,,,,,,,,,,,,,,-2696236.766104732,-4297680.734265535,3852385.340724436
Raw,1619735725999,2122186000000,,-1303768821813692247,0.0,7.57382470034141,395.0,1.0,16,37,0.0,81967,426929921608371,6,46.21543502807617,606.1132045383988,0.15,25,33836.30290379305,0.0008403088431805,1561097980.0,0,5,I,0,1.3037709439996923e+18,23408957.11620721,1.7987547480000003,BDS_B1I,1.3037709439216084e+18,-18642537.55424981,-20766329.730254803,712534.7016630823,43.43806227560364,196.4438469388716,66.37649335136844,-162.90517761509656,-3075.4670100250955,-271090.4090884927,0.0028308581919797,7.9302224967537,5.5528842537770045,3.630452200514517,-2696236.766104732,-4297680.734265535,3852385.340724436
Raw,1619735725999,2122186000000,,-1303768821813692247,0.0,7.57382470034141,395.0,1.0,16,2,0.0,85026,426943917851087,64,24.42950820922852,528.2327123539292,1.0759804231659102,16,29446.625161907312,3.4028234663852886e+38,1575420030.0,0,6,C,0,1.3037709439996923e+18,24535362.52197128,19.186717312000003,GAL_E1,1.3037709439178511e+18,-8898872.7868536,-28085599.34528824,2946528.218981445,47.2952934027346,153.7176423800332,-177.05062097720284,-261.5781116701249,-3021.519371255846,64657.34691276854,0.0008048703760222,-0.5213832746907298,5.057616048567914,3.397665365667895,-2696236.766104732,-4297680.734265535,3852385.340724436
Raw,1619735725999,2122186000000,,-1303768821813692247,0.0,7.57382470034141,395.0,1.0,16,15,0.0,85026,426943915533076,33,32.633262634277344,-259.76293584039297,0.7073694030173083,25,-14628.606320296642,0.0035573481582105,1575420030.0,0,6,C,0,1.3037709439996923e+18,25230284.73733232,9.893151114000002,GAL_E1,1.303770943915533e+18,-27455056.905420188,-10294069.599611737,4016501.554414981,34.93573244749874,238.3923307161256,346.582091747928,259.5143698579942,3038.251006940952,244891.80455779808,-0.0006335119559177,-0.5213832746907298,6.322185472654799,4.355194909716264,-2696236.766104732,-4297680.734265535,3852385.340724436
Raw,1619735725999,2122186000000,,-1303768821813692247,0.0,7.57382470034141,395.0,1.0,16,18,0.0,85026,426943936601205,22,37.72911834716797,754.0771453286147,0.15,25,41904.442533316,0.0020985042210668,1575420030.0,0,6,C,0,,,,,,,,,,,,,,,,,,,-2696236.766104732,-4297680.734265535,3852385.340724436
Raw,1619735725999,2122186000000,,-1303768821813692247,0.0,7.57382470034141,395.0,1.0,16,27,0.0,85026,426943910378561,68,23.765735626220703,-379.4703900196664,1.1059244573458171,25,-21296.45397414224,0.0049371086061,1575420030.0,1,6,C,0,1.3037709439996923e+18,26775569.45898019,20.385887144,GAL_E1,1.3037709439103785e+18,-14928160.66105098,7877590.269176233,24315072.7159231,20.553360382179186,317.81433419829733,-571.3341636524794,-2372.35503626851,418.5143888027304,-6551.699612882261,-0.0024690717047507,-0.5213832746907298,7.531052291449516,7.071278733907085,-2696236.766104732,-4297680.734265535,3852385.340724436
Raw,1619735725999,2122186000000,,-1303768821813692247,0.0,7.57382470034141,395.0,1.0,16,30,0.0,85026,426943924528559,36,31.359664916992188,39.686954371886,0.7641011829473778,25,2160.2707269116527,0.0041191363707184,1575420030.0,0,6,C,0,1.3037709439996923e+18,22533506.777865108,10.792528488000002,GAL_E1,1.3037709439245286e+18,-16897918.51098328,-15146093.508653678,19002044.090878583,73.7948740961606,286.6290718468952,-512.0402975112096,-1839.3670250078767,-1919.0568260101493,894869.8884900552,-0.0092095781732091,-0.5213832746907298,3.86322786381451,2.6022404097218272,-2696236.766104732,-4297680.734265535,3852385.340724436
Raw,1619735725999,2122186000000,,-1303768821813692247,0.0,7.57382470034141,395.0,1.0,16,36,0.0,84002,426943914202167,1000000000,18.537521362304688,549.164964264261,299792458.0,16,30734.782933537343,3.4028234663852886e+38,1575420030.0,1,6,C,0,,,,,,,,,,,,,,,,,,,-2696236.766104732,-4297680.734265535,3852385.340724436
Raw,1619735725999,2122186000000,,-1303768821813692247,0.0,7.57382470034141,395.0,1.0,16,2,0.0,84003,426943917851250,34,31.270082473754883,527.4507244714698,0.7705260588384171,25,29443.57171352968,0.005573246628046,1176450050.0,0,6,X,0,1.3037709439996923e+18,24535313.65580063,10.192943572,GAL_E5A,1.3037709439178511e+18,-8898872.786882283,-28085599.34533064,2946528.218491696,47.29529340168553,153.71764238067752,-177.05062096975226,-261.5781116202784,-3021.5193712628657,64657.62074728511,0.000804870375618,-6.265936003130332,9.069675662668162,3.397667336419015,-2696236.766104732,-4297680.734265535,3852385.340724436
Raw,1619735725999,2122186000000,,-1303768821813692247,0.0,7.57382470034141,395.0,1.0,16,15,0.0,84003,426943915533078,65,25.103759765625,-259.9825120665412,1.047401684265853,16,-14622.661962527254,3.4028234663852886e+38,1176450050.0,0,6,X,0,1.3037709439996923e+18,25230284.137747407,19.48650977,GAL_E5A,1.303770943915533e+18,-27455056.9054178,-10294069.59960996,4016501.554435864,34.93573244753158,238.39233071616664,346.582091747959,259.5143698630751,3038.251006940632,244890.34335135267,-0.0006292516508741,-6.265936003130332,11.337387109668049,4.355194909712711,-2696236.766104732,-4297680.734265535,3852385.340724436
Raw,1619735725999,2122186000000,,-1303768821813692247,0.0,7.57382470034141,395.0,1.0,16,18,0.0,84003,426943936601243,46,27.46432304382324,754.1264285607467,0.9760857416070214,16,41914.74205289581,3.4028234663852886e+38,1176450050.0,0,6,X,0,,,,,,,,,,,,,,,,,,,-2696236.766104732,-4297680.734265535,3852385.340724436
Raw,1619735725999,2122186000000,,-1303768821813692247,0.0,7.57382470034141,395.0,1.0,16,27,0.0,16384,426943910378543,1000000000,16.65007781982422,-379.2529098645944,299792458.0,16,-21290.13072790234,3.4028234663852886e+38,1176450050.0,1,6,X,0,,,,,,,,,,,,,,,,,,,-2696236.766104732,-4297680.734265535,3852385.340724436
Raw,1619735725999,2122186000000,,-1303768821813692247,0.0,7.57382470034141,395.0,1.0,16,30,0.0,16384,426943924528547,1000000000,16.868816375732422,39.14440852742058,299792458.0,16,2154.4034697579127,3.4028234663852886e+38,1176450050.0,0,6,X,0,,,,,,,,,,,,,,,,,,,-2696236.766104732,-4297680.734265535,3852385.340724436
Raw,1619735725999,2122186000000,,-1303768821813692247,0.0,7.57382470034141,395.0,1.0,16,36,0.0,84003,426943914202184,37,27.926177978515625,549.4502685078135,0.9684709752660892,16,30744.57617609308,3.4028234663852886e+38,1176450050.0,0,6,X,0,1.3037709439996923e+18,25629276.121344857,11.092320946,GAL_E5A,1.303770943914202e+18,8720309.722891217,-14102465.488333045,24523917.215543084,34.092915989540586,44.652300059526326,2381.0108405775545,631.4360244763031,-482.382764525546,-60092.19183172745,-0.0015458233755554,-6.265936003130332,10.243933775585308,4.448765737808338,-2696236.766104732,-4297680.734265535,3852385.340724436
Raw,1619735726999,2123186000000,,-1303768821813691852,0.0,7.530031879253141,395.0,1.0,16,2,0.0,16397,426944928202164,13,43.68156051635742,444.4818919404272,0.15,25,26110.8084525184,0.001057517947629,1575420030.0,0,1,C,991651461,1.3037709449996923e+18,21432187.70519402,3.897301954000001,GPS_L1,1.3037709449282022e+18,-2597797.804419269,-16939405.726605784,20935475.50766805,62.44194466507958,43.77099331078191,2342.674778498249,910.5777157637498,1065.8648745492203,-179889.35539499216,0.0008440849123871,0.0,4.037850022992341,2.7986167248490927,-2696239.996894514,-4297683.106703658,3852388.895607516
Raw,1619735726999,2123186000000,,-1303768821813691852,0.0,7.530031879253141,395.0,1.0,16,5,0.0,16397,426944923101611,21,37.980106353759766,-499.5188221352223,0.15,25,-28544.89920145616,0.0020387333352118,1575420030.0,0,1,C,991651461,1.3037709449996923e+18,22961295.02622329,6.295641618000001,GPS_L1,1.3037709449231017e+18,-5138153.995972434,-25636294.80473815,-4232085.988860517,27.176684575758067,152.9897347387261,261.9301435831236,-545.4761941912791,3115.09135327899,-12138.393664035842,-0.0006282565205361,0.0,7.447987574191709,5.409304047259657,-2696239.996894514,-4297683.106703658,3852388.895607516
Raw,1619735726999,2123186000000,,-1303768821813691852,0.0,7.530031879253141,395.0,1.0,16,6,0.0,16397,426944922112140,17,40.71596145629883,725.9398961918173,0.15,25,41324.47234673169,0.0014878790825605,1575420030.0,0,1,C,991651461,1.3037709449996923e+18,23257930.96943301,5.096471786,GPS_L1,1.3037709449221125e+18,10340649.88122639,-11043131.583408102,21897369.55530554,25.44574148937256,44.14129756864051,2435.532500751741,1295.20560858899,-492.4248683712341,3376.899537495361,0.0011925344995726,0.0,6.574933554828613,5.745976076664876,-2696239.996894514,-4297683.106703658,3852388.895607516
Raw,1619735726999,2123186000000,,-1303768821813691852,0.0,7.530031879253141,395.0,1.0,16,12,0.0,16397,426944932570139,33,32.50562286376953,189.8060013132593,0.7140152157700648,25,11002.13822095371,0.0036100088618695,1575420030.0,0,1,C,991651461,1.3037709449996923e+18,20122701.743461467,9.893151114000002,GPS_L1,1.30377094493257e+18,-10091577.091653015,-18913385.09680834,15522547.376390684,85.34757527254118,112.89092713437992,217.0300600584493,-2003.855313457859,-2249.342511721954,-10336.58852762862,-0.0018893283427334,0.0,3.7715822155592895,2.490102727564812,-2696239.996894514,-4297683.106703658,3852388.895607516
Raw,1619735726999,2123186000000,,-1303768821813691852,0.0,7.530031879253141,395.0,1.0,16,19,0.0,16397,426944916299369,32,32.89468765258789,664.1606722003103,0.697190331226822,25,37849.04276358325,0.003451875410974,1575420030.0,0,1,C,991651461,1.3037709449996923e+18,25000555.875314128,9.593358656,GPS_L1,1.3037709449162993e+18,18513254.34519642,-16314835.414214635,9390534.006872864,5.7300703343339885,78.25543711642429,1199.002170182837,-362.9939432321944,-2916.6570103840127,-1921.3077334271568,0.0009021320395845,0.0,9.694673537291884,22.56524108025584,-2696239.996894514,-4297683.106703658,3852388.895607516
Raw,1619735726999,2123186000000,,-1303768821813691852,0.0,7.530031879253141,395.0,1.0,16,20,0.0,16384,426944914579099,1000000000,12.0,-533.5645036874446,299792458.0,16,-30363.147205222394,3.4028234663852886e+38,1575420030.0,0,1,C,991651461,,,,,,,,,,,,,,,,,,,-2696239.996894514,-4297683.106703658,3852388.895607516
Raw,1619735726999,2123186000000,,-1303768821813691852,0.0,7.530031879253141,395.0,1.0,16,24,0.0,16397,426944918813345,22,37.3591423034668,734.5093845651736,0.15,25,41861.43525128835,0.0020645831245929,1575420030.0,0,1,C,991651461,1.3037709449996923e+18,24246884.83092112,6.595434076000001,GPS_L1,1.3037709449188134e+18,-19746411.48899393,-15774785.011952138,-9036841.439306494,17.004235838128267,201.0784295366666,1130.7634805490368,170.75476187634695,-2807.2387322847835,13610.410682857222,0.0091888909307221,0.0,9.686113969938898,8.380873892004162,-2696239.996894514,-4297683.106703658,3852388.895607516
Raw,1619735726999,2123186000000,,-1303768821813691852,0.0,7.530031879253141,395.0,1.0,16,25,0.0,16397,426944929396096,28,34.559505462646484,-272.0083705207888,0.6210836067057053,25,-16196.767769596468,0.0028497988823801,1575420030.0,0,1,C,991651461,1.3037709449996923e+18,21074255.896229163,8.394188824,GPS_L1,1.3037709449293962e+18,-14950911.683623876,-5657288.390839938,20990399.266193915,51.38872034130775,312.8543768240268,-74.12127694482915,-2721.525221051064,-750.0017917006379,38371.29604195314,0.0014816153130798,0.0,4.557860320923103,3.17380661480872,-2696239.996894514,-4297683.106703658,3852388.895607516
Raw,1619735726999,2123186000000,,-1303768821813691852,0.0,7.530031879253141,395.0,1.0,16,29,0.0,16388,426944922053549,1000000000,30.841053009033203,-325.49812760173086,299792458.0,16,-18802.757848056863,3.4028234663852886e+38,1575420030.0,1,1,C,991651461,,,,,,,,,,,,,,,,,,,-2696239.996894514,-4297683.106703658,3852388.895607516
Raw,1619735726999,2123186000000,,-1303768821813691852,0.0,7.530031879253141,395.0,1.0,16,31,0.0,16384,426944914982288,1000000000,16.345998764038086,-312.824054906876,299792458.0,16,-17957.227244633727,3.4028234663852886e+38,1575420030.0,0,1,C,991651461,,,,,,,,,,,,,,,,,,,-2696239.996894514,-4297683.106703658,3852388.895607516
Raw,1619735726999,2123186000000,,-1303768821813691852,0.0,7.530031879253141,395.0,1.0,16,6,0.0,81921,426944922112150,24,29.60239028930664,725.833354432727,0.8426892034975721,25,41309.58311658241,0.0067529394291341,1176450050.0,0,1,X,991651461,1.3037709449996923e+18,23257927.971508432,7.195018992000001,GPS_L5,1.3037709449221125e+18,10340649.881258825,-11043131.583390862,21897369.555298977,25.44574148928321,44.14129756864953,2435.5325007561337,1295.2056085904956,-492.4248683773395,3375.9028602273124,0.0011925344995511,-11.00914580938263,11.7906327256625,5.745976076683467,-2696239.996894514,-4297683.106703658,3852388.895607516
Raw,1619735726999,2123186000000,,-1303768821813691852,0.0,7.530031879253141,395.0,1.0,16,24,0.0,81921,426944918813318,45,26.81558609008789,734.1921450598593,0.9710128475362524,16,41872.14800630807,3.4028234663852886e+38,1176450050.0,0,1,X,991651461,1.3037709449996923e+18,24246892.925317485,13.490660610000004,GPS_L5,1.3037709449188134e+18,-19746411.48902195,-15774785.011956384,-9036841.439236907,17.00423583827994,201.0784295367552,1130.7634805374469,170.75476187812166,-2807.238732289269,13609.746231344936,0.0091888909307777,-11.00914580938263,17.369819999778485,8.380873891933552,-2696239.996894514,-4297683.106703658,3852388.895607516
Raw,1619735726999,2123186000000,,-1303768821813691852,0.0,7.530031879253141,395.0,1.0,16,25,0.0,81921,426944929396095,19,31.05628776550293,-272.0876463146608,0.870483446791924,16,-16185.8933963772,3.4028234663852886e+38,1176450050.0,0,1,X,991651461,1.3037709449996923e+18,21074256.19602162,5.696056702000001,GPS_L5,1.303770944929396e+18,-14950911.68362412,-5657288.390849311,20990399.26619134,51.3887203413334,312.8543768240188,-74.12127694516028,-2721.5252210513354,-750.0017917020039,38369.96713892906,0.0014816153131202,-11.00914580938263,8.173475307490826,3.1738066148075896,-2696239.996894514,-4297683.106703658,3852388.895607516
Raw,1619735726999,2123186000000,,-1303768821813691852,0.0,7.530031879253141,395.0,1.0,16,22,0.0,32833,5726932878344,82,30.035295486450195,-13.048907291385689,0.8251585058947368,25,-889.6581920197937,0.0047229817137122,1600312450.0,0,3,C,991651461,1.3037709449996923e+18,20030304.20894358,24.582981556000004,GLO_G1,1.3037709449328783e+18,-17677258.6198717,-7551060.697617833,16692486.890754176,54.66150167799936,288.61463289570673,2296.5632223692205,181.560517311298,2520.66207946066,-33066.31449306834,-0.0005453193042841,3.800560055904479,4.312671254970752,3.040655036213164,-2696239.996894514,-4297683.106703658,3852388.895607516
Raw,1619735726999,2123186000000,,-1303768821813691852,0.0,7.530031879253141,395.0,1.0,16,12,0.0,32995,5726932605383,49,36.454551696777344,-228.9186535118148,0.15,25,-13287.944073158422,0.0022539708297699,1601437440.0,0,3,C,991651461,1.3037709449996923e+18,20112135.858071715,14.689830442000002,GLO_G1,1.3037709449326054e+18,-14690456.296885183,-6054221.038061905,19985019.64241253,52.66083833967667,311.0748431670426,-1469.0307046392518,-2302.412666368308,-1777.4461354707057,67423.94509803077,0.0010906386085682,3.800560055904479,4.348992225844867,3.119481693231818,-2696239.996894514,-4297683.106703658,3852388.895607516
Raw,1619735726999,2123186000000,,-1303768821813691852,0.0,7.530031879253141,395.0,1.0,16,21,0.0,32833,5726931316781,111,26.29518699645996,516.0642188191337,0.9930660607908516,16,8273.877282023703,3.4028234663852886e+38,1604249980.0,0,3,C,991651461,1.3037709449996923e+18,20498449.019035432,33.276962838,GLO_G1,1.3037709449313167e+18,-818857.2465259597,-10459270.195377763,23247536.367862023,47.77228705421911,20.743838358849143,3188.582152847553,4.169124720752653,112.36867318474172,-61562.50341026048,-0.0008179789568708,3.800560055904479,4.4839819665802585,3.3484182187506235,-2696239.996894514,-4297683.106703658,3852388.895607516
Raw,1619735726999,2123186000000,,-1303768821813691852,0.0,7.530031879253141,395.0,1.0,16,194,0.0,16384,426944853128823,1000000000,18.4822006225586,108.42074195963608,299792458.0,16,6196.683731195404,3.4028234663852886e+38,1575420030.0,1,4,C,991651461,,,,,,,,,,,,,,,,,,,-2696239.996894514,-4297683.106703658,3852388.895607516
Raw,1619735726999,2123186000000,,-1303768821813691852,0.0,7.530031879253141,395.0,1.0,16,194,0.0,16384,426944853129018,1000000000,12.0,108.1489428894808,299792458.0,16,6195.232983565953,3.4028234663852886e+38,1176450050.0,0,4,X,991651461,,,,,,,,,,,,,,,,,,,-2696239.996894514,-4297683.106703658,3852388.895607516
Raw,1619735726999,2123186000000,,-1303768821813691852,0.0,7.530031879253141,395.0,1.0,16,4,0.0,16384,426930860728713,1000000000,24.34532928466797,115.41093450386666,299792458.0,16,0.417515489131813,3.4028234663852886e+38,1561097980.0,0,5,I,991651461,,,,,,,,,,,,,,,,,,,-2696239.996894514,-4297683.106703658,3852388.895607516
Raw,1619735726999,2123186000000,,-1303768821813691852,0.0,7.530031879253141,395.0,1.0,16,14,0.0,16384,426930914185133,1000000000,12.418767929077148,94.8031561002461,299792458.0,16,5265.134814390894,3.4028234663852886e+38,1561097980.0,0,5,I,991651461,,,,,,,,,,,,,,,,,,,-2696239.996894514,-4297683.106703658,3852388.895607516
Raw,1619735726999,2123186000000,,-1303768821813691852,0.0,7.530031879253141,395.0,1.0,16,16,0.0,16384,426930860279596,1000000000,13.333248138427734,326.74915825085714,299792458.0,16,18577.52277141608,3.4028234663852886e+38,1561097980.0,1,5,I,991651461,,,,,,,,,,,,,,,,,,,-2696239.996894514,-4297683.106703658,3852388.895607516
Raw,1619735726999,2123186000000,,-1303768821813691852,0.0,7.530031879253141,395.0,1.0,16,23,0.0,81955,426930909640862,36,22.863210678100582,771.0130587993644,1.147096730498351,16,43947.70691263573,3.4028234663852886e+38,1561097980.0,0,5,I,991651461,1.3037709449996923e+18,26996726.055454336,10.792528488000002,BDS_B1I,1.303770944909641e+18,-5112599.53540838,-22743591.566531364,-15338296.867099617,3.8166887773205738,163.09221814289523,1235.4289463876191,1251.330200528476,-2266.821991933886,-268782.6922272576,-0.0022573447845426,13.223982339093851,13.608539684987646,31.012282708072405,-2696239.996894514,-4297683.106703658,3852388.895607516
Raw,1619735726999,2123186000000,,-1303768821813691852,0.0,7.530031879253141,395.0,1.0,16,27,0.0,81967,426930926485109,6,43.7255859375,-10.064872129446108,0.15,25,-674.3268292831402,0.0010618241503834,1561097980.0,0,5,I,991651461,1.3037709449996923e+18,21946947.84416521,1.7987547480000003,BDS_B1I,1.303770944926485e+18,-17602701.07623123,-10211079.344628358,19064415.55991917,61.97415604894238,294.0465032275754,2136.9136578595267,-448.0611171814147,1732.9712133052449,156974.5612297048,0.0018089575113359,13.223982339093851,4.206885602931771,2.81066067662307,-2696239.996894514,-4297683.106703658,3852388.895607516
Raw,1619735726999,2123186000000,,-1303768821813691852,0.0,7.530031879253141,395.0,1.0,16,28,0.0,81967,426930923524966,6,43.479339599609375,440.0277920272872,0.15,25,25919.00789798016,0.0010923577938228,1561097980.0,0,5,I,991651461,1.3037709449996923e+18,22834376.390166704,1.7987547480000003,BDS_B1I,1.3037709449235249e+18,2658078.4105114643,-16268627.468496542,22516033.312708545,48.67675241587969,46.34606853443889,2535.51563629254,-432.6659683158466,-611.9920346061906,-24076.27044025257,0.0013705802687683,13.223982339093851,4.711156502407353,3.301724868161998,-2696239.996894514,-4297683.106703658,3852388.895607516
Raw,1619735726999,2123186000000,,-1303768821813691852,0.0,7.530031879253141,395.0,1.0,16,30,0.0,81967,426930914837478,27,26.62046813964844,-322.44164698322174,0.9790719505906412,16,-18431.017759773084,3.4028234663852886e+38,1561097980.0,1,5,I,991651461,1.3037709449996923e+18,25438819.771532208,8.094396366000002,BDS_B1I,1.3037709449148375e+18,-27336859.3809104,2473818.9695951394,4950125.662774065,14.752172462296354,261.63787361057507,529.1612973850428,-233.4301292956833,3036.260727276014,139129.26484255365,0.0007934993201666,13.223982339093851,9.80148971262816,9.584921939622248,-2696239.996894514,-4297683.106703658,3852388.895607516
Raw,1619735726999,2123186000000,,-1303768821813691852,0.0,7.530031879253141,395.0,1.0,16,36,0.0,16384,426930911802194,1000000000,21.10798454284668,-399.065757572891,299792458.0,16,-22833.517344749325,3.4028234663852886e+38,1561097980.0,0,5,I,991651461,,,,,,,,,,,,,,,,,,,-2696239.996894514,-4297683.106703658,3852388.895607516
Raw,1619735726999,2123186000000,,-1303768821813691852,0.0,7.530031879253141,395.0,1.0,16,37,0.0,81967,426930921606341,6,46.270050048828125,606.161328967009,0.15,25,34442.442260695934,0.0008350415155291,1561097980.0,0,5,I,991651461,1.3037709449996923e+18,23409565.69489695,1.7987547480000003,BDS_B1I,1.3037709449216064e+18,-18642471.068133976,-20766492.504429493,709459.2343678148,43.43081719292742,196.4409324709452,66.59522571395048,-162.644777068682,-3075.480037640649,-271090.4062576431,0.0028308524826166,13.223982339093851,5.553566628016547,3.605304297141972,-2696239.996894514,-4297683.106703658,3852388.895607516
Raw,1619735726999,2123186000000,,-1303768821813691852,0.0,7.530031879253141,395.0,1.0,16,2,0.0,85026,426944917849329,70,23.27938461303711,528.4120201576957,1.127699951833594,16,29974.045326859163,3.4028234663852886e+38,1575420030.0,0,6,C,991651461,1.3037709449996923e+18,24535889.557112448,20.985472060000003,GAL_E1,1.303770944917849e+18,-8899049.811488047,-28085860.768513422,2943506.682268067,47.28880069781074,153.7215931381255,-176.99940962443748,-261.2703251646004,-3021.5646026068407,64657.3477176384,0.0008048721726987,1.40837154743722,5.058107337044943,3.374261935775972,-2696239.996894514,-4297683.106703658,3852388.895607516
Raw,1619735726999,2123186000000,,-1303768821813691852,0.0,7.530031879253141,395.0,1.0,16,15,0.0,85026,426944915533935,33,32.47002410888672,-259.7692070123932,0.7147101783601002,25,-14888.37532725608,0.0036248343531042,1575420030.0,0,6,C,991651461,1.3037709449996923e+18,25230027.2156109,9.893151114000002,GAL_E1,1.3037709449155338e+18,-27454710.1654472,-10293810.0584661,4019539.777083139,34.94050880615059,238.3982989009613,346.8961531697566,259.56735877978304,3038.189210936854,244891.80392428653,-0.0006335101128368,1.40837154743722,6.321538533974472,4.322837975082123,-2696239.996894514,-4297683.106703658,3852388.895607516
Raw,1619735726999,2123186000000,,-1303768821813691852,0.0,7.530031879253141,395.0,1.0,16,18,0.0,85026,426944936598680,22,37.293155670166016,754.2558055657073,0.15,25,42658.63657343967,0.0022065204102545,1575420030.0,0,6,C,991651461,,,,,,,,,,,,,,,,,,,-2696239.996894514,-4297683.106703658,3852388.895607516
Raw,1619735726999,2123186000000,,-1303768821813691852,0.0,7.530031879253141,395.0,1.0,16,27,0.0,85026,426944910379818,59,25.41754913330078,-379.73732381915306,1.3268385530471392,16,-21675.89565014158,3.4028234663852886e+38,1575420030.0,1,6,C,991651461,1.3037709449996923e+18,26775192.619860485,17.687755022,GAL_E1,1.3037709449103798e+18,-14928732.093927857,7875217.913243352,24315491.04396542,20.55854545676964,317.8139972452552,-571.5301523180754,-2372.3508566739984,418.1406431816839,-6551.70208195612,-0.0024690698054568,1.40837154743722,7.530341203447664,7.008284209547586,-2696239.996894514,-4297683.106703658,3852388.895607516
Raw,1619735726999,2123186000000,,-1303768821813691852,0.0,7.530031879253141,395.0,1.0,16,30,0.0,85026,426944924528437,37,31.319753646850582,39.74066406305889,0.7658959704332529,25,2200.0515483157114,0.0041381074115633,1575420030.0,0,6,C,991651461,1.3037709449996923e+18,22533543.352544986,11.092320946,GAL_E1,1.3037709449245284e+18,-16898430.600698344,-15147932.761540208,19000124.88798012,73.79807933037112,286.60828115530603,-512.1386399431775,-1839.1400496859,-1919.348953496344,894869.8792804807,-0.0092095736013207,1.40837154743722,3.863182741104813,2.5843054151657423,-2696239.996894514,-4297683.106703658,3852388.895607516
Raw,1619735726999,2123186000000,,-1303768821813691852,0.0,7.530031879253141,395.0,1.0,16,36,0.0,85026,426944914200321,92,20.038673400878903,549.1608743694783,1.2734940500705134,16,31284.22974154749,3.4028234663852886e+38,1575420030.0,1,6,C,991651461,1.3037709449996923e+18,25629834.634694114,27.580906136000003,GAL_E1,1.3037709449142003e+18,8722690.73157415,-14101834.156827128,24523434.644973125,34.08758366754479,44.65418907860315,2381.015309588357,631.2304180175739,-482.7595527659067,-60090.87781766958,-0.0015500809643425,1.40837154743722,5.71288249102017,4.416675985284199,-2696239.996894514,-4297683.106703658,3852388.895607516
Raw,1619735726999,2123186000000,,-1303768821813691852,0.0,7.530031879253141,395.0,1.0,16,2,0.0,84003,426944917849489,14,31.815841674804688,527.5021548983627,0.7459835614789925,25,29971.01084392668,0.0052338386885821,1176450050.0,0,6,X,991651461,1.3037709449996923e+18,24535841.590319168,4.197094412,GAL_E5A,1.3037709449178496e+18,-8899049.811516263,-28085860.76855497,2943506.681787397,47.28880069678119,153.72159313875795,-176.9994096106953,-261.27032511779623,-3021.5646026141903,64657.621552154975,0.0008048721724763,3.0797109577380284,9.070556755789571,3.374263818789164,-2696239.996894514,-4297683.106703658,3852388.895607516
Raw,1619735726999,2123186000000,,-1303768821813691852,0.0,7.530031879253141,395.0,1.0,16,15,0.0,84003,426944915533945,73,25.289241790771484,-259.730864248805,1.0390608018394696,16,-14882.41736503462,3.4028234663852886e+38,1176450050.0,0,6,X,991651461,1.3037709449996923e+18,25230024.21768632,21.884849434000003,GAL_E5A,1.3037709449155338e+18,-27454710.165442057,-10293810.05846217,4019539.777128328,34.94050880622151,238.3982989010505,346.8961531735957,259.5673587824218,3038.1892109359733,244890.3427221014,-0.0006292498046402,3.0797109577380284,11.336226973771169,4.322837975074519,-2696239.996894514,-4297683.106703658,3852388.895607516
Raw,1619735726999,2123186000000,,-1303768821813691852,0.0,7.530031879253141,395.0,1.0,16,18,0.0,84003,426944936598731,52,27.120990753173828,753.4955622905095,0.9604783063750006,16,42668.87138673078,3.4028234663852886e+38,1176450050.0,0,6,X,991651461,,,,,,,,,,,,,,,,,,,-2696239.996894514,-4297683.106703658,3852388.895607516
Raw,1619735726999,2123186000000,,-1303768821813691852,0.0,7.530031879253141,395.0,1.0,16,27,0.0,16384,426944910379787,1000000000,17.38436508178711,-379.9230050422893,299792458.0,16,-21669.82294902206,3.4028234663852886e+38,1176450050.0,1,6,X,991651461,,,,,,,,,,,,,,,,,,,-2696239.996894514,-4297683.106703658,3852388.895607516
Raw,1619735726999,2123186000000,,-1303768821813691852,0.0,7.530031879253141,395.0,1.0,16,30,0.0,16384,426944924528424,1000000000,14.813087463378906,38.97446061827665,299792458.0,16,2193.6196724580414,3.4028234663852886e+38,1176450050.0,0,6,X,991651461,,,,,,,,,,,,,,,,,,,-2696239.996894514,-4297683.106703658,3852388.895607516
Raw,1619735726999,2123186000000,,-1303768821813691852,0.0,7.530031879253141,395.0,1.0,16,36,0.0,84003,426944914200354,58,26.52350616455078,550.0052331473744,0.9833175462831574,29,31294.162677948345,0.0096258036792278,1176450050.0,0,6,X,991651461,1.3037709449996923e+18,25629824.741543,17.387962564000002,GAL_E5A,1.3037709449142003e+18,8722690.731615009,-14101834.156282818,24523434.64525748,34.08758366691447,44.65418907712586,2381.015312516992,631.2303856343204,-482.7595715735798,-60092.19337754663,-0.0015458206570582,3.0797109577380284,10.244742200857653,4.416675985355449,-2696239.996894514,-4297683.106703658,3852388.895607516
Raw,1619735727999,2124186000000,,-1303768821813691457,0.0,7.553106097664775,395.0,1.0,16,2,0.0,16397,426945928200686,15,42.49837493896485,444.6077243699094,0.15,25,26555.35016920352,0.0012118448503315,1575420030.0,0,1,C,1997854961,1.3037709459996923e+18,21432630.79844694,4.496886870000001,GPS_L1,1.3037709459282007e+18,-2595455.047060089,-16938495.19615709,20936541.159837574,62.43471352192582,43.76892164803202,2342.846014707068,910.4868381860769,1065.4434919125504,-179889.35455085442,0.0008441928836368,0.0,4.038030544681042,2.7988005476212034,-2696237.757626288,-4297684.517389262,3852387.9810294015
Raw,1619735727999,2124186000000,,-1303768821813691457,0.0,7.553106097664775,395.0,1.0,16,5,0.0,16397,426945923103281,22,37.633296966552734,-499.3895473776313,0.15,25,-29044.405417368605,0.0021217826288193,1575420030.0,0,1,C,1997854961,1.3037709459996923e+18,22960794.37281843,6.595434076000001,GPS_L1,1.3037709459231032e+18,-5137892.063764641,-25636840.09337414,-4228970.84679151,27.183526218246417,152.98558361556778,261.9335238529938,-545.1007175420617,3115.182134228867,-12138.394292332556,-0.0006283346195282,0.0,7.446770477671317,5.40806066866985,-2696237.757626288,-4297684.517389262,3852387.9810294015
Raw,1619735727999,2124186000000,,-1303768821813691457,0.0,7.553106097664775,395.0,1.0,16,6,0.0,16397,426945922109727,19,39.48427200317383,726.0346454209507,0.15,25,42050.43385764986,0.0017145577585324,1575420030.0,0,1,C,1997854961,1.3037709459996923e+18,23258654.36863416,5.696056702000001,GPS_L1,1.3037709459221097e+18,10343085.420694085,-11041836.471852385,21896876.899636164,25.43904578680721,44.14197459839095,2435.5577754070155,1295.0250907019763,-492.8877990546326,3376.9007300338794,0.0011925482612342,0.0,6.57559327441297,5.7473696878082885,-2696237.757626288,-4297684.517389262,3852387.9810294015
Raw,1619735727999,2124186000000,,-1303768821813691457,0.0,7.553106097664775,395.0,1.0,16,12,0.0,16397,426945932569484,22,37.480079650878906,189.8780345851203,0.15,25,11191.946609077562,0.0021595424041152,1575420030.0,0,1,C,1997854961,1.3037709459996923e+18,20122898.107521456,6.595434076000001,GPS_L1,1.3037709459325696e+18,-10091360.126709845,-18915388.813068807,15520297.868111858,85.34127744831257,112.96275401900382,216.90110957229305,-2003.5809237288624,-2249.676246294556,-10336.590416898798,-0.0018892147599571,0.0,3.771603768247876,2.4901249945161514,-2696237.757626288,-4297684.517389262,3852387.9810294015
Raw,1619735727999,2124186000000,,-1303768821813691457,0.0,7.553106097664775,395.0,1.0,16,19,0.0,16397,426945916297148,27,34.89728927612305,664.0849409819166,0.6071351616718514,25,38513.19866119616,0.0027411007322371,1575420030.0,0,1,C,1997854961,1.3037709459996923e+18,25001221.714363344,8.094396366000002,GPS_L1,1.3037709459162972e+18,18514453.166199923,-16315198.361417104,9387617.25442768,5.725285062399561,78.26079212542173,1198.6467136161298,-362.9021911067733,-2916.8603956846987,-1921.3068312443484,0.0009022373246441,0.0,9.69535379779122,22.580970924831696,-2696237.757626288,-4297684.517389262,3852387.9810294015
Raw,1619735727999,2124186000000,,-1303768821813691457,0.0,7.553106097664775,395.0,1.0,16,20,0.0,16384,426945914580879,1000000000,12.0,-533.5645036874446,299792458.0,16,-30896.699700057856,3.4028234663852886e+38,1575420030.0,1,1,C,1997854961,,,,,,,,,,,,,,,,,,,-2696237.757626288,-4297684.517389262,3852387.9810294015
Raw,1619735727999,2124186000000,,-1303768821813691457,0.0,7.553106097664775,395.0,1.0,16,24,0.0,16397,426945918810892,20,38.52983093261719,734.4729163366942,0.15,25,42595.92059327063,0.0019137015333399,1575420030.0,0,1,C,1997854961,1.3037709459996923e+18,24247620.2218206,5.995849160000001,GPS_L1,1.303770945918811e+18,-19745280.56415916,-15774614.21943614,-9039648.577766553,16.99811641507624,201.07488507375763,1131.0904332594014,170.8311235799868,-2807.052378627865,13610.419871749533,0.0091889386733378,0.0,9.687571270130611,8.383724058652925,-2696237.757626288,-4297684.517389262,3852387.9810294015
Raw,1619735727999,2124186000000,,-1303768821813691457,0.0,7.553106097664775,395.0,1.0,16,25,0.0,16397,426945929396991,30,33.70928955078125,-271.91374058025315,0.6593169336561258,25,-16468.716068474383,0.0031428595539182,1575420030.0,0,1,C,1997854961,1.3037709459996923e+18,21073987.58197925,8.993773740000002,GPS_L1,1.303770945929397e+18,-14950985.881620178,-5660009.866502984,20989649.035434112,51.39614164600996,312.8520267689269,-74.27328874482257,-2721.421715127589,-750.4573103164425,38371.29752362506,0.0014817256117668,0.0,4.557438056461386,3.173479715632982,-2696237.757626288,-4297684.517389262,3852387.9810294015
Raw,1619735727999,2124186000000,,-1303768821813691457,0.0,7.553106097664775,395.0,1.0,16,29,0.0,16388,426945922054473,1000000000,28.390766143798828,-325.42447541318506,299792458.0,16,-19127.772880174536,3.4028234663852886e+38,1575420030.0,1,1,C,1997854961,,,,,,,,,,,,,,,,,,,-2696237.757626288,-4297684.517389262,3852387.9810294015
Raw,1619735727999,2124186000000,,-1303768821813691457,0.0,7.553106097664775,395.0,1.0,16,31,0.0,16384,426945914983348,1000000000,15.530441284179688,-312.824054906876,299792458.0,16,-18269.78764016344,3.4028234663852886e+38,1575420030.0,1,1,C,1997854961,,,,,,,,,,,,,,,,,,,-2696237.757626288,-4297684.517389262,3852387.9810294015
Raw,1619735727999,2124186000000,,-1303768821813691457,0.0,7.553106097664775,395.0,1.0,16,6,0.0,81921,426945922109733,41,29.63005256652832,725.9391463777738,0.8414447944307022,25,42035.543911595065,0.0067314659245312,1176450050.0,0,1,X,1997854961,1.3037709459996923e+18,23258652.569879413,12.291490778000002,GPS_L5,1.3037709459221097e+18,10343085.42071678,-11041836.471840318,21896876.899631564,25.439045786744675,44.14197459839728,2435.557775409799,1295.025090702887,-492.8877990588339,3375.9040527658262,0.0011925482612367,-10.418426488389994,11.791815781160333,5.747369687821306,-2696237.757626288,-4297684.517389262,3852387.9810294015
Raw,1619735727999,2124186000000,,-1303768821813691457,0.0,7.553106097664775,395.0,1.0,16,24,0.0,81921,426945918810878,54,26.598556518554688,733.8386418208047,1.064004566870612,16,42606.61334661636,3.4028234663852886e+38,1176450050.0,0,1,X,1997854961,1.3037709459996923e+18,24247624.418915004,16.188792732000003,GPS_L5,1.303770945918811e+18,-19745280.56417247,-15774614.219438158,-9039648.577733478,16.998116415148328,201.0748850737997,1131.0904332548173,170.83112357932453,-2807.052378629241,13609.755420237365,0.0091889386734086,-10.418426488389994,17.37243333288849,8.383724058619343,-2696237.757626288,-4297684.517389262,3852387.9810294015
Raw,1619735727999,2124186000000,,-1303768821813691457,0.0,7.553106097664775,395.0,1.0,16,25,0.0,81921,426945929397001,19,30.8983154296875,-272.00240609089724,0.7857232398135041,25,-16457.85074979967,0.0058169662952423,1176450050.0,0,1,X,1997854961,1.3037709459996923e+18,21073984.58405467,5.696056702000001,GPS_L5,1.303770945929397e+18,-14950985.881621243,-5660009.866542275,20989649.03542328,51.39614164611748,312.85202676889304,-74.27328874691285,-2721.421715126018,-750.4573103230447,38369.968620600994,0.001481725611888,-10.418426488389994,8.17271807318654,3.173479715628246,-2696237.757626288,-4297684.517389262,3852387.9810294015
Raw,1619735727999,2124186000000,,-1303768821813691457,0.0,7.553106097664775,395.0,1.0,16,22,0.0,32833,5727932878361,86,29.417282104492188,-12.814520107724787,0.8529498202279813,25,-902.5975684364796,0.005071273073554,1600312450.0,0,3,C,1997854961,1.3037709459996923e+18,20030299.11247179,25.782151388000003,GLO_G1,1.3037709459328783e+18,-17674961.876798254,-7550879.233553183,16695007.3511671,54.66417709010245,288.63089184826987,2296.922634667282,181.3677878924904,2520.2587845221574,-33066.31503838765,-0.0005453193045266,8.797692356406824,4.312484174334478,3.040554775672261,-2696237.757626288,-4297684.517389262,3852387.9810294015
Raw,1619735727999,2124186000000,,-1303768821813691457,0.0,7.553106097664775,395.0,1.0,16,12,0.0,32995,5727932606134,48,36.584754943847656,-228.64819217807803,0.15,25,-13516.753848383774,0.0022204353008419,1601437440.0,0,3,C,1997854961,1.3037709459996923e+18,20111910.713935755,14.390037984000005,GLO_G1,1.3037709459326062e+18,-14691925.359811852,-6056523.288821412,19983241.95555471,52.66720739973404,311.0639387571474,-1469.0928132274703,-2302.0856169421536,-1777.924749160889,67423.9461886702,0.0010906386090533,8.797692356406824,4.348679954112118,3.1192182511795856,-2696237.757626288,-4297684.517389262,3852387.9810294015
Raw,1619735727999,2124186000000,,-1303768821813691457,0.0,7.553106097664775,395.0,1.0,16,21,0.0,32833,5727931315010,87,29.32635307312012,517.0412946827296,0.8567576693695327,25,8790.740724789135,0.0051120617426931,1604249980.0,1,3,C,1997854961,1.3037709459996923e+18,20498979.95147855,26.081943846000005,GLO_G1,1.303770945931315e+18,-815668.6620737641,-10459266.161115868,23247648.45702518,47.76571786247128,20.75269013400701,3188.598022341287,3.899675828146024,111.81023073324728,-61562.50422823799,-0.0008179789569516,8.797692356406824,4.4843254870509766,3.34876522653653,-2696237.757626288,-4297684.517389262,3852387.9810294015
Raw,1619735727999,2124186000000,,-1303768821813691457,0.0,7.553106097664775,395.0,1.0,16,194,0.0,16384,426945853128522,1000000000,18.732749938964844,108.42074195963608,299792458.0,16,6304.594327916608,3.4028234663852886e+38,1575420030.0,1,4,C,1997854961,,,,,,,,,,,,,,,,,,,-2696237.757626288,-4297684.517389262,3852387.9810294015
Raw,1619735727999,2124186000000,,-1303768821813691457,0.0,7.553106097664775,395.0,1.0,16,194,0.0,16384,426945853128655,1000000000,12.0,108.1489428894808,299792458.0,16,6303.381928062009,3.4028234663852886e+38,1176450050.0,1,4,X,1997854961,,,,,,,,,,,,,,,,,,,-2696237.757626288,-4297684.517389262,3852387.9810294015
Raw,1619735727999,2124186000000,,-1303768821813691457,0.0,7.553106097664775,395.0,1.0,16,4,0.0,16384,426931860728326,1000000000,21.31024932861328,115.41093450386666,299792458.0,16,0.42022307699019,3.4028234663852886e+38,1561097980.0,0,5,I,1997854961,,,,,,,,,,,,,,,,,,,-2696237.757626288,-4297684.517389262,3852387.9810294015
Raw,1619735727999,2124186000000,,-1303768821813691457,0.0,7.553106097664775,395.0,1.0,16,14,0.0,16384,426931914184888,1000000000,24.15350151062012,94.75019196280964,299792458.0,16,5360.222463820385,3.4028234663852886e+38,1561097980.0,0,5,I,1997854961,,,,,,,,,,,,,,,,,,,-2696237.757626288,-4297684.517389262,3852387.9810294015
Raw,1619735727999,2124186000000,,-1303768821813691457,0.0,7.553106097664775,395.0,1.0,16,16,0.0,16384,426931860278506,1000000000,12.0,326.74915825085714,299792458.0,16,18904.2719293722,3.4028234663852886e+38,1561097980.0,1,5,I,1997854961,,,,,,,,,,,,,,,,,,,-2696237.757626288,-4297684.517389262,3852387.9810294015
Raw,1619735727999,2124186000000,,-1303768821813691457,0.0,7.553106097664775,395.0,1.0,16,23,0.0,81955,426931909638290,38,22.37917709350586,770.9478249775798,1.1688627724298266,16,44718.63410389143,3.4028234663852886e+38,1561097980.0,0,5,I,1997854961,1.3037709459996923e+18,26997497.12165631,11.392113404000002,BDS_B1I,1.3037709459096384e+18,-5111363.985076721,-22742340.18151449,-15340563.542541027,3.810722614294048,163.09193205176578,1235.678072593391,1251.44626155517,-2266.540543843844,-268782.69448459696,-0.0022573455169859,13.871613676506149,13.610543046672229,31.047462572085177,-2696237.757626288,-4297684.517389262,3852387.9810294015
Raw,1619735727999,2124186000000,,-1303768821813691457,0.0,7.553106097664775,395.0,1.0,16,27,0.0,81967,426931926485137,6,43.44234085083008,-9.98415422163243,0.15,25,-684.360590174373,0.0010970209259539,1561097980.0,0,5,I,1997854961,1.3037709459996923e+18,21946939.44997638,1.7987547480000003,BDS_B1I,1.3037709459264852e+18,-17600564.07996671,-10211527.49544532,19066148.35558052,61.97724427340475,294.0603670150895,2137.078240399332,-448.2393874240833,1732.6207091631782,156974.5630386623,0.0018089574790792,13.871613676506149,4.206738306491241,2.810580331715272,-2696237.757626288,-4297684.517389262,3852387.9810294015
Raw,1619735727999,2124186000000,,-1303768821813691457,0.0,7.553106097664775,395.0,1.0,16,28,0.0,81967,426931923523500,6,43.74895095825195,440.0613632469622,0.15,25,26359.046596563472,0.001058971742168,1561097980.0,0,5,I,1997854961,1.3037709459996923e+18,22834815.885910127,1.7987547480000003,BDS_B1I,1.3037709459235236e+18,2660613.873327968,-16269060.213342648,22515421.11465996,48.67147176339804,46.35199591758403,2535.417889263272,-432.8238910685914,-612.4050393765482,-24076.26906967449,0.0013705799192899,13.871613676506149,4.71144513043892,3.3019913513501047,-2696237.757626288,-4297684.517389262,3852387.9810294015
Raw,1619735727999,2124186000000,,-1303768821813691457,0.0,7.553106097664775,395.0,1.0,16,30,0.0,81967,426931914838540,28,25.88237762451172,-323.1803160634406,1.0122631375619204,16,-18753.76468410424,3.4028234663852886e+38,1561097980.0,1,5,I,1997854961,1.3037709459996923e+18,25438501.39194181,8.394188824,BDS_B1I,1.3037709459148385e+18,-27336330.05706786,2473585.484208417,4953161.881142902,14.756527750358702,261.6433487141772,529.4841166518112,-233.5396242709339,3036.169740703071,139129.2656360531,0.0007934979270632,13.871613676506149,9.800417081406568,9.58224778868978,-2696237.757626288,-4297684.517389262,3852387.9810294015
Raw,1619735727999,2124186000000,,-1303768821813691457,0.0,7.553106097664775,395.0,1.0,16,36,0.0,16384,426931911803513,1000000000,16.056488037109375,-399.065757572891,299792458.0,16,-23232.706150443424,3.4028234663852886e+38,1561097980.0,0,5,I,1997854961,,,,,,,,,,,,,,,,,,,-2696237.757626288,-4297684.517389262,3852387.9810294015
Raw,1619735727999,2124186000000,,-1303768821813691457,0.0,7.553106097664775,395.0,1.0,16,37,0.0,81967,426931921604319,6,46.900123596191406,606.2222002343588,0.15,25,35048.621832676065,0.0007766125490888,1561097980.0,0,5,I,1997854961,1.3037709459996923e+18,23410171.875247028,1.7987547480000003,BDS_B1I,1.3037709459216044e+18,-18642404.363267057,-20766655.01822037,706383.7540485698,43.42358318981867,196.4380985471144,66.81399525201155,-162.38440624292318,-3075.493008892966,-271090.4034267992,0.0028308467764873,13.871613676506149,5.554248125280214,3.6057828181326497,-2696237.757626288,-4297684.517389262,3852387.9810294015
Raw,1619735727999,2124186000000,,-1303768821813691457,0.0,7.553106097664775,395.0,1.0,16,2,0.0,85026,426945917847577,77,22.10568618774414,528.9037959228633,1.1804794315856777,16,30500.148250947,3.4028234663852886e+38,1575420030.0,1,6,C,1997854961,1.3037709459996923e+18,24536414.793498863,23.084019266,GAL_E1,1.3037709459178476e+18,-8899226.784888966,-28086121.883956622,2940485.1003285646,47.282348833609895,153.72561230347156,-176.9481516080805,-260.9625435331733,-3021.609787546397,64657.34852251006,0.0008048739693953,-3.9451139358356855,5.058595780094123,3.3746112386644342,-2696237.757626288,-4297684.517389262,3852387.9810294015
Raw,1619735727999,2124186000000,,-1303768821813691457,0.0,7.553106097664775,395.0,1.0,16,15,0.0,85026,426945915534827,30,33.613609313964844,-259.65852423483534,0.6632846108799257,25,-15148.111871054836,0.0031776714604347,1575420030.0,0,6,C,1997854961,1.3037709459996923e+18,25229759.800738364,8.993773740000002,GAL_E1,1.3037709459155348e+18,-27454363.11139896,-10293550.464347191,4022577.938032101,34.94526634199171,238.40432548391672,347.2102188072892,259.62029927979324,3038.127368205752,244891.8032907768,-0.0006335082668455,-3.9451139358356855,6.320894003049856,4.322328100865662,-2696237.757626288,-4297684.517389262,3852387.9810294015
Raw,1619735727999,2124186000000,,-1303768821813691457,0.0,7.553106097664775,395.0,1.0,16,18,0.0,85026,426945936596171,21,38.065189361572266,754.467457620714,0.15,25,43412.98607962296,0.0020188598427921,1575420030.0,0,6,C,1997854961,,,,,,,,,,,,,,,,,,,-2696237.757626288,-4297684.517389262,3852387.9810294015
Raw,1619735727999,2124186000000,,-1303768821813691457,0.0,7.553106097664775,395.0,1.0,16,27,0.0,85026,426945910381076,62,24.780834197998047,-379.7800632196327,1.060277131024919,16,-22055.368394269302,3.4028234663852886e+38,1575420030.0,1,6,C,1997854961,1.3037709459996923e+18,26774815.48094832,18.587132396,GAL_E1,1.303770945910381e+18,-14929303.722790616,7872845.561513867,24315908.998259123,20.56370565442345,317.8136753448959,-571.7261337882013,-2372.346624745782,417.766891670072,-6551.704551028081,-0.0024690679061295,-3.9451139358356855,7.529633801473735,7.006633495729719,-2696237.757626288,-4297684.517389262,3852387.9810294015
Raw,1619735727999,2124186000000,,-1303768821813691457,0.0,7.553106097664775,395.0,1.0,16,30,0.0,85026,426945924528304,37,31.26092529296875,39.96713346603883,0.7685413548516444,25,2239.8854385156765,0.0041662300936877,1575420030.0,0,6,C,1997854961,1.3037709459996923e+18,22533583.22494189,11.092320946,GAL_E1,1.3037709459245284e+18,-16898942.788730994,-15149771.787414778,18998205.392990105,73.80123696681737,286.5875113821969,-512.2369441526735,-1838.913041561547,-1919.641051433018,894869.8700709104,-0.0092095690061493,-3.9451139358356855,3.863138336274776,2.5842641797010497,-2696237.757626288,-4297684.517389262,3852387.9810294015
Raw,1619735727999,2124186000000,,-1303768821813691457,0.0,7.553106097664775,395.0,1.0,16,36,0.0,84002,426945914198501,1000000000,26.69498634338379,549.2147928156974,299792458.0,16,31833.347230423613,3.4028234663852886e+38,1575420030.0,1,6,C,1997854961,,,,,,,,,,,,,,,,,,,-2696237.757626288,-4297684.517389262,3852387.9810294015
Raw,1619735727999,2124186000000,,-1303768821813691457,0.0,7.553106097664775,395.0,1.0,16,2,0.0,84003,426945917847730,13,32.52213287353516,527.455496015383,0.7142221069319259,25,30498.463458566614,0.0048250933177769,1176450050.0,0,6,X,1997854961,1.3037709459996923e+18,24536368.925252788,3.897301954000001,GAL_E5A,1.3037709459178478e+18,-8899226.784915881,-28086121.88399632,2940485.099869005,47.28234883262553,153.72561230407592,-176.94815160067648,-260.96254348553094,-3021.6097875524056,64657.62235702662,0.0008048739693751,4.582370118664708,9.071432489058846,3.374613106239416,-2696237.757626288,-4297684.517389262,3852387.9810294015
Raw,1619735727999,2124186000000,,-1303768821813691457,0.0,7.553106097664775,395.0,1.0,16,15,0.0,84003,426945915534811,86,24.02669715881348,-259.8125598970902,1.095836183349661,16,-15142.1446032798,3.4028234663852886e+38,1176450050.0,0,6,X,1997854961,1.3037709459996923e+18,25229764.59741769,25.782151388000003,GAL_E5A,1.3037709459155348e+18,-27454363.1114028,-10293550.464350138,4022577.9379982944,34.94526634193866,238.4043254838499,347.21021880280847,259.62029928214224,3038.1273682065967,244890.342092852,-0.0006292479592957,4.582370118664708,11.335071155670324,4.322328100871347,-2696237.757626288,-4297684.517389262,3852387.9810294015
