MessageType,Provider,LatitudeDegrees,LongitudeDegrees,AltitudeMeters,SpeedMps,AccuracyMeters,BearingDegrees,UnixTimeMillis
Fix,GT,37.395817,-122.102916,-4.488,0.0014129388,0.1,118.020386,1619735725999
Fix,GT,37.3958171,-122.102916,-4.488,0.0019981952,0.1,118.01929,1619735726999
Fix,GT,37.3958171,-122.102916,-4.488,0.0022322542,0.1,118.01761,1619735727999
Fix,GT,37.3958171,-122.102916,-4.488,0.001,0.1,118.01596,1619735728999
Fix,GT,37.3958171,-122.102916,-4.488,0.001,0.1,118.01483,1619735729999
Fix,GT,37.3958171,-122.102916,-4.488,0.0014129307,0.1,118.01367,1619735730999
Fix,GT,37.3958171,-122.102916,-4.488,0.001,0.1,118.012115,1619735731999
Fix,GT,37.3958171,-122.102916,-4.488,0.001,0.1,118.0108,1619735732999
Fix,GT,37.3958171,-122.102916,-4.488,0.001,0.1,118.00949,1619735733999
Fix,GT,37.3958171,-122.102916,-4.488,0.001,0.1,118.00821,1619735734999
Fix,GT,37.3958171,-122.102916,-4.488,0.0010012912,0.1,118.006714,1619735735999
Fix,GT,37.3958171,-122.102916,-4.488,0.001,0.1,118.00534,1619735736999
Fix,GT,37.3958171,-122.102916,-4.488,0.0010012945,0.1,118.003845,1619735737999
Fix,GT,37.3958171,-122.102916,-4.488,0.0014129175,0.1,118.0025,1619735738999
Fix,GT,37.3958171,-122.102916,-4.488,0.001,0.1,118.00125,1619735739999
Fix,GT,37.3958171,-122.102916,-4.488,0.001,0.1,118.00003,1619735740999
Fix,GT,37.3958171,-122.102916,-4.488,0.001,0.1,117.99893,1619735741999
Fix,GT,37.3958171,-122.102916,-4.488,0.001,0.1,117.997406,1619735742999
Fix,GT,37.3958171,-122.102916,-4.488,0.001,0.1,117.99603,1619735743999
Fix,GT,37.3958171,-122.102916,-4.488,0.001,0.1,117.99451,1619735744999
Fix,GT,37.3958171,-122.102916,-4.488,0.001,0.1,117.993286,1619735745999
Fix,GT,37.3958171,-122.102916,-4.488,4.469673e-06,0.1,117.99219,1619735746999
Fix,GT,37.3958171,-122.102916,-4.488,0.0014129028,0.1,117.99072,1619735747999
Fix,GT,37.3958171,-122.102916,-4.488,0.0009968316,0.1,117.98932,1619735748999
Fix,GT,37.3958171,-122.102916,-4.488,0.001,0.1,117.987854,1619735749999
Fix,GT,37.3958171,-122.102916,-4.488,0.001,0.1,117.98645,1619735750999
Fix,GT,37.3958171,-122.102916,-4.488,0.0,0.1,117.98526,1619735751999
Fix,GT,37.3958171,-122.102916,-4.488,3.1843188e-06,0.1,117.98407,1619735752999
Fix,GT,37.3958171,-122.102916,-4.488,0.0014097047,0.1,117.982666,1619735753999
Fix,GT,37.3958171,-122.102916,-4.488,3.1921866e-06,0.1,117.98123,1619735754999
Fix,GT,37.3958171,-122.102916,-4.488,0.0,0.1,117.98004,1619735755999
Fix,GT,37.3958171,-122.102916,-4.488,0.0009968,0.1,117.97882,1619735756999
Fix,GT,37.3958171,-122.102916,-4.488,0.001,0.1,117.97748,1619735757999
Fix,GT,37.3958171,-122.102916,-4.488,0.0022334314,0.1,117.976135,1619735758999
Fix,GT,37.3958171,-122.102916,-4.488,0.0,0.1,117.974915,1619735759999
Fix,GT,37.3958171,-122.102916,-4.488,0.0,0.1,117.97345,1619735760999
Fix,GT,37.3958171,-122.102916,-4.488,0.0,0.1,117.972046,1619735761999
Fix,GT,37.3958171,-122.102916,-4.488,0.0,0.1,117.970764,1619735762999
Fix,GT,37.3958171,-122.102916,-4.488,0.0,0.1,117.969666,1619735763999
Fix,GT,37.3958171,-122.102916,-4.488,3.2317043e-06,0.1,117.968445,1619735764999
Fix,GT,37.3958171,-122.102916,-4.488,0.0009967644,0.1,117.96738,1619735765999
Fix,GT,37.3958171,-122.102916,-4.488,3.2395722e-06,0.1,117.966125,1619735766999
Fix,GT,37.3958171,-122.102916,-4.488,0.001,0.1,117.96466,1619735767999
Fix,GT,37.3958171,-122.102916,-4.488,0.0,0.1,117.96307,1619735768999
Fix,GT,37.3958171,-122.102916,-4.488,0.0,0.1,117.96188,1619735769999
Fix,GT,37.3958171,-122.102916,-4.488,0.0009967446,0.1,117.96063,1619735770999
Fix,GT,37.3958171,-122.102916,-4.488,0.001,0.1,117.95947,1619735771999
Fix,GT,37.3958171,-122.102916,-4.488,0.0010013519,0.1,117.95801,1619735772999
Fix,GT,37.3958171,-122.102916,-4.488,0.001,0.1,117.95679,1619735773999
Fix,GT,37.3958171,-122.102916,-4.488,0.0010040435,0.1,117.95584,1619735774999
Fix,GT,37.3958171,-122.102916,-4.488,0.0009967248,0.1,117.95453,1619735775999
Fix,GT,37.3958171,-122.102916,-4.488,3.2791497e-06,0.1,117.953125,1619735776999
Fix,GT,37.3958171,-122.102916,-4.488,0.001,0.1,117.95184,1619735777999
Fix,GT,37.3958171,-122.102916,-4.488,0.0,0.1,117.95041,1619735778999
Fix,GT,37.3958171,-122.102916,-4.488,4.6541077e-06,0.1,117.94919,1619735779999
Fix,GT,37.3958171,-122.102916,-4.488,3.2948853e-06,0.1,117.947815,1619735780999
Fix,GT,37.3958171,-122.102916,-4.488,0.0019967014,0.1,117.94632,1619735781999
Fix,GT,37.3958171,-122.102916,-4.488,4.6708824e-06,0.1,117.94571,1619735782999
Fix,GT,37.3958171,-122.102916,-4.488,0.0010013698,0.1,117.94446,1619735783999
Fix,GT,37.3958171,-122.102916,-4.488,0.001,0.1,117.94327,1619735784999
Fix,GT,37.3958171,-122.102916,-4.488,0.001,0.1,117.94208,1619735785999
Fix,GT,37.3958171,-122.102916,-4.488,0.001,0.1,117.94092,1619735786999
Fix,GT,37.3958171,-122.102916,-4.488,0.001,0.1,117.939514,1619735787999
Fix,GT,37.3958171,-122.102916,-4.488,0.001,0.1,117.93823,1619735788999
Fix,GT,37.3958171,-122.102916,-4.488,0.001,0.1,117.93695,1619735789999
Fix,GT,37.3958171,-122.102916,-4.488,0.001,0.1,117.93573,1619735790999
Fix,GT,37.3958171,-122.102916,-4.488,0.001,0.1,117.93445,1619735791999
Fix,GT,37.3958171,-122.102916,-4.488,0.001,0.1,117.93317,1619735792999
Fix,GT,37.3958171,-122.102916,-4.488,0.001,0.1,117.93201,1619735793999
Fix,GT,37.3958171,-122.102916,-4.488,0.001,0.1,117.93088,1619735794999
Fix,GT,37.3958171,-122.102916,-4.488,0.0014128243,0.1,117.92938,1619735795999
Fix,GT,37.3958171,-122.102916,-4.488,0.0019966417,0.1,117.92822,1619735796999
Fix,GT,37.3958171,-122.102916,-4.488,0.0010013926,0.1,117.92728,1619735797999
Fix,GT,37.3958171,-122.102916,-4.488,0.0022333015,0.1,117.92587,1619735798999
Fix,GT,37.3958171,-122.102916,-4.488,0.0014142136,0.1,117.92456,1619735799999
Fix,GT,37.3958171,-122.102916,-4.488,0.0036029292,0.1,117.923584,1619735800999
Fix,GT,37.3958171,-122.102916,-4.488,0.003159149,0.1,117.92224,1619735801999
Fix,GT,37.3958171,-122.102916,-4.488,0.0030005488,0.1,117.92102,1619735802999
Fix,GT,37.3958171,-122.102916,-4.488,0.0030033858,0.1,117.91989,1619735803999
Fix,GT,37.3958171,-122.102916,-4.488,0.0041226884,0.1,117.9187,1619735804999
Fix,GT,37.3958171,-122.102916,-4.488,0.0041231057,0.1,117.91748,1619735805999
Fix,GT,37.3958171,-122.102916,-4.488,0.004472136,0.1,117.91626,1619735806999
Fix,GT,37.3958171,-122.102916,-4.488,0.0042404733,0.1,117.9151,1619735807999
Fix,GT,37.3958172,-122.1029161,-4.48899659448862,0.0031591235,0.1,117.914,1619735808999
Fix,GT,37.3958172,-122.1029162,-4.489,0.0041198297,0.1,117.91272,1619735809999
Fix,GT,37.3958172,-122.1029162,-4.489,0.006398335,0.1,117.91138,1619735810999
Fix,GT,37.3958172,-122.1029162,-4.489,0.008062257,0.1,117.90997,1619735811999
Fix,GT,37.3958172,-122.1029162,-4.489,0.0117047,0.1,117.90863,1619735812999
Fix,GT,37.3958172,-122.1029162,-4.489,0.017259307,0.1,117.9079,1619735813999
Fix,GT,37.3958169,-122.1029163,-4.495996570825578,0.23303127,0.1,117.88315,1619735814999
Fix,GT,37.395812,-122.1029193,-4.496,1.1691664,0.1,116.36661,1619735815999
Fix,GT,37.3958019,-122.1029245,-4.481006874203682,1.9470563,0.1,108.895996,1619735816999
Fix,GT,37.395786,-122.1029289,-4.4540137641429896,2.6860542,0.1,98.33121,1619735817999
Fix,GT,37.395759,-122.1029327,-4.389020669817924,3.455395,0.1,97.27905,1619735818999
Fix,GT,37.3957205,-122.1029419,-4.306017244815826,4.573892,0.1,105.2699,1619735819999
Fix,GT,37.3956722,-122.102964,-4.248,5.9103446,0.1,114.444305,1619735820999
Fix,GT,37.3956181,-122.1029987,-4.168024198234081,7.073554,0.1,119.31241,1619735821999
Fix,GT,37.3955585,-122.1030435,-4.070024225771427,7.869253,0.1,122.65579,1619735822999
Fix,GT,37.3954984,-122.1030919,-4.022013858795166,7.9149456,0.1,121.88867,1619735823999
Fix,GT,37.3954413,-122.1031301,-3.968027749061584,7.349199,0.1,111.764435,1619735824999
Fix,GT,37.3953899,-122.1031435,-3.8700312536358834,6.616961,0.1,88.76245,1619735825999
Fix,GT,37.3953466,-122.1031288,-3.814006953120232,6.1774597,0.1,61.517517,1619735826999
Fix,GT,37.3953135,-122.1030923,-3.791,5.9340277,0.1,39.319427,1619735827999
Fix,GT,37.3952895,-122.1030407,-3.916933794736862,5.991857,0.1,26.64621,1619735828999
Fix,GT,37.3952658,-122.1029782,-4.095930230379105,6.422897,0.1,26.965698,1619735829999
Fix,GT,37.3952385,-122.1029105,-4.300926659286023,6.8680844,0.1,28.147766,1619735830999
Fix,GT,37.3952092,-122.1028415,-4.4739300718307495,6.919425,0.1,29.06604,1619735831999
Fix,GT,37.3951794,-122.1027732,-4.654915991783143,6.895884,0.1,29.167877,1619735832999
Fix,GT,37.3951498,-122.1027048,-4.904905382931232,7.1206565,0.1,28.540344,1619735833999
Fix,GT,37.3951185,-122.102631,-5.039978950381279,7.6614947,0.1,28.404144,1619735834999
Fix,GT,37.3950852,-122.1025527,-5.016,8.113509,0.1,27.986115,1619735835999
Fix,GT,37.3950503,-122.1024692,-5.032982419312001,8.649315,0.1,27.790314,1619735836999
Fix,GT,37.3950128,-122.1023794,-5.087985919713974,9.35271,0.1,27.790863,1619735837999
Fix,GT,37.3949725,-122.1022836,-5.093028192043304,9.613319,0.1,28.199585,1619735838999
Fix,GT,37.3949319,-122.1021895,-4.953067031979562,9.228389,0.1,29.12918,1619735839999
Fix,GT,37.3948927,-122.1021024,-4.794035319328308,8.343533,0.1,29.978668,1619735840999
Fix,GT,37.3948596,-122.1020291,-4.671063646674157,6.7862244,0.1,28.475647,1619735841999
Fix,GT,37.3948391,-122.1019731,-4.513042478322983,5.223442,0.1,19.39566,1619735842999
Fix,GT,37.3948335,-122.1019313,-4.414028350830078,4.6315546,0.1,358.87823,1619735843999
Fix,GT,37.3948423,-122.1018979,-4.383007095575333,4.795676,0.1,330.8263,1619735844999
Fix,GT,37.3948686,-122.1018628,-4.385996448338032,5.796011,0.1,310.3075,1619735845999
Fix,GT,37.3949135,-122.1018236,-4.39400355565548,7.0138545,0.1,303.6092,1619735846999
Fix,GT,37.3949712,-122.1017809,-4.420992880821228,8.124852,0.1,299.60062,1619735847999
Fix,GT,37.3950378,-122.1017361,-4.4539821823835375,8.549248,0.1,298.56287,1619735848999
Fix,GT,37.3951054,-122.1016912,-4.535960757315158,8.440901,0.1,298.18866,1619735849999
Fix,GT,37.3951717,-122.1016472,-4.597974999845027,8.075452,0.1,298.68207,1619735850999
Fix,GT,37.3952321,-122.1016058,-4.642989273667336,6.8978314,0.1,299.36542,1619735851999
Fix,GT,37.3952787,-122.1015729,-4.643996420621872,4.9924154,0.1,300.05426,1619735852999
Fix,GT,37.3953134,-122.1015478,-4.658953416168689,3.819302,0.1,300.2625,1619735853999
Fix,GT,37.3953378,-122.1015301,-4.711982063472271,2.4598382,0.1,300.30035,1619735854999
Fix,GT,37.3953524,-122.1015195,-4.747982044100762,1.3608303,0.1,300.28397,1619735855999
Fix,GT,37.3953617,-122.1015127,-4.773014380693436,0.8650121,0.1,300.3276,1619735856999
Fix,GT,37.3953652,-122.1015101,-4.781,0.16337314,0.1,300.35226,1619735857999
Fix,GT,37.3953656,-122.1015099,-4.785,0.032297116,0.1,300.34918,1619735858999
Fix,GT,37.3953656,-122.1015099,-4.783003607034684,0.006078857,0.1,300.34927,1619735859999
Fix,GT,37.3953656,-122.1015099,-4.783,0.0036055513,0.1,300.3485,1619735860999
Fix,GT,37.3953656,-122.1015099,-4.783,0.002236068,0.1,300.34793,1619735861999
Fix,GT,37.3953656,-122.1015099,-4.783,0.0014171879,0.1,300.3474,1619735862999
Fix,GT,37.3953656,-122.1015099,-4.783,0.0010015006,0.1,300.34665,1619735863999
Fix,GT,37.3953656,-122.1015099,-4.783,0.0,0.1,300.3463,1619735864999
Fix,GT,37.3953656,-122.1015099,-4.783,3.6306978e-06,0.1,300.34595,1619735865999
Fix,GT,37.3953656,-122.1015099,-4.783,0.0009963654,0.1,300.34552,1619735866999
Fix,GT,37.3953656,-122.1015099,-4.783,0.001,0.1,300.3442,1619735867999
Fix,GT,37.3953656,-122.1015099,-4.783,0.0,0.1,300.34372,1619735868999
Fix,GT,37.3953656,-122.1015099,-4.783,0.0,0.1,300.34308,1619735869999
Fix,GT,37.3953656,-122.1015099,-4.783,3.6504866e-06,0.1,300.34253,1619735870999
Fix,GT,37.3953656,-122.1015099,-4.783,0.0,0.1,300.34204,1619735871999
Fix,GT,37.3953656,-122.1015099,-4.783,0.0,0.1,300.34137,1619735872999
Fix,GT,37.3953656,-122.1015099,-4.783,0.0,0.1,300.34085,1619735873999
Fix,GT,37.3953656,-122.1015099,-4.783,0.0,0.1,300.34018,1619735874999
Fix,GT,37.3953656,-122.1015099,-4.783,0.001,0.1,300.33963,1619735875999
Fix,GT,37.3953656,-122.1015099,-4.783,0.0009963257,0.1,300.33914,1619735876999
Fix,GT,37.3953656,-122.1015099,-4.783,3.6781432e-06,0.1,300.3385,1619735877999
Fix,GT,37.3953656,-122.1015099,-4.783,0.001,0.1,300.3381,1619735878999
Fix,GT,37.3953656,-122.1015099,-4.783,3.6860706e-06,0.1,300.3374,1619735879999
Fix,GT,37.3953656,-122.1015099,-4.783,3.6900642e-06,0.1,300.33737,1619735880999
Fix,GT,37.3953656,-122.1015099,-4.783,0.0009963061,0.1,300.3377,1619735881999
Fix,GT,37.3953656,-122.1015099,-4.783,0.0010015317,0.1,300.33597,1619735882999
Fix,GT,37.3953656,-122.1015099,-4.783,0.0009962982,0.1,300.33514,1619735883999
Fix,GT,37.3953656,-122.1015099,-4.783,0.0014142136,0.1,300.33466,1619735884999
Fix,GT,37.3953656,-122.1015099,-4.783,0.0014142136,0.1,300.33414,1619735885999
Fix,GT,37.3953656,-122.1015099,-4.783,0.0014172657,0.1,300.3336,1619735886999
Fix,GT,37.3953656,-122.1015099,-4.783,0.002236068,0.1,300.33307,1619735887999
Fix,GT,37.3953656,-122.1015099,-4.783,0.003602659,0.1,300.33298,1619735888999
Fix,GT,37.3953656,-122.1015099,-4.783,0.0036055513,0.1,300.33264,1619735889999
Fix,GT,37.3953656,-122.1015099,-4.783,0.0042426405,0.1,300.3323,1619735890999
Fix,GT,37.3953656,-122.1015099,-4.783,0.005,0.1,300.33176,1619735891999
Fix,GT,37.3953656,-122.1015099,-4.783,0.0044755484,0.1,300.33115,1619735892999
Fix,GT,37.3953656,-122.1015099,-4.783,0.00447722,0.1,300.33084,1619735893999
Fix,GT,37.3953656,-122.10151,-4.784,0.004470829,0.1,300.33038,1619735894999
Fix,GT,37.3953657,-122.10151,-4.786,0.0020043578,0.1,300.3299,1619735895999
Fix,GT,37.3953657,-122.1015101,-4.788,0.0010037533,0.1,300.3295,1619735896999
Fix,GT,37.3953657,-122.1015101,-4.788,0.0063978527,0.1,300.32895,1619735897999
Fix,GT,37.3953655,-122.10151,-4.790996238887311,0.012041595,0.1,300.32852,1619735898999
Fix,GT,37.3953653,-122.1015098,-4.792996234893798,0.020612642,0.1,300.3281,1619735899999
Fix,GT,37.395365,-122.1015095,-4.795,0.032010324,0.1,300.32745,1619735900999
Fix,GT,37.3953661,-122.101508,-4.802003772974015,0.5251678,0.1,300.32874,1619735901999
Fix,GT,37.3953706,-122.1015037,-4.807,0.7520294,0.1,300.27972,1619735902999
Fix,GT,37.3953782,-122.1014968,-4.817981095492839,1.2486426,0.1,300.8023,1619735903999
Fix,GT,37.3953911,-122.101485,-4.898931874036789,1.6065619,0.1,306.0641,1619735904999
Fix,GT,37.3954085,-122.1014625,-5.087897701621055,2.5519545,0.1,323.89523,1619735905999
Fix,GT,37.3954244,-122.1014183,-4.946037927031517,4.261958,0.1,345.01556,1619735906999
Fix,GT,37.3954278,-122.1013487,-4.882018983483314,6.332462,0.1,6.858246,1619735907999
Fix,GT,37.3954086,-122.1012591,-4.826022803783417,8.716632,0.1,21.517578,1619735908999
Fix,GT,37.3953705,-122.1011591,-4.83101902282238,10.203191,0.1,27.751495,1619735909999
Fix,GT,37.3953229,-122.1010494,-4.839996191442013,11.814173,0.1,28.675476,1619735910999
Fix,GT,37.395268,-122.1009255,-4.847992375016212,13.215107,0.1,28.68982,1619735911999
Fix,GT,37.3952085,-122.1007909,-4.84998473405838,13.8218,0.1,28.827423,1619735912999
Fix,GT,37.3951476,-122.1006536,-4.917942693710327,14.012588,0.1,28.928314,1619735913999
Fix,GT,37.3950863,-122.1005142,-4.953015297651291,14.208507,0.1,28.487152,1619735914999
Fix,GT,37.3950248,-122.1003721,-4.937007656693459,14.438114,0.1,28.39618,1619735915999
Fix,GT,37.394962,-122.1002274,-4.905003832221031,14.708678,0.1,28.752563,1619735916999
Fix,GT,37.3948979,-122.1000806,-4.870007672429085,14.943234,0.1,28.49176,1619735917999
Fix,GT,37.3948336,-122.0999313,-4.829015360593796,15.1463585,0.1,28.25412,1619735918999
Fix,GT,37.3947686,-122.0997794,-4.797,15.388705,0.1,28.29184,1619735919999
Fix,GT,37.3947018,-122.099625,-4.835026936531067,15.688827,0.1,28.751038,1619735920999
Fix,GT,37.3946329,-122.0994682,-4.831969183921814,15.98764,0.1,28.926392,1619735921999
Fix,GT,37.3945625,-122.0993086,-4.86501542377472,16.29885,0.1,28.928345,1619735922999
Fix,GT,37.3944912,-122.0991466,-4.841011579811573,16.378502,0.1,28.877869,1619735923999
Fix,GT,37.3944207,-122.0989861,-4.801007727622986,16.0888,0.1,28.65921,1619735924999
